# Выгружено из ПО "Атлас - Подсчет запасов"
############################################
~VERSION INFORMATION
#MNEM.UNIT                                    DATA : TYPE DESCRIPTION
VERS.                                         1.20 : CWLS LOG ASCII STANDARD_VERSION 1.20
WRAP.                                           NO : One line per depth step
############################################
~WELL INFORMATION
#MNEM.UNIT                                    DATA : TYPE DESCRIPTION
STRT.M                                      1000.0 : Start depth
STOP.M                                      3049.9 : Stop depth
STEP.M                                         0.1 : Step
NULL.                                      -999.25 : Null Value
WELL.                                           16 : 16
X.                                        12554177 : X-coordinate of Well Head
Y.                                         8022673 : Y-coordinate of Well Head
RKB.                                          32.7 : RKB
############################################
~CURVE INFORMATION
#MNEM.UNIT                                    DATA : TYPE DESCRIPTION
DEPT.M                                             : DEPT
ГК.у.е.                                            : 
ПС.мВ                                              : 
############################################
~ASCII
# ...
2609.7  9.8389  106.664
2609.8  9.65227 106.676
2609.9  9.43554 106.599
2610.0  9.24766 106.522
2610.1  9.32425 106.445
2610.2  9.42669 106.368
2610.3  9.7636  106.292
2610.4  10.089  106.215
2610.5  10.3184 106.138
2610.6  10.5228 106.061
2610.7  10.5014 105.984
2610.8  10.4952 105.907
2610.9  10.6271 105.83
2611.0  10.7336 105.761
2611.1  10.61   105.764
2611.2  10.4684 105.767
2611.3  10.162  105.77
2611.4  9.8772  105.727
2611.5  9.7792  105.275
2611.6  9.70932 104.814
2611.7  9.8921  104.275
2611.8  10.0566 103.813
2611.9  10.0521 104.063
2612.0  10.0229 104.326
2612.1  9.77211 104.702
2612.2  9.55761 105.043
2612.3  9.66374 105.069
2612.4  9.7454  105.052
2612.5  9.6094  104.651
2612.6  9.45631 104.251
2612.7  9.15019 103.851
2612.8  8.89743 103.475
2612.9  9.13114 103.319
2613.0  9.32713 103.154
2613.1  9.17845 102.916
2613.2  9.02623 102.637
2613.3  8.8385  101.972
2613.4  8.6317  101.193
2613.5  8.2487  99.3768
2613.6  7.87932 97.5457
2613.7  7.63312 95.5876
2613.8  7.38116 93.5408
2613.9  7.08353 90.7457
2614.0  6.81034 87.9425
2614.1  6.76379 85.1276
2614.2  6.71985 82.3637
2614.3  6.69832 79.9908
2614.4  6.65815 77.7138
2614.5  6.44965 76.2418
2614.6  6.24623 74.831
2614.7  6.08892 73.973
2614.8  5.95726 73.131
2614.9  6.05964 72.4523
2615.0  6.15455 71.8201
2615.1  6.18008 71.6208
2615.2  6.21962 71.4443
2615.3  6.38582 71.4668
2615.4  6.5405  71.5617
2615.5  6.5955  72.3082
2615.6  6.645   73.1026
2615.7  6.645   74.3251
2615.8  6.63394 75.5982
2615.9  6.52357 77.2961
2616.0  6.41634 79.0567
2616.1  6.33975 81.344
2616.2  6.2714  83.5242
2616.3  6.27541 84.7957
2616.4  6.279   86.0442
2616.5  6.279   87.1162
2616.6  6.29817 88.0333
2616.7  6.48944 87.5579
2616.8  6.68077 87.1055
2616.9  6.86804 86.8708
2617.0  7.06298 86.8424
2617.1  7.3228  88.6761
2617.2  7.56066 90.6232
2617.3  7.60721 93.6348
2617.4  7.6609  96.6272
2617.5  7.7799  99.5186
2617.6  7.91769 102.33
2617.7  8.22381 104.417
2617.8  8.52428 106.377
2617.9  8.76648 107.159
2618.0  9.01824 107.734
2618.1  9.35065 106.439
2618.2  9.65601 105.152
2618.3  9.72609 103.902
2618.4  9.79305 102.737
2618.5  9.83355 102.308
2618.6  9.86149 101.961
2618.7  9.77659 102.363
2618.8  9.72638 102.802
2618.9  9.98956 103.564
2619.0  10.2249 104.332
2619.1  10.2039 105.128
2619.2  10.1777 105.938
2619.3  10.1052 106.891
2619.4  10.0222 107.827
2619.5  9.84365 108.622
2619.6  9.69662 109.394
2619.7  9.83245 109.956
2619.8  9.92732 110.462
2619.9  9.65115 110.465
2620.0  9.42923 110.451
2620.1  9.70157 110.295
2620.2  9.94345 110.104
2620.3  9.91792 109.609
2620.4  9.89925 109.117
2620.5  9.94175 108.636
2620.6  9.9762  108.216
2620.7  9.93824 108.341
2620.8  9.904   108.505
2620.9  9.904   109.004
2621.0  9.91637 109.498
2621.1  10.04   109.923
2621.2  10.1655 110.349
2621.3  10.3101 110.791
2621.4  10.4234 111.202
2621.5  10.2574 111.341
2621.6  10.091  111.509
2621.7  9.92119 111.936
2621.8  9.75348 112.444
2621.9  9.60866 113.658
2622.0  9.438   114.747
2622.1  9.03801 114.692
2622.2  8.68155 114.527
2622.3  8.70708 113.374
2622.4  8.7385  112.15
2622.5  8.8235  110.255
2622.6  8.87912 108.31
2622.7  8.67088 105.92
2622.8  8.44295 103.514
2622.9  8.04344 101.007
2623.0  7.68811 98.4944
2623.1  7.73917 95.9789
2623.2  7.79696 93.4984
2623.3  7.91661 91.2722
2623.4  8.0027  89.0491
2623.5  7.7897  86.8001
2623.6  7.58053 84.5254
2623.7  7.40624 82.0255
2623.8  7.23944 79.58
2623.9  7.14405 77.6843
2624.0  7.05735 75.8571
2624.1  7.05084 74.6882
2624.2  7.0463  73.5898
2624.3  7.05932 73.0982
2624.4  7.05185 72.6699
2624.5  6.86035 72.7994
2624.6  6.70502 72.9202
2624.7  6.87481 72.9622
2624.8  7.05228 72.9853
2624.9  7.29448 72.8385
2625.0  7.52536 72.6584
2625.1  7.64902 72.1829
2625.2  7.74979 71.6207
2625.3  7.64766 70.2681
2625.4  7.54195 69.0729
2625.5  7.40145 69.2619
2625.6  7.28306 69.4535
2625.7  7.36346 69.6683
2625.8  7.42409 69.9579
2625.9  7.30523 70.9147
2626.0  7.25722 71.9787
2626.1  7.84944 73.9856
2626.2  8.40188 76.1205
2626.3  8.61063 79.455
2626.4  8.8046  82.7999
2626.5  8.8706  86.3189
2626.6  8.93661 89.8244
2626.7  9.00253 93.1997
2626.8  9.07091 96.5049
2626.9  9.1598  99.0972
2627.0  9.24896 101.568
2627.1  9.33857 102.885
2627.2  9.43562 104.122
2627.3  9.60182 104.664
2627.4  9.7514  105.14
2627.5  9.7554  105.036
2627.6  9.74879 105.183
2627.7  9.64691 107.574
2627.8  9.52176 109.847
2627.9  9.19016 110.996
2628.0  8.86502 112.09
2628.1  8.6052  112.669
2628.2  8.34942 113.214
2628.3  8.12365 113.478
2628.4  7.9623  113.714
2628.5  8.3753  113.713
2628.6  8.77553 113.684
2628.7  9.06019 113.405
2628.8  9.34128 113.109
2628.9  9.58348 112.673
2629.0  9.78603 112.202
2629.1  9.62634 111.421
2629.2  9.49897 110.752
2629.3  9.65866 111.073
2629.4  9.7841  111.458
2629.5  9.6051  112.426
2629.6  9.45637 113.293
2629.7  9.57971 113.24
2629.8  9.67483 113.174
2629.9  9.51353 112.985
2630.0  9.35563 112.764
2630.1  9.23198 112.249
2630.2  9.15935 111.738
2630.3  9.54281 111.253
2630.4  9.9206  110.814
2630.5  10.2566 110.785
2630.6  10.5633 110.847
2630.7  10.6057 111.735
2630.8  10.6325 112.592
2630.9  10.5176 113.137
2631.0  10.3991 113.643
2631.1  10.2505 113.782
2631.2  10.1063 113.896
2631.3  9.99971 113.789
2631.4  9.9057  113.69
2631.5  9.9227  113.673
2631.6  9.91843 113.661
2631.7  9.72316 113.693
2631.8  9.54755 113.692
2631.9  9.55304 113.396
2632.0  9.56311 113.04
2632.1  9.61417 112.155
2632.2  9.65064 111.297
2632.3  9.55702 110.655
2632.4  9.49295 110.065
2632.5  9.69245 109.921
2632.6  9.84352 109.794
2632.7  9.55936 109.813
2632.8  9.33234 109.862
2632.9  9.62498 110.176
2633.0  9.87368 110.485
2633.1  9.72049 110.731
2633.2  9.61489 110.964
2633.3  9.93378 111.088
2633.4  10.2239 111.196
2633.5  10.2624 111.169
2633.6  10.2887 111.145
2633.7  10.2058 111.141
2633.8  10.14   111.14
2633.9  10.2294 111.159
2634.0  10.3298 111.171
2634.1  10.5275 111.125
2634.2  10.7105 111.09
2634.3  10.7656 111.148
2634.4  10.7776 111.16
2634.5  10.4036 110.763
2634.6  10.0594 110.368
2634.7  9.98348 109.995
2634.8  9.89628 109.658
2634.9  9.70951 109.661
2635.0  9.54866 109.664
2635.1  9.62525 109.667
2635.2  9.72248 109.669
2635.3  10.0073 109.672
2635.4  10.2596 109.65
2635.5  10.2256 109.398
2635.6  10.1699 109.111
2635.7  9.91973 108.508
2635.8  9.67738 107.897
2635.9  9.51158 107.237
2636.0  9.34753 106.585
2636.1  9.20286 106.012
2636.2  9.08962 105.61
2636.3  9.25582 106.728
2636.4  9.38885 107.86
2636.5  9.22735 109.137
2636.6  9.08751 110.238
2636.7  9.14244 109.764
2636.8  9.15971 109.227
2636.9  8.8376  108.139
2637.0  8.51892 107.04
2637.1  8.23807 105.858
2637.2  7.96217 104.667
2637.3  7.72388 103.372
2637.4  7.5134  102.121
2637.5  7.5474  101.233
2637.6  7.58781 100.405
2637.7  7.68569 100.112
2637.8  7.78036 99.8756
2637.9  7.84378 100.151
2638.0  7.88228 100.439
2638.1  7.69505 100.839
2638.2  7.50402 101.21
2638.3  7.27424 101.333
2638.4  7.0659  101.469
2638.5  7.0449  101.722
2638.6  7.03026 101.971
2638.7  7.0727  102.185
2638.8  7.13398 102.386
2638.9  7.3632  102.47
2639.0  7.57891 102.535
2639.1  7.66802 102.434
2639.2  7.72122 102.333
2639.3  7.45339 102.235
2639.4  7.2334  102.108
2639.5  7.4374  101.717
2639.6  7.64137 101.334
2639.7  7.84463 101.015
2639.8  8.03311 100.712
2639.9  8.08404 100.553
2640.0  8.15002 100.401
2640.1  8.35027 100.326
2640.2  8.52319 100.308
2640.3  8.45511 100.809
2640.4  8.42455 101.351
2640.5  8.73005 102.28
2640.6  9.04375 103.219
2640.7  9.43027 104.244
2640.8  9.80193 105.288
2640.9  10.0306 106.479
2641.0  10.2528 107.669
2641.1  10.4105 108.834
2641.2  10.5426 109.951
2641.3  10.449  110.669
2641.4  10.3769 111.332
2641.5  10.4959 111.51
2641.6  10.5745 111.665
2641.7  10.2898 111.602
2641.8  10.0237 111.517
2641.9  9.9308  111.228
2642.0  9.844   110.941
2642.1  9.81396 110.676
2642.2  9.79511 110.439
2642.3  9.87621 110.442
2642.4  9.92945 110.395
2642.5  9.73395 109.897
2642.6  9.52992 109.416
2642.7  9.24976 109.085
2642.8  9.01402 108.781
2642.9  9.18381 108.727
2643.0  9.35062 108.704
2643.1  9.48678 108.962
