# Выгружено из ПО "Атлас - Подсчет запасов"
############################################
~VERSION INFORMATION
#MNEM.UNIT                                    DATA : TYPE DESCRIPTION
VERS.                                         1.20 : CWLS LOG ASCII STANDARD_VERSION 1.20
WRAP.                                           NO : One line per depth step
############################################
~WELL INFORMATION
#MNEM.UNIT                                    DATA : TYPE DESCRIPTION
STRT.M                                      1000.0 : Start depth
STOP.M                                      3049.9 : Stop depth
STEP.M                                         0.1 : Step
NULL.                                      -999.25 : Null Value
WELL.                                           16 : 16
X.                                        12554177 : X-coordinate of Well Head
Y.                                         8022673 : Y-coordinate of Well Head
RKB.                                          32.7 : RKB
############################################
~CURVE INFORMATION
#MNEM.UNIT                                    DATA : TYPE DESCRIPTION
DEPT.M                                             : DEPT
ГК.у.е.                                            : 
ПС.мВ                                              : 
############################################
~ASCII
# ...
2073.1  9.57768 106.52
2073.2  9.5636  106.08
2073.3  9.53957 105.659
2073.4  9.51035 105.228
2073.5  9.43385 104.702
2073.6  9.34508 104.148
2073.7  9.14632 103.348
2073.8  8.98352 102.49
2073.9  9.14832 101.124
2074.0  9.30596 99.7186
2074.1  9.39557 97.9945
2074.2  9.46664 96.2914
2074.3  9.37302 94.7355
2074.4  9.2788  93.119
2074.5  9.1768  90.919
2074.6  9.0812  87.7118
2074.7  9.04324 75.4698
2074.8  8.99073 64.3399
2074.9  8.80845 63.4909
2075.0  8.62873 62.6161
2075.1  8.47604 61.5267
2075.2  8.32033 60.5019
2075.3  8.1336  60.0314
2075.4  7.94775 59.5657
2075.5  7.76525 59.1327
2075.6  7.58443 58.6925
2075.7  7.41913 58.1892
2075.8  7.28061 57.6887
2075.9  7.38648 57.2273
2076.0  7.46418 56.7669
2076.1  7.28596 56.3259
2076.2  7.11579 55.8818
2076.3  7.01366 55.4003
2076.4  6.9046  54.9152
2076.5  6.7306  54.3872
2076.6  6.57911 53.873
2076.7  6.63004 53.484
2076.8  6.68536 53.1889
2076.9  6.77875 53.7462
2077.0  6.84813 54.4475
2077.1  6.69945 56.4324
2077.2  6.57406 58.494
2077.3  6.65466 61.2939
2077.4  6.72235 64.1396
2077.5  6.67585 67.4656
2077.6  6.65267 70.8461
2077.7  6.83894 74.7079
2077.8  7.0036  78.5742
2077.9  6.96964 82.3871
2078.0  6.95557 86.1968
2078.1  7.12127 89.8943
2078.2  7.29338 93.5328
2078.3  7.52716 96.7307
2078.4  7.75605 99.8782
2078.5  7.94655 102.65
2078.6  8.12606 105.245
2078.7  8.20646 106.248
2078.8  8.30113 107.221
2078.9  8.52186 107.894
2079.0  8.73922 108.488
2079.1  8.92144 108.345
2079.2  9.10327 108.203
2079.3  9.286   108.06
2079.4  9.4483  107.918
2079.5  9.4313  107.775
2079.6  9.4194  107.632
2079.7  9.45336 107.489
2079.8  9.46873 107.334
2079.9  9.31642 107.068
2080.0  9.16453 106.861
2080.1  9.01986 107.196
2080.2  8.90277 107.541
2080.3  9.03042 107.994
2080.4  9.14585 108.411
2080.5  9.15435 108.512
2080.6  9.15814 108.625
2080.7  9.11969 108.845
2080.8  9.06122 109.076
2080.9  8.82401 109.406
2081.0  8.56795 109.685
2081.1  8.14744 109.49
2081.2  7.77511 109.267
2081.3  7.82617 108.787
2081.4  7.85545 108.308
2081.5  7.68995 107.832
2081.6  7.53339 107.368
2081.7  7.45748 107.011
2081.8  7.3478  106.677
2081.9  6.9368  106.563
2082.0  6.51929 106.48
2082.1  6.05222 106.687
2082.2  5.5544  106.89
2082.3  4.76845 107.065
2082.4  4.0401  107.195
2082.5  3.8111  106.93
2082.6  3.687   106.659
2082.7  4.505   106.339
2082.8  5.30793 106.014
2082.9  5.95564 105.641
2083.0  6.58801 105.241
2083.1  7.06809 104.614
2083.2  7.55081 103.993
2083.3  8.06894 103.417
2083.4  8.5709  102.857
2083.5  8.9399  102.438
2083.6  9.24397 102.046
2083.7  8.96431 101.908
2083.8  8.7103  101.817
2083.9  8.69332 102.151
2084.0  8.64872 102.535
2084.1  8.35586 103.355
2084.2  8.07263 104.175
2084.3  7.86888 105.013
2084.4  7.69615 105.82
2084.5  7.79765 106.365
2084.6  7.892   106.88
2084.7  7.92197 107.127
2084.8  7.95791 107.364
2084.9  8.0468  107.508
2085.0  8.11594 107.652
2085.1  8.0053  107.795
2085.2  7.87121 107.907
2085.3  7.52328 107.748
2085.4  7.2937  107.575
2085.5  8.1207  107.269
2085.6  8.91086 106.944
2085.7  9.3683  106.453
2085.8  9.76103 105.989
2085.9  9.56177 105.777
2086.0  9.36288 105.633
2086.1  9.17164 106.1
2086.2  8.98558 106.578
2086.3  8.84141 107.163
2086.4  8.6963  107.697
2086.5  8.5393  107.784
2086.6  8.37312 107.853
2086.7  8.12492 107.75
2086.8  7.93419 107.672
2086.9  8.26529 107.816
2087.0  8.58863 107.958
2087.1  8.83493 108.065
2087.2  9.08068 108.153
2087.3  9.32748 108.068
2087.4  9.56515 107.991
2087.5  9.72665 107.975
2087.6  9.85968 107.965
2087.7  9.73684 108.009
2087.8  9.62941 108.066
2087.9  9.66336 108.242
2088.0  9.67738 108.421
2088.1  9.51118 108.617
2088.2  9.37221 108.8
2088.3  9.47434 108.856
2088.4  9.55965 108.938
2088.5  9.49615 109.254
2088.6  9.44751 109.57
2088.7  9.53241 109.886
2088.8  9.60429 110.204
2088.9  9.55735 110.52
2089.0  9.50309 110.816
2089.1  9.38394 110.912
2089.2  9.26383 111.008
2089.3  9.13217 111.105
2089.4  9.0242  111.202
2089.5  9.1262  111.298
2089.6  9.20013 111.395
2089.7  9.02185 111.491
2089.8  8.83121 111.588
2089.9  8.53408 111.684
2090.0  8.23456 111.781
2090.1  7.92018 111.878
2090.2  7.61968 111.821
2090.3  7.43645 110.382
2090.4  7.32555 109.089
2090.5  7.86105 109.07
2090.6  8.38936 108.978
2090.7  8.85179 108.228
2090.8  9.26259 107.47
2090.9  9.19867 106.649
2091.0  9.16698 105.867
2091.1  9.4268  105.452
2091.2  9.66551 105.075
2091.3  9.72057 105.021
2091.4  9.75555 104.977
2091.5  9.61105 105.018
2091.6  9.4793  105.071
2091.7  9.46232 105.239
2091.8  9.45085 105.416
2091.9  9.48931 105.67
2092.0  9.50272 105.872
2092.1  9.28996 105.616
2092.2  9.09835 105.371
2092.3  9.09184 105.222
2092.4  9.09045 105.075
2092.5  9.13495 104.947
2092.6  9.17074 104.81
2092.7  9.1283  104.597
2092.8  9.07899 104.421
2092.9  8.96912 104.579
2093.0  8.89038 104.778
2093.1  9.09412 105.35
2093.2  9.26509 105.902
2093.3  9.14594 106.296
2093.4  9.02375 106.678
2093.5  8.87125 106.962
2093.6  8.71398 107.247
2093.7  8.51422 107.531
2093.8  8.32294 107.772
2093.9  8.21257 107.615
2094.0  8.08537 107.463
2094.1  7.80903 107.367
2094.2  7.52701 107.271
2094.3  7.18709 107.175
2094.4  6.8106  107.078
2094.5  6.0966  106.981
2094.6  5.36129 106.884
2094.7  4.43642 106.788
2094.8  3.58032 106.693
2094.9  3.36409 106.609
2095.0  3.18091 106.553
2095.1  3.30006 106.739
2095.2  3.41636 106.95
2095.3  3.50998 107.384
2095.4  3.6186  107.787
2095.5  3.8646  107.914
2095.6  4.11794 108.034
2095.7  4.43655 108.082
2095.8  4.81756 108.145
2095.9  5.75092 108.331
2096.0  6.66444 108.51
2096.1  7.37881 108.615
2096.2  8.06806 108.705
2096.3  8.54865 108.661
2096.4  9.0191  108.602
2096.5  9.4101  108.41
2096.6  9.78408 108.219
2096.7  10.0043 108.027
2096.8  10.2    107.835
2096.9  10.1706 107.643
2097.0  10.1665 107.451
2097.1  10.3918 107.259
2097.2  10.5753 107.084
2097.3  10.388  107.058
2097.4  10.2247 107.049
2097.5  10.2717 107.189
2097.6  10.2949 107.329
2097.7  10.1041 107.469
2097.8  9.92304 107.609
2097.9  9.83365 107.749
2098.0  9.76151 107.89
2098.1  9.84661 108.03
2098.2  9.92175 108.147
2098.3  9.90923 108.066
2098.4  9.90945 107.986
2098.5  10.0239 107.905
2098.6  10.1087 107.814
2098.7  9.92645 107.622
2098.8  9.75519 107.325
2098.9  9.68727 106.086
2099.0  9.61874 104.893
2099.1  9.54615 104.139
2099.2  9.45041 103.392
2099.3  9.14454 102.691
2099.4  8.8912  101.997
2099.5  9.1032  101.361
2099.6  9.29956 100.703
2099.7  9.35499 99.8556
2099.8  9.38457 98.9975
2099.9  9.18082 98.0646
2100.0  8.9953  97.155
2100.1  8.97828 96.4752
2100.2  8.95069 95.7659
2100.3  8.82753 94.7747
2100.4  8.69405 93.7981
2100.5  8.46455 92.9291
2100.6  8.24438 92.0574
2100.7  8.10855 91.164
2100.8  7.96603 89.9897
2100.9  7.76677 86.3157
2101.0  7.56913 82.42
2101.1  7.39041 76.6105
2101.2  7.21723 71.0444
2101.3  7.08958 67.5281
2101.4  6.95845 64.2346
2101.5  6.79295 62.8606
2101.6  6.62698 61.4815
2101.7  6.45719 60.0597
2101.8  6.29078 58.6345
2101.9  6.15895 57.2127
2102.0  6.05236 55.7463
2102.1  6.17602 53.909
2102.2  6.30187 52.1261
2102.3  6.45055 50.787
2102.4  6.5938  49.5334
2102.5  6.6918  49.018
2102.6  6.77359 48.5263
2102.7  6.70967 48.2502
2102.8  6.63969 47.9683
2102.9  6.51684 47.6417
2103.0  6.39664 47.323
2103.1  6.30302 47.0832
2103.2  6.21219 46.8862
2103.3  6.14411 47.0679
2103.4  6.0711  47.3031
2103.5  5.9521  48.0241
2103.6  5.83734 48.7478
2103.7  5.76093 49.4939
2103.8  5.69966 50.2178
2103.9  5.77607 50.7247
2104.0  5.85266 51.2267
2104.1  5.92925 51.6737
2104.2  6.00566 52.1376
2104.3  6.08225 52.7633
2104.4  6.1769  53.3936
2104.5  6.4359  54.079
2104.6  6.69493 54.7461
2104.7  6.95362 55.246
2104.8  7.19381 55.7154
2104.9  7.26172 55.8986
2105.0  7.31834 56.0441
2105.1  7.27179 55.8454
2105.2  7.24106 55.5985
2105.3  7.3517  54.9131
2105.4  7.43995 54.2037
2105.5  7.32945 53.2607
2105.6  7.22104 52.3194
2105.7  7.13165 51.3955
2105.8  7.03954 50.473
2105.9  6.92518 49.5856
2106.0  6.81734 48.7355
2106.1  6.77079 48.2404
2106.2  6.72049 47.7801
2106.3  6.63539 47.6214
2106.4  6.5522  47.4654
2106.5  6.4842  47.3288
2106.6  6.44172 47.2547
