# Выгружено из ПО "Атлас - Подсчет запасов"
############################################
~VERSION INFORMATION
#MNEM.UNIT                                    DATA : TYPE DESCRIPTION
VERS.                                         1.20 : CWLS LOG ASCII STANDARD_VERSION 1.20
WRAP.                                           NO : One line per depth step
############################################
~WELL INFORMATION
#MNEM.UNIT                                    DATA : TYPE DESCRIPTION
STRT.M                                      1000.0 : Start depth
STOP.M                                      3049.9 : Stop depth
STEP.M                                         0.1 : Step
NULL.                                      -999.25 : Null Value
WELL.                                           16 : 16
X.                                        12554177 : X-coordinate of Well Head
Y.                                         8022673 : Y-coordinate of Well Head
RKB.                                          32.7 : RKB
############################################
~CURVE INFORMATION
#MNEM.UNIT                                    DATA : TYPE DESCRIPTION
DEPT.M                                             : DEPT
ГК.у.е.                                            : 
ПС.мВ                                              : 
############################################
~ASCII
# ...
2341.5  9.03625 106.45
2341.6  8.91001 106.221
2341.7  9.01988 106.582
2341.8  9.11009 106.927
2341.9  9.0212  107.112
2342.0  8.95331 107.213
2342.1  9.07647 106.54
2342.2  9.1883  105.828
2342.3  9.20132 104.739
2342.4  9.1994  103.693
2342.5  9.0634  103.004
2342.6  8.95547 102.375
2342.7  9.09979 102.296
2342.8  9.22274 102.154
2342.9  9.15033 101.455
2343.0  9.0833  100.646
2343.1  9.06628 98.862
2343.2  9.03233 97.0379
2343.3  8.8456  94.8072
2343.4  8.68565 92.5622
2343.5  8.76215 90.1348
2343.6  8.82654 87.7412
2343.7  8.7821  85.6588
2343.8  8.72268 83.6462
2343.9  8.52991 82.3113
2344.0  8.34879 81.0789
2344.1  8.2767  80.7981
2344.2  8.18737 80.6145
2344.3  7.94107 81.2993
2344.4  7.7272  82.0438
2344.5  7.7992  83.3418
2344.6  7.87546 84.6062
2344.7  7.98982 85.5655
2344.8  8.07728 86.5219
2344.9  7.92047 87.4288
2345.0  7.79472 88.396
2345.1  7.95191 89.8858
2345.2  8.10702 91.4113
2345.3  8.24719 93.2941
2345.4  8.40435 95.1107
2345.5  8.71785 96.3783
2345.6  9.01066 97.5779
2345.7  9.11703 98.1657
2345.8  9.17771 98.75
2345.9  8.82564 99.2889
2346.0  8.51821 99.8396
2346.1  8.62034 100.486
2346.2  8.72517 101.099
2346.3  8.85683 101.432
2346.4  8.9852  101.742
2346.5  9.0872  101.865
2346.6  9.176   102.027
2346.7  9.14603 102.548
2346.8  9.10884 103.082
2346.9  9.00746 103.727
2347.0  8.90664 104.386
2347.1  8.81302 105.151
2347.2  8.75618 105.931
2347.3  9.02802 106.871
2347.4  9.2894  107.772
2347.5  9.4634  108.339
2347.6  9.61064 108.853
2347.7  9.51725 108.888
2347.8  9.45212 108.899
2347.9  9.64289 108.685
2348.0  9.80949 108.488
2348.1  9.75443 108.447
2348.2  9.72197 108.385
2348.3  9.89168 108.125
2348.4  10.0499 107.789
2348.5  10.1095 106.766
2348.6  10.1613 105.726
2348.7  10.1443 104.543
2348.8  10.1111 103.403
2348.9  9.93285 102.673
2349.0  9.72234 102.071
2349.1  9.22573 102.632
2349.2  8.76088 103.191
2349.3  8.56964 103.751
2349.4  8.39505 104.31
2349.5  8.36555 104.87
2349.6  8.34411 105.43
2349.7  8.39504 105.989
2349.8  8.43674 106.51
2349.9  8.3943  106.673
2350.0  8.39209 106.603
2350.1  8.75303 104.432
2350.2  9.10543 102.394
2350.3  9.38978 101.498
2350.4  9.64205 100.583
2350.5  9.61255 99.4719
2350.6  9.56903 98.3835
2350.7  9.39974 97.5006
2350.8  9.21726 96.56
2350.9  8.92063 95.1238
2351.0  8.65806 94.0675
2351.1  8.70862 96.4624
2351.2  8.77312 98.7171
2351.3  8.96436 99.7684
2351.4  9.1042  100.816
2351.5  8.7862  101.857
2351.6  8.49705 102.872
2351.7  8.46758 103.664
2351.8  8.44821 104.449
2351.9  8.52012 105.146
2352.0  8.58585 105.863
2352.1  8.59436 106.746
2352.2  8.62363 107.545
2352.3  8.83989 107.612
2352.4  9.0124  107.68
2352.5  8.7964  107.747
2352.6  8.62703 107.02
2352.7  8.87673 99.1602
2352.8  9.09439 91.8029
2352.9  9.01848 89.1481
2353.0  8.94574 86.9448
2353.1  8.90319 88.8626
2353.2  8.84377 90.7458
2353.3  8.63152 92.3643
2353.4  8.4113  93.9544
2353.5  8.1143  95.3279
2353.6  7.82748 96.7171
2353.7  7.63271 98.2442
2353.8  7.45825 99.8175
2353.9  7.47074 101.768
2354.0  7.50538 103.681
2354.1  7.73916 105.207
2354.2  7.9507  106.603
2354.3  7.96772 106.867
2354.4  8.0042  107.074
2354.5  8.2162  106.78
2354.6  8.43118 106.518
2354.7  8.67238 106.551
2354.8  8.91038 106.61
2354.9  9.11363 106.914
2355.0  9.27367 107.205
2355.1  9.04039 107.385
2355.2  8.85858 107.535
2355.3  9.13442 107.425
2355.4  9.371   107.313
2355.5  9.261   107.184
2355.6  9.18408 107.071
2355.7  9.40431 107.097
2355.8  9.60385 107.099
2355.9  9.61234 106.889
2356.0  9.64418 106.644
2356.1  9.88597 106.09
2356.2  10.0788 105.545
2356.3  9.83703 105.066
2356.4  9.59155 104.62
2356.5  9.30705 104.46
2356.6  9.04254 104.31
2356.7  8.95814 104.246
2356.8  8.89301 104.164
2356.9  9.00288 103.924
2357.0  9.08758 103.692
2357.1  8.94341 103.53
2357.2  8.80679 103.399
2357.3  8.7347  103.543
2357.4  8.6734  103.69
2357.5  8.7074  103.872
2357.6  8.75963 104.014
2357.7  8.97536 103.798
2357.8  9.18867 103.58
2357.9  9.37495 103.348
2358.0  9.55281 103.157
2358.1  9.65093 103.342
2358.2  9.73174 103.538
2358.3  9.65915 103.835
2358.4  9.61055 104.106
2358.5  9.77605 104.145
2358.6  9.91098 104.185
2358.7  9.77115 104.238
2358.8  9.67854 104.303
2358.9  10.0131 104.471
2359.0  10.3413 104.64
2359.1  10.6047 104.806
2359.2  10.7956 104.971
2359.3  10.3415 105.13
2359.4  9.906   105.303
2359.5  9.626   105.599
2359.6  9.34216 105.912
2359.7  9.02455 106.373
2359.8  8.73585 106.84
2359.9  8.71437 107.359
2360.0  8.69585 107.858
2360.1  8.70436 108.155
2360.2  8.68652 108.452
2360.3  8.43171 108.749
2360.4  8.2115  109.034
2360.5  8.2965  109.218
2360.6  8.39763 109.349
2360.7  8.64333 108.989
2360.8  8.85183 108.594
2360.9  8.72049 107.885
2361.0  8.61557 107.171
2361.1  8.75123 106.432
2361.2  8.87726 105.71
2361.3  8.91981 105.115
2361.4  8.9601  104.531
2361.5  8.9811  104.023
2361.6  9.00681 103.533
2361.7  9.07473 103.216
2361.8  9.11608 102.952
2361.9  8.91732 103.176
2362.0  8.75112 103.426
2362.1  8.88228 103.912
2362.2  9.02633 104.378
2362.3  9.28965 104.673
2362.4  9.53705 104.961
2362.5  9.64755 105.187
2362.6  9.71261 105.311
2362.7  9.36953 104.521
2362.8  9.03237 103.47
2362.9  8.7567  100.085
2363.0  8.51396 96.9412
2363.1  8.57353 96.0331
2363.2  8.63846 95.2536
2363.3  8.7531  95.6095
2363.4  8.83355 96.0306
2363.5  8.60905 97.0471
2363.6  8.40059 98.0469
2363.7  8.33667 98.8939
2363.8  8.25567 99.734
2363.9  8.02296 100.493
2364.0  7.83973 101.248
2364.1  8.10706 101.963
2364.2  8.39075 102.665
2364.3  8.82829 103.278
2364.4  9.23965 103.891
2364.5  9.42615 104.522
2364.6  9.59485 105.144
2364.7  9.60334 105.696
2364.8  9.60975 106.233
2364.9  9.59726 106.618
2365.0  9.55837 106.977
2365.1  9.28203 107.086
2365.2  9.02509 107.142
2365.3  8.93598 106.721
2365.4  8.8819  106.301
2365.5  9.1409  105.873
2365.6  9.34256 105.478
2365.7  9.02894 105.384
2365.8  8.75281 105.315
2365.9  8.82073 105.462
2366.0  8.8841  105.621
2366.1  8.90513 105.876
2366.2  8.927   106.123
2366.3  8.95704 106.304
2366.4  9.00645 106.478
2366.5  9.23095 106.597
2366.6  9.44912 106.68
2366.7  9.60992 106.431
2366.8  9.72997 106.154
2366.9  9.48028 105.626
2367.0  9.24779 105.096
2367.1  9.1757  104.56
2367.2  9.08467 103.969
2367.3  8.82135 102.876
2367.4  8.56675 101.68
2367.5  8.38425 99.5344
2367.6  8.22891 97.3482
2367.7  8.3178  94.8063
2367.8  8.40736 92.389
2367.9  8.50075 91.152
2368.0  8.57864 90.1043
2368.1  8.51507 90.7871
2368.2  8.4601  91.6066
2368.3  8.48113 93.6726
2368.4  8.49705 95.7789
2368.5  8.46755 98.2973
2368.6  8.45837 100.673
2368.7  8.63166 101.755
2368.8  8.80928 102.661
2368.9  9.02152 101.953
2369.0  9.18752 100.993
2369.1  8.93271 97.778
2369.2  8.68868 94.4946
2369.3  8.53549 90.5208
2369.4  8.41455 86.6628
2369.5  8.58005 83.7514
2369.6  8.68695 80.9363
2369.7  8.26746 78.9936
2369.8  7.87118 77.1953
2369.9  7.6934  76.7399
2370.0  7.51773 76.53
2370.1  7.36505 78.5405
2370.2  7.24963 80.682
2370.3  7.46589 84.0521
2370.4  7.688   87.3762
2370.5  7.968   90.3682
2370.6  8.25439 93.2734
2370.7  8.59747 95.3923
2370.8  8.90189 97.4272
2370.9  8.85096 98.6562
2371.0  8.79228 99.8344
2371.1  8.66513 100.529
2371.2  8.5888  101.198
2371.3  8.96676 101.657
2371.4  9.3288  102.108
2371.5  9.5568  102.504
2371.6  9.76711 102.909
2371.7  9.81804 103.404
2371.8  9.87586 103.856
2371.9  9.99422 103.908
2372.0  10.067  103.928
2372.1  9.72709 103.662
2372.2  9.40498 103.445
2372.3  9.23477 103.661
2372.4  9.0718  103.903
2372.5  8.9698  104.378
2372.6  8.87374 104.832
2372.7  8.8313  105.102
2372.8  8.76236 105.316
2372.9  8.45674 105.027
2373.0  8.15552 104.738
2373.1  7.90071 104.459
2373.2  7.67751 104.098
2373.3  7.73257 102.999
2373.4  7.7994  101.743
2373.5  7.9734  99.0552
2373.6  8.11303 96.2853
2373.7  7.94374 92.7865
2373.8  7.81308 89.2249
2373.9  8.03331 85.1833
2374.0  8.2286  81.2168
2374.1  8.19455 78.0144
2374.2  8.19634 74.9893
2374.3  8.51973 73.4825
2374.4  8.79175 72.1187
2374.5  8.60925 72.0057
2374.6  8.45561 72.1499
2374.7  8.56148 74.6029
2374.8  8.66851 77.2255
2374.9  8.78337 81.3105
