# Выгружено из ПО "Атлас - Подсчет запасов"
############################################
~VERSION INFORMATION
#MNEM.UNIT                                    DATA : TYPE DESCRIPTION
VERS.                                         1.20 : CWLS LOG ASCII STANDARD_VERSION 1.20
WRAP.                                           NO : One line per depth step
############################################
~WELL INFORMATION
#MNEM.UNIT                                    DATA : TYPE DESCRIPTION
STRT.M                                      1000.0 : Start depth
STOP.M                                      3049.9 : Stop depth
STEP.M                                         0.1 : Step
NULL.                                      -999.25 : Null Value
WELL.                                           16 : 16
X.                                        12554177 : X-coordinate of Well Head
Y.                                         8022673 : Y-coordinate of Well Head
RKB.                                          32.7 : RKB
############################################
~CURVE INFORMATION
#MNEM.UNIT                                    DATA : TYPE DESCRIPTION
DEPT.M                                             : DEPT
ГК.у.е.                                            : 
ПС.мВ                                              : 
############################################
~ASCII
# ...
2475.6  6.36047 62.3357
2475.7  6.50479 62.7911
2475.8  6.64691 63.2796
2475.9  6.76577 64.0536
2476.0  6.86109 64.9405
2476.1  6.74194 66.8258
2476.2  6.62394 68.7707
2476.3  6.5133  71.2978
2476.4  6.39955 73.7368
2476.5  6.25505 75.4443
2476.6  6.10888 77.0965
2476.7  5.94808 78.2486
2476.8  5.78683 79.4206
2476.9  5.62553 80.7429
2477.0  5.48636 82.025
2477.1  5.54994 82.9151
2477.2  5.59594 83.7702
2477.3  5.4853  84.3324
2477.4  5.3924  84.8801
2477.5  5.4564  85.3116
2477.6  5.511   85.707
2477.7  5.48103 85.7769
2477.8  5.46932 85.8062
2477.9  5.62213 85.4686
2478.0  5.78338 85.1149
2478.1  6.01716 84.6243
2478.2  6.23341 84.1333
2478.3  6.29749 83.6262
2478.4  6.3516  83.086
2478.5  6.3176  82.2365
2478.6  6.30527 81.3749
2478.7  6.48755 80.4066
2478.8  6.66221 79.4374
2478.9  6.76409 78.4836
2479.0  6.85305 77.5367
2479.1  6.82351 76.6742
2479.2  6.7936  75.8868
2479.3  6.75955 75.7546
2479.4  6.7362  75.7975
2479.5  6.8082  77.4119
2479.6  6.87896 79.1402
2479.7  6.93838 81.8859
2479.8  6.97713 84.5381
2479.9  6.82881 86.285
2480.0  6.68264 87.887
2480.1  6.55898 88.1473
2480.2  6.43483 88.3687
2480.3  6.30317 88.2461
2480.4  6.1663  88.1402
2480.5  5.9793  88.1822
2480.6  5.80164 88.1569
2480.7  5.70825 87.5277
2480.8  5.64613 86.7809
2480.9  5.86686 84.9946
2481.0  6.0626  83.213
2481.1  6.02855 81.5129
2481.2  6.01627 79.8543
2481.3  6.199   78.5272
2481.4  6.3698  77.2206
2481.5  6.4378  76.0666
2481.6  6.51602 74.8848
2481.7  6.68581 73.4566
2481.8  6.85132 72.0615
2481.9  6.97416 70.9988
2482.0  7.07864 69.9714
2482.1  7.01506 69.285
2482.2  6.95079 68.6143
2482.3  6.8787  68.0671
2482.4  6.7936  67.5266
2482.5  6.5896  67.0326
2482.6  6.39664 66.5224
2482.7  6.30325 65.8677
2482.8  6.22731 65.2122
2482.9  6.31021 64.566
2483.0  6.38435 63.9257
2483.1  6.37784 63.3525
2483.2  6.36434 62.774
2483.3  6.28775 62.1337
2483.4  6.21645 61.4979
2483.5  6.19095 60.8869
2483.6  6.168   60.2849
2483.7  6.168   59.7656
2483.8  6.1663  59.2448
2483.9  6.14932 58.7239
2484.0  6.13185 58.2105
2484.1  6.11032 57.7755
2484.2  6.094   57.3477
2484.3  6.12404 56.9742
2484.4  6.14295 56.6181
2484.5  6.06245 56.4096
2484.6  5.99466 56.2495
2484.7  6.0411  56.5242
2484.8  6.09872 56.8057
2484.9  6.25553 57.1418
2485.0  6.3949  57.4611
2485.1  6.37387 57.6218
2485.2  6.3537  57.779
2485.3  6.34068 57.9092
2485.4  6.3337  58.039
2485.5  6.3807  58.1684
2485.6  6.45999 58.2782
2485.7  6.82904 58.2103
2485.8  7.14158 58.1165
2485.9  6.93782 57.7919
2486.0  6.7553  57.4784
2486.1  6.76832 57.2721
2486.2  6.79742 57.1145
2486.3  6.97163 57.3899
2486.4  7.0991  57.7227
2486.5  6.8101  58.5797
2486.6  6.56277 59.4418
2486.7  6.69011 60.3477
2486.8  6.81731 61.2315
2486.9  6.94017 61.8952
2487.0  7.07057 62.5525
2487.1  7.26631 63.1377
2487.2  7.45522 63.7264
2487.3  7.58738 64.3607
2487.4  7.6979  64.9863
2487.5  7.6169  65.5488
2487.6  7.53294 66.0918
2487.7  7.42257 66.4594
2487.8  7.33196 66.7083
2487.9  7.42135 65.8828
2488.0  7.49689 65.0143
2488.1  7.44583 63.7767
2488.2  7.39019 62.6151
2488.3  7.29207 62.106
2488.4  7.19045 61.621
2488.5  7.05495 61.341
2488.6  6.94702 61.0819
2488.7  7.08685 61.011
2488.8  7.19643 60.9529
2488.9  7.03113 61.0118
2489.0  6.89557 61.0452
2489.1  7.03123 60.8475
2489.2  7.14789 60.6322
2489.3  7.09683 60.2542
2489.4  7.05695 59.894
2489.5  7.11645 59.684
2489.6  7.1717  59.4722
2489.7  7.18868 59.245
2489.8  7.19719 59.015
2489.9  7.12927 58.7653
2490.0  7.0642  58.5482
2490.1  7.02615 58.6303
2490.2  6.98649 58.7463
2490.3  6.93143 59.1699
2490.4  6.90235 59.5909
2490.5  7.10585 59.9994
2490.6  7.2856  60.3884
2490.7  7.25164 60.6016
2490.8  7.23547 60.787
2490.9  7.37979 60.7171
2491.0  7.51556 60.6439
2491.1  7.57112 60.5433
2491.2  7.61544 60.4782
2491.3  7.55988 60.7305
2491.4  7.51425 60.9832
2491.5  7.55675 61.2452
2491.6  7.60691 61.472
2491.7  7.72577 61.3826
2491.8  7.81813 61.3085
2491.9  7.66981 61.3734
2492.0  7.52409 61.4625
2492.1  7.40494 61.7674
2492.2  7.30566 62.0558
2492.3  7.38225 62.204
2492.4  7.4323  62.3577
2492.5  7.2453  62.5653
2492.6  7.07955 62.7918
2492.7  7.10502 63.1894
2492.8  7.11098 63.6073
2492.9  6.94119 64.1985
2493.0  6.78204 64.7883
2493.1  6.72247 65.3515
2493.2  6.68347 65.8842
2493.3  6.82814 66.1566
2493.4  6.96945 66.3905
2493.5  7.08395 66.286
2493.6  7.19171 66.1459
2493.7  7.23865 65.6865
2493.8  7.29927 65.2167
2493.9  7.48155 64.6649
2494.0  7.66217 64.1287
2494.1  7.82387 63.7452
2494.2  7.9707  63.3719
2494.3  7.98772 63.0811
2494.4  7.98985 62.814
2494.5  7.85835 62.754
2494.6  7.72383 62.7149
2494.7  7.56253 62.8632
2494.8  7.43187 63.0379
2494.9  7.58019 63.4454
2495.0  7.70764 63.9195
2495.1  7.64406 64.9848
2495.2  7.58445 66.0482
2495.3  7.55892 67.12
2495.4  7.5517  68.1972
2495.5  7.7087  69.3492
2495.6  7.86617 70.5355
2495.7  8.02747 72.0272
2495.8  8.17766 73.5544
2495.9  8.2241  75.3637
2496.0  8.27026 77.2202
2496.1  8.31281 79.4625
2496.2  8.35996 81.6317
2496.3  8.44957 83.1992
2496.4  8.52575 84.6754
2496.5  8.48325 85.3694
2496.6  8.44074 86.1267
2496.7  8.3983  87.45
2496.8  8.34723 88.4943
2496.9  8.21989 87.0011
2497.0  8.07521 85.4946
2497.1  7.77735 83.9007
2497.2  7.51981 81.6417
2497.3  7.61793 73.3591
2497.4  7.70215 65.8111
2497.5  7.66365 64.6721
2497.6  7.61924 63.5331
2497.7  7.52186 62.3965
2497.8  7.44291 61.3477
2497.9  7.5318  61.1155
2498.0  7.63328 60.9858
2498.1  7.84604 61.7843
2498.2  8.04636 62.6032
2498.3  8.13998 63.6249
2498.4  8.23545 64.587
2498.5  8.34995 65.0365
2498.6  8.44674 65.3823
2498.7  8.38432 64.7965
2498.8  8.33501 64.2266
2498.9  8.40492 63.8136
2499.0  8.46344 63.4316
2499.1  8.41789 63.338
2499.2  8.36974 63.2845
2499.3  8.29715 63.5894
2499.4  8.232   63.9273
2499.5  8.232   64.5708
2499.6  8.24647 65.2038
2499.7  8.39079 65.7401
2499.8  8.52656 66.2868
2499.9  8.58199 66.9136
2500.0  8.66088 67.5572
2500.1  8.94974 68.3397
2500.2  9.21881 69.1274
2500.3  9.31693 69.9809
2500.4  9.4016  70.8844
2500.5  9.3676  72.2584
2500.6  9.30086 73.6906
2500.7  8.9403  75.6417
2500.8  8.60904 77.5566
2500.9  8.54962 79.0987
2501.0  8.50366 80.617
2501.1  8.58025 81.8865
2501.2  8.67789 83.2475
2501.3  8.96674 85.4627
2501.4  9.246   87.7148
2501.5  9.446   90.3528
2501.6  9.61108 92.9738
2501.7  9.46226 95.4363
2501.8  9.34502 97.8174
2501.9  9.51481 99.408
2502.0  9.65098 100.9
2502.1  9.48077 101.467
2502.2  9.30167 101.961
2502.3  9.03835 101.799
2502.4  8.78245 101.571
2502.5  8.58695 100.743
2502.6  8.39823 99.7786
2502.7  8.27089 97.5898
2502.8  8.15515 95.3633
2502.9  8.14666 92.8524
2503.0  8.15642 90.4115
2503.1  8.33063 88.6569
2503.2  8.46532 86.8326
2503.3  8.24856 84.338
2503.4  8.05145 81.8483
2503.5  8.02595 79.3408
2503.6  7.9992  76.9563
2503.7  7.96124 75.6824
2503.8  7.9236  74.4414
2503.9  7.88964 73.5281
2504.0  7.8573  72.6324
2504.1  7.84028 71.916
2504.2  7.81223 71.2257
2504.3  7.68458 70.7532
2504.4  7.56405 70.2909
2504.5  7.50455 69.9099
2504.6  7.44119 69.5404
2504.7  7.34331 69.2747
2504.8  7.24269 69.0145
2504.9  7.11983 68.8097
2505.0  6.99498 68.6213
2505.1  6.85481 68.5848
2505.2  6.71493 68.5694
2505.3  6.57426 68.7431
2505.4  6.4663  68.9322
2505.5  6.6493  69.2636
2505.6  6.80249 69.6498
2505.7  6.68763 70.5252
2505.8  6.56913 71.442
2505.9  6.42081 72.7084
2506.0  6.28955 73.8719
2506.1  6.31508 74.0806
2506.2  6.34396 74.1754
2506.3  6.40353 73.2498
2506.4  6.47485 72.3077
2506.5  6.65335 71.1953
2506.6  6.8161  70.0877
2506.7  6.83708 69.0275
2506.8  6.88323 68.0107
2506.9  7.1549  67.4089
2507.0  7.38338 66.8783
2507.1  7.21718 67.0015
2507.2  7.07821 67.1674
2507.3  7.18034 67.7216
2507.4  7.26565 68.2476
2507.5  7.20215 68.5336
2507.6  7.1416  68.8084
2507.7  7.10764 68.9817
2507.8  7.08636 69.1349
2507.9  7.17975 69.1039
2508.0  7.28357 69.0769
2508.1  7.47931 69.0859
2508.2  7.65455 69.0939
2508.3  7.65004 69.0929
2508.4  7.63285 69.0425
2508.5  7.50135 68.5475
2508.6  7.37619 68.0424
2508.7  7.30827 67.4482
2508.8  7.25381 66.8757
2508.9  7.32173 66.5131
2509.0  7.38045 66.1966
