# Выгружено из ПО "Атлас - Подсчет запасов"
############################################
~VERSION INFORMATION
#MNEM.UNIT                                    DATA : TYPE DESCRIPTION
VERS.                                         1.20 : CWLS LOG ASCII STANDARD_VERSION 1.20
WRAP.                                           NO : One line per depth step
############################################
~WELL INFORMATION
#MNEM.UNIT                                    DATA : TYPE DESCRIPTION
STRT.M                                      1000.0 : Start depth
STOP.M                                      3049.9 : Stop depth
STEP.M                                         0.1 : Step
NULL.                                      -999.25 : Null Value
WELL.                                           16 : 16
X.                                        12554177 : X-coordinate of Well Head
Y.                                         8022673 : Y-coordinate of Well Head
RKB.                                          32.7 : RKB
############################################
~CURVE INFORMATION
#MNEM.UNIT                                    DATA : TYPE DESCRIPTION
DEPT.M                                             : DEPT
ГК.у.е.                                            : 
ПС.мВ                                              : 
############################################
~ASCII
# ...
2877.8  7.87388 97.6057
2877.9  8.08212 97.7326
2878.0  8.29048 97.8597
2878.1  8.49522 97.9869
2878.2  8.66618 98.1222
2878.3  8.53803 98.3345
2878.4  8.42985 98.5583
2878.5  8.49835 98.8919
2878.6  8.56936 99.2375
2878.7  8.66275 99.6915
2878.8  8.71761 100.147
2878.9  8.42447 100.6
2879.0  8.11524 101.071
2879.1  7.6677  101.686
2879.2  7.2677  102.206
2879.3  7.28472 101.887
2879.4  7.3166  101.572
2879.5  7.4826  101.289
2879.6  7.65673 100.998
2879.7  7.90343 100.634
2879.8  8.15794 100.286
2879.9  8.47655 100.091
2880.0  8.77847 99.9241
2880.1  8.92314 100.015
2880.2  9.04875 100.11
2880.3  9.00619 100.246
2880.4  8.9795  100.387
2880.5  9.0945  100.575
2880.6  9.20566 100.761
2880.7  9.28207 100.919
2880.8  9.3084  101.073
2880.9  8.88342 101.18
2881.0  8.52298 101.297
2881.1  8.75276 101.508
2881.2  8.94623 101.711
2881.3  8.81858 101.851
2881.4  8.69125 101.968
2881.5  8.56375 101.886
2881.6  8.41321 101.802
2881.7  8.05614 101.691
2881.8  7.69911 101.591
2881.9  7.35103 101.591
2882.0  7.04806 101.591
2882.1  7.1587  101.59
2882.2  7.27973 101.612
2882.3  7.49699 101.83
2882.4  7.67795 102.047
2882.5  7.53745 102.264
2882.6  7.408   102.482
2882.7  7.37803 102.7
2882.8  7.38169 102.918
2882.9  7.68781 103.134
2883.0  7.99168 103.352
2883.1  8.26852 103.57
2883.2  8.53788 103.787
2883.3  8.74663 104.005
2883.4  8.94465 104.222
2883.5  9.05115 104.44
2883.6  9.16232 104.658
2883.7  9.31513 104.874
2883.8  9.44489 105.092
2883.9  9.36399 105.309
2884.0  9.28975 105.516
2884.1  9.27723 105.625
2884.2  9.28858 105.723
2884.3  9.51435 105.722
2884.4  9.72675 105.722
2884.5  9.82425 105.721
2884.6  9.91756 105.721
2884.7  9.97299 105.72
2884.8  10.0328 105.725
2884.9  10.1307 105.772
2885.0  10.2237 105.823
2885.1  10.2702 105.916
2885.2  10.3018 106.009
2885.3  10.1997 106.102
2885.4  10.1139 106.195
2885.5  10.1735 106.289
2885.6  10.2164 106.383
2885.7  10.1105 106.476
2885.8  10.0043 106.569
2885.9  9.89797 106.662
2886.0  9.79689 106.755
2886.1  9.74583 106.849
2886.2  9.70596 106.942
2886.3  9.76553 107.036
2886.4  9.81175 107.129
2886.5  9.73925 107.222
2886.6  9.67615 107.307
2886.7  9.69763 107.316
2886.8  9.71995 107.303
2886.9  9.74942 107.082
2887.0  9.76283 106.862
2887.1  9.63117 106.667
2887.2  9.50103 106.468
2887.3  9.38139 106.223
2887.4  9.27825 105.979
2887.5  9.32075 105.728
2887.6  9.36581 105.488
2887.7  9.43373 105.345
2887.8  9.48183 105.216
2887.9  9.35049 105.212
2888.0  9.22304 105.218
2888.1  9.13343 105.309
2888.2  9.06491 105.394
2888.3  9.18406 105.432
2888.4  9.2821  105.469
2888.5  9.1931  105.485
2888.6  9.10574 105.502
2888.7  9.03333 105.531
2888.8  8.97226 105.571
2888.9  9.0147  105.714
2889.0  9.06406 105.845
2889.1  9.1747  105.87
2889.2  9.26209 105.89
2889.3  9.14294 105.861
2889.4  9.0173  105.818
2889.5  8.8303  105.662
2889.6  8.67902 105.502
2889.7  8.84881 105.31
2889.8  9.01306 105.141
2889.9  9.12343 105.183
2890.0  9.20448 105.203
2890.1  9.01925 105.018
2890.2  8.87082 104.831
2890.3  9.04904 104.617
2890.4  9.2169  104.435
2890.5  9.2959  104.521
2890.6  9.38082 104.608
2890.7  9.51865 104.695
2890.8  9.64085 104.782
2890.9  9.61937 104.868
2891.0  9.58854 104.954
2891.1  9.4739  105.04
2891.2  9.35017 105.127
2891.3  9.14192 105.214
2891.4  8.96175 105.279
2891.5  9.02925 105.144
2891.6  9.10001 104.988
2891.7  9.19989 104.634
2891.8  9.2885  104.28
2891.9  9.27352 103.925
2892.0  9.27106 103.571
2892.1  9.3817  103.217
2892.2  9.4823  102.864
2892.3  9.49532 102.509
2892.4  9.5172  102.195
2892.5  9.6192  102.25
2892.6  9.71736 102.325
2892.7  9.78078 102.588
2892.8  9.8363  102.849
2892.9  9.81932 103.085
2893.0  9.79849 103.323
2893.1  9.74343 103.567
2893.2  9.6978  103.805
2893.3  9.73585 103.996
2893.4  9.77025 104.174
2893.5  9.77275 104.229
2893.6  9.75563 104.286
2893.7  9.56236 104.353
2893.8  9.41308 104.414
2893.9  9.66327 104.413
2894.0  9.8903  104.412
2894.1  9.90332 104.401
2894.2  9.915   104.389
2894.3  9.915   104.367
2894.4  9.9065  104.346
2894.5  9.8215  104.324
2894.6  9.73093 104.303
2894.7  9.5906  104.281
2894.8  9.47041 104.259
2894.9  9.53433 104.238
2895.0  9.5958  104.217
2895.1  9.63385 104.195
2895.2  9.65739 104.173
2895.3  9.55126 104.151
2895.4  9.4233  104.124
2895.5  9.0963  104.044
2895.6  8.77857 103.964
2895.7  8.54486 103.885
2895.8  8.34166 103.805
2895.9  8.41807 103.725
2896.0  8.47298 103.645
2896.1  8.33281 103.565
2896.2  8.22487 103.485
2896.3  8.40359 103.405
2896.4  8.58185 103.325
2896.5  8.76035 103.246
2896.6  8.93882 103.168
2896.7  9.1166  103.104
2896.8  9.277   103.04
2896.9  9.277   102.976
2897.0  9.29147 102.924
2897.1  9.43614 102.983
2897.2  9.55664 103.054
2897.3  9.46302 103.235
2897.4  9.4058  103.416
2897.5  9.6738  103.597
2897.6  9.90223 103.778
2897.7  9.77489 103.959
2897.8  9.67146 104.141
2897.9  9.78582 104.322
2898.0  9.89961 104.504
2898.1  10.0057 104.685
2898.2  10.101  104.866
2898.3  10.101  105.047
2898.4  10.0857 105.219
2898.5  9.93325 105.31
2898.6  9.796   105.391
2898.7  9.796   105.391
2898.8  9.80701 105.391
2898.9  9.91688 105.39
2899.0  10.0262 105.39
2899.1  10.1283 105.389
2899.2  10.2239 105.389
2899.3  10.2624 105.389
2899.4  10.2817 105.389
2899.5  10.1287 105.388
2899.6  10.0097 105.388
2899.7  10.1965 105.387
2899.8  10.3467 105.398
2899.9  10.1645 105.508
2900.0  10.0089 105.63
2900.1  10.098  105.853
2900.2  10.1661 106.075
2900.3  10.0469 106.298
2900.4  9.9502  106.519
2900.5  10.0522 106.741
2900.6  10.1423 106.963
2900.7  10.1253 107.186
2900.8  10.1104 107.389
2900.9  10.1144 107.42
2901.0  10.0925 107.432
2901.1  9.83771 107.273
2901.2  9.62177 107.114
2901.3  9.74942 106.954
2901.4  9.85675 106.795
2901.5  9.78425 106.638
2901.6  9.71645 106.484
2901.7  9.69098 106.364
2901.8  9.68077 106.266
2901.9  9.80811 106.376
2902.0  9.91159 106.483
2902.1  9.79745 106.56
2902.2  9.6962  106.64
2902.3  9.70822 106.741
2902.4  9.7364  106.853
2902.5  9.9104  107.069
2902.6  10.0521 107.28
2902.7  9.90381 107.438
2902.8  9.76064 107.579
2902.9  9.66725 107.563
2903.0  9.56388 107.54
2903.1  9.37264 107.462
2903.2  9.19459 107.356
2903.3  9.13051 106.995
2903.4  9.08405 106.638
2903.5  9.19455 106.306
2903.6  9.31357 106.008
2903.7  9.50883 106.008
2903.8  9.69737 106.008
2903.9  9.82071 106.007
2904.0  9.91963 105.998
2904.1  9.79598 105.907
2904.2  9.67609 105.814
2904.3  9.58698 105.707
2904.4  9.5189  105.629
2904.5  9.6379  105.824
2904.6  9.74115 106.024
2904.7  9.70269 106.273
2904.8  9.65523 106.52
2904.9  9.52789 106.746
2905.0  9.39598 106.966
2905.1  9.22577 107.125
2905.2  9.07345 107.273
2905.3  9.07796 107.325
2905.4  9.08965 107.389
2905.5  9.16615 107.567
2905.6  9.22519 107.736
2905.7  9.12731 107.826
2905.8  9.04751 107.896
2905.9  9.13241 107.791
2906.0  9.22262 107.684
2906.1  9.35878 107.578
2906.2  9.46443 107.471
2906.3  9.29873 107.365
2906.4  9.1776  107.284
2906.5  9.4536  107.423
2906.6  9.71437 107.562
2906.7  9.83771 107.7
2906.8  9.94089 107.839
2906.9  9.85999 107.977
2907.0  9.787   108.116
2907.1  9.787   108.255
2907.2  9.80102 108.393
2907.3  9.94119 108.532
2907.4  10.0696 108.671
2907.5  10.095  108.809
2907.6  10.1278 108.948
2907.7  10.2257 109.086
2907.8  10.3076 109.225
2907.9  10.2437 109.363
2908.0  10.1975 109.48
2908.1  10.3127 109.395
2908.2  10.4011 109.286
2908.3  10.2519 108.948
2908.4  10.067  108.575
2908.5  9.55755 107.884
2908.6  9.11812 107.209
2908.7  9.30889 106.681
2908.8  9.49507 106.192
2908.9  9.6354  106.072
2909.0  9.77687 105.992
2909.1  9.92555 106.281
2909.2  10.0505 106.58
2909.3  9.96539 106.975
2909.4  9.8805  107.363
2909.5  9.7955  107.697
2909.6  9.73602 108.009
2909.7  9.90581 108.115
2909.8  10.0658 108.234
2909.9  10.1337 108.46
2910.0  10.181  108.687
2910.1  10.0408 108.914
2910.2  9.90138 109.133
2910.3  9.76522 109.285
2910.4  9.66295 109.438
2910.5  9.86245 109.604
2910.6  10.0301 109.75
2910.7  9.91123 109.726
2910.8  9.81461 109.694
2910.9  9.92048 109.58
2911.0  10.0398 109.458
2911.1  10.2781 109.259
2911.2  10.5018 109.04
