# Выгружено из ПО "Атлас - Подсчет запасов"
############################################
~VERSION INFORMATION
#MNEM.UNIT                                    DATA : TYPE DESCRIPTION
VERS.                                         1.20 : CWLS LOG ASCII STANDARD_VERSION 1.20
WRAP.                                           NO : One line per depth step
############################################
~WELL INFORMATION
#MNEM.UNIT                                    DATA : TYPE DESCRIPTION
STRT.M                                      1000.0 : Start depth
STOP.M                                      3049.9 : Stop depth
STEP.M                                         0.1 : Step
NULL.                                      -999.25 : Null Value
WELL.                                           16 : 16
X.                                        12554177 : X-coordinate of Well Head
Y.                                         8022673 : Y-coordinate of Well Head
RKB.                                          32.7 : RKB
############################################
~CURVE INFORMATION
#MNEM.UNIT                                    DATA : TYPE DESCRIPTION
DEPT.M                                             : DEPT
ГК.у.е.                                            : 
ПС.мВ                                              : 
############################################
~ASCII
1000.0  5.27941 109.531
1000.1  5.40337 109.585
1000.2  5.48893 109.647
1000.3  5.22851 109.768
1000.4  4.99375 109.882
1000.5  4.99125 109.937
1000.6  4.99395 109.993
1000.7  5.04347 110.055
1000.8  5.09215 110.111
1000.9  5.13364 110.121
1001.0  5.20053 110.128
1001.1  5.49544 110.105
1001.2  5.74674 110.074
1001.3  5.60428 109.977
1001.4  5.46182 109.892
1001.5  5.31923 109.918
1001.6  5.20691 109.946
1001.7  5.36596 109.998
1001.8  5.52491 110.036
1001.9  5.68387 109.942
1002.0  5.78726 109.844
1002.1  5.39038 109.717
1002.2  5.06128 109.593
1002.3  5.34369 109.492
1002.4  5.5872  109.391
1002.5  5.47864 109.29
1002.6  5.37174 109.195
1002.7  5.27921 109.156
1002.8  5.18484 109.121
1002.9  5.07337 109.121
1003.0  4.96224 109.13
1003.1  4.85477 109.221
1003.2  4.76921 109.308
1003.3  4.88118 109.357
1003.4  4.99314 109.396
1003.5  5.10521 109.351
1003.6  5.19554 109.311
1003.7  5.09101 109.317
1003.8  4.98104 109.33
1003.9  4.82158 109.398
1004.0  4.6811  109.463
1004.1  4.71209 109.495
1004.2  4.75842 109.531
1004.3  4.94236 109.602
1004.4  5.11875 109.672
1004.5  5.22681 109.743
1004.6  5.3263  109.814
1004.7  5.34931 109.885
1004.8  5.3653  109.955
1004.9  5.31831 110.026
1005.0  5.2743  110.096
1005.1  5.2573  110.167
1005.2  5.24901 110.238
1005.3  5.31898 110.309
1005.4  5.38897 110.379
1005.5  5.45901 110.45
1005.6  5.48887 110.521
1005.7  5.15777 110.592
1005.8  4.8635  110.662
1005.9  4.89849 110.733
1006.0  4.94036 110.801
1006.1  5.04383 110.847
1006.2  5.14646 110.893
1006.3  5.24093 110.938
1006.4  5.32834 110.979
1006.5  5.35185 110.979
1006.6  5.36845 110.981
1006.7  5.32293 110.999
1006.8  5.27614 111.013
1006.9  5.21766 110.99
1007.0  5.15829 110.99
1007.1  5.09131 111.194
1007.2  5.02429 111.391
1007.3  4.95731 111.515
1007.4  4.89894 111.62
1007.5  4.91845 111.548
1007.6  4.93029 111.49
1007.7  4.87328 111.562
1007.8  4.81624 111.63
1007.9  4.75876 111.656
1008.0  4.73633 111.681
1008.1  5.02924 111.704
1008.2  5.28329 111.724
1008.3  5.18632 111.728
1008.4  5.0894  111.703
1008.5  4.99284 111.423
1008.6  4.9075  111.123
1008.7  4.92251 110.644
1008.8  4.94876 110.177
1008.9  5.07622 109.807
1009.0  5.19195 109.439
1009.1  5.20145 109.104
1009.2  5.19919 108.786
1009.3  5.09122 108.63
1009.4  5.02281 108.483
1009.5  5.31249 108.407
1009.6  5.55704 108.34
1009.7  5.39749 108.337
1009.8  5.23809 108.338
1009.9  5.07913 108.38
1010.0  4.94326 108.43
1010.1  5.01573 108.559
1010.2  5.08821 108.688
1010.3  5.16018 108.816
1010.4  5.23216 108.945
1010.5  5.30421 109.074
1010.6  5.33922 109.203
1010.7  5.04163 109.332
1010.8  4.75518 109.463
1010.9  4.56724 109.608
1011.0  4.39595 109.756
1011.1  4.37545 109.922
1011.2  4.36165 110.079
1011.3  4.40814 110.161
1011.4  4.45682 110.24
1011.5  4.52536 110.298
1011.6  4.59636 110.351
1011.7  4.68989 110.355
1011.8  4.78316 110.344
1011.9  4.87463 110.207
1012.0  4.96371 110.049
1012.1  5.03069 109.694
1012.2  5.09425 109.339
1012.3  5.12674 108.976
1012.4  5.15058 108.624
1012.5  5.09604 108.37
1012.6  5.03254 108.148
1012.7  4.88799 108.212
1012.8  4.76821 108.276
1012.9  4.87018 108.34
1013.0  4.94488 108.443
1013.1  4.77394 108.9
1013.2  4.61134 109.343
1013.3  4.52487 109.668
1013.4  4.44889 109.993
1013.5  4.4679  110.321
1013.6  4.4801  110.658
1013.7  4.43108 111.08
1013.8  4.36738 111.482
1013.9  4.17144 111.716
1014.0  3.9912  111.922
1014.1  3.95321 111.883
1014.2  3.95373 111.855
1014.3  4.30063 111.919
1014.4  4.62275 111.966
1014.5  4.72081 111.842
1014.6  4.78478 111.693
1014.7  4.5427  111.308
1014.8  4.3292  110.933
1014.9  4.37119 110.634
1015.0  4.41746 110.34
1015.1  4.50193 110.103
1015.2  4.57675 109.867
1015.3  4.56425 109.649
1015.4  4.54579 109.431
1015.5  4.47324 109.213
1015.6  4.41185 108.994
1015.7  4.45037 108.767
1015.8  4.49181 108.562
1015.9  4.55979 108.558
1016.0  4.62025 108.58
1016.1  4.61275 108.83
1016.2  4.6039  109.067
1016.3  4.5829  109.181
1016.4  4.56699 109.281
1016.5  4.597   109.252
1016.6  4.6283  109.247
1016.7  4.67132 109.472
1016.8  4.71891 109.703
1016.9  4.80788 109.993
1017.0  4.89636 110.282
1017.1  4.97983 110.565
1017.2  5.05245 110.859
1017.3  5.02696 111.247
1017.4  4.99564 111.603
1017.5  4.91159 111.675
1017.6  4.82854 111.729
1017.7  4.75402 111.632
1017.8  4.67529 111.552
1017.9  4.55832 111.637
1018.0  4.47717 111.717
1018.1  4.7186  111.762
1018.2  4.94291 111.804
1018.3  5.01189 111.817
1018.4  5.07917 111.832
1018.5  5.13121 111.865
1018.6  5.16654 111.885
1018.7  5.052   111.791
1018.8  4.95811 111.669
1018.9  5.04908 111.299
1019.0  5.16073 110.941
1019.1  5.45764 110.695
1019.2  5.71459 110.468
1019.3  5.61062 110.416
1019.4  5.5178  110.361
1019.5  5.5258  110.28
1019.6  5.53705 110.19
1019.7  5.57757 110.021
1019.8  5.60684 109.851
1019.9  5.53537 109.669
1020.0  5.43637 109.521
1020.1  5.09047 109.667
1020.2  4.78866 109.811
1020.3  4.88513 109.937
1020.4  4.9816  110.057
1020.5  5.07816 110.114
1020.6  5.14293 110.172
1020.7  4.92236 110.229
1020.8  4.7291  110.286
1020.9  4.78009 110.343
1021.0  4.83281 110.401
1021.1  4.90079 110.458
1021.2  4.9569  110.516
1021.3  4.90591 110.573
1021.4  4.86632 110.631
1021.5  4.92986 110.688
1021.6  5.00487 110.746
1021.7  5.18342 110.803
1021.8  5.31743 110.861
1021.9  5.05201 110.918
1022.0  4.81225 110.975
1022.1  4.80475 111.039
1022.2  4.81091 111.089
1022.3  4.93987 111.021
1022.4  5.07207 110.953
1022.5  5.23367 110.885
1022.6  5.39887 110.816
1022.7  5.59743 110.748
1022.8  5.75308 110.675
1022.9  5.52415 110.555
1023.0  5.30434 110.44
1023.1  5.16788 110.372
1023.2  5.03204 110.303
1023.3  4.90258 110.225
1023.4  4.77704 110.149
1023.5  4.68699 110.083
1023.6  4.61996 110.018
1023.7  4.75951 109.943
1023.8  4.88035 109.873
1023.9  4.83386 109.84
1024.0  4.78734 109.814
1024.1  4.74084 109.843
1024.2  4.69435 109.875
1024.3  4.64782 109.933
1024.4  4.65186 109.991
1024.5  5.10986 110.043
1024.6  5.50679 110.092
1024.7  5.35488 110.111
1024.8  5.20433 110.131
1024.9  5.06783 110.15
1025.0  4.9444  110.168
1025.1  4.9384  110.171
1025.2  4.95356 110.179
1025.3  5.15919 110.224
1025.4  5.33824 110.272
1025.5  5.28074 110.347
1025.6  5.2233  110.399
1025.7  5.16633 110.246
1025.8  5.12336 110.105
1025.9  5.20686 110.07
1026.0  5.26748 110.032
1026.1  5.12248 109.974
1026.2  4.97954 109.908
1026.3  4.85497 109.775
1026.4  4.7464  109.646
1026.5  4.7804  109.555
1026.6  4.81965 109.462
1026.7  4.9061  109.348
1026.8  4.99191 109.229
1026.9  5.07091 109.064
1027.0  5.14105 108.897
1027.1  5.13155 108.713
1027.2  5.12025 108.534
1027.3  5.09273 108.389
1027.4  5.07676 108.233
1027.5  5.16426 107.977
1027.6  5.25616 107.725
1027.7  5.38758 107.501
1027.8  5.51656 107.271
1027.9  5.62206 106.988
1028.0  5.72631 106.709
1028.1  5.81931 106.463
1028.2  5.88394 106.219
1028.3  5.69332 105.994
1028.4  5.50288 105.777
1028.5  5.31188 105.618
1028.6  5.15911 105.455
1028.7  5.35    105.261
1028.8  5.54107 105.066
1028.9  5.73157 104.878
1029.0  5.89079 104.694
1029.1  5.76878 104.548
1029.2  5.64679 104.38
1029.3  5.52472 104.01
1029.4  5.4127  103.658
1029.5  5.3897  103.466
1029.6  5.37665 103.274
1029.7  5.45311 103.08
1029.8  5.52961 102.892
1029.9  5.60561 102.772
1030.0  5.66829 102.675
1030.1  5.61129 102.789
1030.2  5.5547  102.898
1030.3  5.50166 102.966
1030.4  5.46246 103.048
1030.5  5.54696 103.259
1030.6  5.63151 103.444
1030.7  5.71645 103.392
1030.8  5.77813 103.317
1030.9  5.62963 103.024
1031.0  5.49345 102.742
1031.1  5.46795 102.554
1031.2  5.42084 102.35
1031.3  5.17919 101.999
1031.4  4.96866 101.643
1031.5  5.03516 101.23
1031.6  5.0947  100.812
1031.7  5.0917  100.346
1031.8  5.0872  99.8548
1031.9  5.0692  99.1538
1032.0  5.055   98.4632
1032.1  5.075   97.8657
1032.2  5.10526 97.3066
1032.3  5.22783 97.0925
1032.4  5.34471 96.8896
1032.5  5.41171 96.7856
1032.6  5.46214 96.7238
1032.7  5.3637  97.0416
1032.8  5.26314 97.3758
1032.9  5.14464 97.8528
1033.0  5.04821 98.3669
1033.1  5.15021 99.2149
1033.2  5.25216 100.036
1033.3  5.35372 100.62
1033.4  5.42337 101.136
