# Выгружено из ПО "Атлас - Подсчет запасов"
############################################
~VERSION INFORMATION
#MNEM.UNIT                                    DATA : TYPE DESCRIPTION
VERS.                                         1.20 : CWLS LOG ASCII STANDARD_VERSION 1.20
WRAP.                                           NO : One line per depth step
############################################
~WELL INFORMATION
#MNEM.UNIT                                    DATA : TYPE DESCRIPTION
STRT.M                                      1000.0 : Start depth
STOP.M                                      3049.9 : Stop depth
STEP.M                                         0.1 : Step
NULL.                                      -999.25 : Null Value
WELL.                                           16 : 16
X.                                        12554177 : X-coordinate of Well Head
Y.                                         8022673 : Y-coordinate of Well Head
RKB.                                          32.7 : RKB
############################################
~CURVE INFORMATION
#MNEM.UNIT                                    DATA : TYPE DESCRIPTION
DEPT.M                                             : DEPT
ГК.у.е.                                            : 
ПС.мВ                                              : 
############################################
~ASCII
# ...
1536.4  8.6362  102.967
1536.5  8.6382  103.756
1536.6  8.64255 104.55
1536.7  8.66804 105.392
1536.8  8.67483 106.123
1536.9  8.51333 105.852
1537.0  8.36034 105.47
1537.1  8.28384 104.09
1537.2  8.23076 102.712
1537.3  8.38836 101.34
1537.4  8.52529 100.013
1537.5  8.47829 99.0767
1537.6  8.44581 98.217
1537.7  8.54375 98.0471
1537.8  8.6286  97.9194
1537.9  8.5946  98.1734
1538.0  8.56961 98.4228
1538.1  8.62561 98.6303
1538.2  8.6816  98.8479
1538.3  8.73764 99.1571
1538.4  8.78485 99.4982
1538.5  8.75335 100.13
1538.6  8.71014 100.733
1538.7  8.56173 101.087
1538.8  8.41353 101.44
1538.9  8.26903 101.786
1539.0  8.12709 102.159
1539.1  8.00809 102.779
1539.2  7.9056  103.366
1539.3  7.95163 103.658
1539.4  7.99761 103.978
1539.5  8.04361 104.547
1539.6  8.083   105.116
1539.7  8.06301 105.686
1539.8  8.02928 105.687
1539.9  7.87228 100.568
1540.0  7.73866 95.7963
1540.1  7.81516 94.1418
1540.2  7.90611 92.5292
1540.3  8.12725 91.2909
1540.4  8.35153 90.0292
1540.5  8.60653 88.5432
1540.6  8.85466 87.0911
1540.7  9.04105 85.9438
1540.8  9.2086  84.8438
1540.9  9.2046  84.1823
1541.0  9.2031  83.5581
1541.1  9.2241  83.2696
1541.2  9.25876 83.0537
1541.3  9.41636 83.4904
1541.4  9.55074 83.9833
1541.5  9.47824 84.9853
1541.6  9.4126  86.0105
1541.7  9.4086  87.2443
1541.8  9.39564 88.5117
1541.9  9.30214 90.0667
1542.0  9.18866 91.6629
1542.1  8.89566 93.6294
1542.2  8.60859 95.647
1542.3  8.37444 98.127
1542.4  8.1657  100.34
1542.5  8.1827  100.178
1542.6  8.2027  99.3914
1542.7  8.24967 92.9828
1542.8  8.30221 86.9725
1542.9  8.40421 84.62
1543.0  8.47853 82.3602
1543.1  8.30403 80.9337
1543.2  8.16401 79.5926
1543.3  8.33411 79.0182
1543.4  8.4832  78.5022
1543.5  8.4452  78.5036
1543.6  8.4131  78.6609
1543.7  8.43409 80.2185
1543.8  8.44579 81.9775
1543.9  8.37379 85.528
1544.0  8.3077  89.0355
1544.1  8.2947  92.1565
1544.2  8.28045 95.1111
1544.3  8.25493 96.572
1544.4  8.22184 97.9845
1544.5  8.12034 98.9785
1544.6  8.04001 99.9103
1544.7  8.14994 100.283
1544.8  8.27668 100.581
1544.9  8.55318 100.208
1545.0  8.8007  99.7405
1545.1  8.7877  98.427
1545.2  8.7722  97.0179
1545.3  8.73417 94.747
1545.4  8.70976 92.377
1545.5  8.80726 89.0905
1545.6  8.88564 85.8678
1545.7  8.7922  83.2195
1545.8  8.69183 80.7307
1545.9  8.53033 79.7087
1546.0  8.39737 78.8452
1546.1  8.52087 79.4067
1546.2  8.6392  80.0932
1546.3  8.71125 81.9048
1546.4  8.76964 83.7053
1546.5  8.70614 85.4263
1546.6  8.63029 87.1241
1546.7  8.4434  88.6137
1546.8  8.24947 90.1849
1546.9  7.99447 92.4709
1547.0  7.73351 94.6233
1547.1  7.41901 95.5748
1547.2  7.11224 96.5262
1547.3  6.87459 97.4777
1547.4  6.64098 98.4282
1547.5  6.44098 99.3792
1547.6  6.24744 100.264
1547.7  6.11202 100.554
1547.8  5.97723 100.927
1547.9  5.84973 102.041
1548.0  5.73029 103.077
1548.1  5.68329 103.405
1548.2  5.65631 103.755
1548.3  5.8094  104.295
1548.4  5.97168 104.817
1548.5  6.21818 105.19
1548.6  6.46296 105.534
1548.7  6.69232 105.62
1548.8  6.91983 105.687
1548.9  7.12783 105.586
1549.0  7.33668 105.489
1549.1  7.55318 105.416
1549.2  7.77096 105.343
1549.3  8.0006  105.27
1549.4  8.22868 105.197
1549.5  8.44518 105.123
1549.6  8.6464  105.057
1549.7  8.71036 105.059
1549.8  8.768   105.087
1549.9  8.768   105.348
1550.0  8.77436 105.601
1550.1  8.83786 105.788
1550.2  8.88014 105.984
1550.3  8.73155 106.25
1550.4  8.60055 106.534
1550.5  8.62605 106.984
1550.6  8.65365 107.415
1550.7  8.70012 107.682
1550.8  8.73689 107.952
1550.9  8.68589 108.237
1551.0  8.64045 108.526
1551.1  8.64495 108.844
1551.2  8.63709 109.138
1551.3  8.51802 109.214
1551.4  8.42502 109.267
1551.5  8.56502 109.106
1551.6  8.69355 108.954
1551.7  8.71904 108.872
1551.8  8.74926 108.797
1551.9  8.82176 108.787
1552.0  8.88825 108.779
1552.1  8.90075 108.79
1552.2  8.93451 108.77
1552.3  9.15965 108.465
1552.4  9.35604 108.099
1552.5  9.29654 107.183
1552.6  9.246   106.24
1552.7  9.27598 105.051
1552.8  9.30215 103.773
1552.9  9.29365 101.717
1553.0  9.27874 99.6075
1553.1  9.20624 97.026
1553.2  9.14911 94.5709
1553.3  9.23015 93.2501
1553.4  9.28218 92.0503
1553.5  9.07417 91.9233
1553.6  8.88655 92.1877
1553.7  8.88205 95.9699
1553.8  8.89712 99.5288
1553.9  9.08812 101.035
1554.0  9.24513 102.481
1554.1  9.09663 103.376
1554.2  8.9664  104.239
1554.3  9.00042 104.808
1554.4  9.04377 105.263
1554.5  9.17127 104.702
1554.6  9.29235 104.079
1554.7  9.35581 102.886
1554.8  9.39853 101.636
1554.9  9.25403 99.8885
1555.0  9.11679 98.1644
1555.1  9.04479 96.6504
1555.2  8.96469 95.1614
1555.3  8.8116  93.8951
1555.4  8.68421 92.63
1555.5  8.78621 91.3609
1555.6  8.86739 90.0861
1555.7  8.76146 88.7584
1555.8  8.663   87.5609
1555.9  8.633   87.5504
1556.0  8.58898 87.708
1556.1  8.41898 89.376
1556.2  8.27581 91.1356
1556.3  8.37387 93.7217
1556.4  8.44583 96.2881
1556.5  8.28433 98.7066
1556.6  8.12329 100.992
1556.7  7.96639 102.075
1556.8  7.83431 103.043
1556.9  7.92731 102.956
1557.0  8.01485 102.771
1557.1  8.05335 101.698
1557.2  8.10586 100.604
1557.3  8.28447 99.3137
1557.4  8.46327 98.0419
1557.5  8.64577 96.9219
1557.6  8.79089 95.9087
1557.7  8.60001 95.8563
1557.8  8.40798 95.9358
1557.9  8.20798 97.2023
1558.0  8.02294 98.4842
1558.1  7.97244 99.9042
1558.2  7.9304  101.285
1558.3  7.96442 102.312
1558.4  7.97628 103.315
1558.5  7.78928 104.101
1558.6  7.6159  104.846
1558.7  7.56493 105.21
1558.8  7.55129 105.52
1558.9  7.87379 105.326
1559.0  8.18913 105.02
1559.1  8.44013 103.7
1559.2  8.67876 102.302
1559.3  8.80634 100.19
1559.4  8.92736 98.1185
1559.5  8.99086 96.3855
1559.6  9.05435 94.7642
1559.7  9.11782 94.1471
1559.8  9.15207 93.729
1559.9  8.92307 95.107
1560.0  8.71104 96.5461
1560.1  8.65154 98.5351
1560.2  8.59035 100.42
1560.3  8.5138  101.372
1560.4  8.46327 102.291
1560.5  8.64577 102.93
1560.6  8.79809 103.545
1560.7  8.67916 103.944
1560.8  8.56604 104.341
1560.9  8.50654 104.72
1561.0  8.45856 105.086
1561.1  8.51406 105.322
1561.2  8.56315 105.517
1561.3  8.55464 105.34
1561.4  8.55676 105.135
1561.5  8.65426 104.681
1561.6  8.75476 104.179
1561.7  8.88218 103.252
1561.8  8.98639 102.236
1561.9  8.88039 100.427
1562.0  8.79521 98.5061
1562.1  8.89721 95.5811
1562.2  9.00256 92.6309
1562.3  9.13814 89.45
1562.4  9.24894 86.401
1562.5  9.13844 84.5035
1562.6  9.02969 82.6859
1562.7  8.93675 81.5861
1562.8  8.86061 80.5453
1562.9  8.93661 80.0493
1563.0  8.99824 79.5725
1563.1  8.93074 79.2675
1563.2  8.8704  78.9958
1563.3  8.8744  79.0233
1563.4  8.87334 79.1076
1563.5  8.82684 79.7026
1563.6  8.77604 80.3412
1563.7  8.6866  81.3721
1563.8  8.6043  82.4946
1563.9  8.5873  84.4286
1564.0  8.5754  86.3787
1564.1  8.6094  88.4732
1564.2  8.64255 90.6466
1564.3  8.66807 93.5329
1564.4  8.69015 96.5193
1564.5  8.68165 100.437
1564.6  8.66464 104.222
1564.7  8.5712  106.811
1564.8  8.47894 109.142
1564.9  8.39844 109.121
1565.0  8.30773 108.998
1565.1  8.12523 107.96
1565.2  7.93333 106.885
1565.3  7.65666 105.48
1565.4  7.39824 104.076
1565.5  7.30074 102.672
1565.6  7.22531 101.281
1565.7  7.34823 100.007
1565.8  7.46581 98.2393
1565.9  7.53381 92.0403
1566.0  7.63074 86.585
1566.1  7.98774 87.8135
1566.2  8.31025 89.1653
1566.3  8.32276 91.6283
1566.4  8.34081 94.0444
1566.5  8.40881 96.0659
1566.6  8.47981 98.0096
1566.7  8.57775 99.2538
1566.8  8.65619 100.444
1566.9  8.55819 101.135
1567.0  8.45003 101.732
1567.1  8.25053 101.477
1567.2  8.0761  101.061
1567.3  8.12713 99.1947
1567.4  8.1734  97.2645
1567.5  8.1774  94.7425
1567.6  8.19761 92.2998
1567.7  8.36351 90.5704
1567.8  8.53297 88.8301
1567.9  8.73247 87.0131
1568.0  8.91455 85.1431
1568.1  8.94005 82.7971
1568.2  8.9562  80.4613
1568.3  8.88815 78.2139
1568.4  8.84828 76.0382
1568.5  9.06078 74.4822
1568.6  9.23799 73.01
1568.7  9.09808 72.2909
1568.8  8.98216 71.536
1568.9  9.08366 70.4675
1569.0  9.18311 69.3957
1569.1  9.26411 68.2942
1569.2  9.34591 67.2302
1569.3  9.43496 66.5017
1569.4  9.53287 65.7724
1569.5  9.71137 65.0274
1569.6  9.83248 64.3102
1569.7  9.43772 63.8425
1569.8  9.04671 63.3978
1569.9  8.69421 63.1663
