# Выгружено из ПО "Атлас - Подсчет запасов"
############################################
~VERSION INFORMATION
#MNEM.UNIT                                    DATA : TYPE DESCRIPTION
VERS.                                         1.20 : CWLS LOG ASCII STANDARD_VERSION 1.20
WRAP.                                           NO : One line per depth step
############################################
~WELL INFORMATION
#MNEM.UNIT                                    DATA : TYPE DESCRIPTION
STRT.M                                      1000.0 : Start depth
STOP.M                                      3049.9 : Stop depth
STEP.M                                         0.1 : Step
NULL.                                      -999.25 : Null Value
WELL.                                           16 : 16
X.                                        12554177 : X-coordinate of Well Head
Y.                                         8022673 : Y-coordinate of Well Head
RKB.                                          32.7 : RKB
############################################
~CURVE INFORMATION
#MNEM.UNIT                                    DATA : TYPE DESCRIPTION
DEPT.M                                             : DEPT
ГК.у.е.                                            : 
ПС.мВ                                              : 
############################################
~ASCII
# ...
1804.8  9.51838 78.5064
1804.9  9.38238 78.6504
1805.0  9.25064 78.7007
1805.1  9.15714 77.9081
1805.2  9.0798  77.14
1805.3  9.14785 76.5902
1805.4  9.21921 76.1199
1805.5  9.32121 76.3584
1805.6  9.4058  76.6179
1805.7  9.33384 77.0667
1805.8  9.24988 77.4252
1805.9  9.05888 76.9677
1806.0  8.89886 76.441
1806.1  9.01736 75.2925
1806.2  9.1253  74.0635
1806.3  9.13831 72.1088
1806.4  9.13854 70.1318
1806.5  9.02404 67.9328
1806.6  8.91034 65.4509
1806.7  8.80391 60.4265
1806.8  8.7114  56.0899
1806.9  8.7454  57.9969
1807.0  8.75132 59.9039
1807.1  8.50482 61.8104
1807.2  8.29065 63.4306
1807.3  8.3672  62.4765
1807.4  8.4339  61.5596
1807.5  8.4129  60.9666
1807.6  8.41016 60.3911
1807.7  8.57156 59.9729
1807.8  8.72977 59.5863
1807.9  8.85727 59.4893
1808.0  8.95092 59.4713
1808.1  8.74042 60.1633
1808.2  8.53929 61.0556
1808.3  8.42222 63.7512
1808.4  8.3187  66.6461
1808.5  8.3357  71.3611
1808.6  8.35015 75.9742
1808.7  8.34165 79.6714
1808.8  8.34336 83.4969
1808.9  8.43686 88.4299
1809.0  8.53802 93.1342
1809.1  8.70802 95.7827
1809.2  8.8589  98.1766
1809.3  8.83789 98.2827
1809.4  8.78836 98.3833
1809.5  8.48236 98.4363
1809.6  8.21591 98.4204
1809.7  8.30485 97.7848
1809.8  8.40758 96.9009
1809.9  8.63308 93.7939
1810.0  8.85467 90.6072
1810.1  9.04117 86.7042
1810.2  9.21881 83.0707
1810.3  9.31687 81.858
1810.4  9.39223 80.8797
1810.5  9.26473 81.9957
1810.6  9.16786 83.0884
1810.7  9.34625 83.9714
1810.8  9.49974 84.8783
1810.9  9.42724 85.9898
1811.0  9.37562 87.0457
1811.1  9.51162 87.6017
1811.2  9.62254 88.0353
1811.3  9.50797 87.3679
1811.4  9.42117 86.7249
1811.5  9.58267 86.2944
1811.6  9.7348  85.9578
1811.7  9.80276 86.4655
1811.8  9.85759 86.9979
1811.9  9.79359 87.7464
1812.0  9.73475 88.4657
1812.1  9.72225 88.9222
1812.2  9.72036 89.3965
1812.3  9.81391 90.0319
1812.4  9.87672 90.5139
1812.5  9.66422 89.6239
1812.6  9.46404 88.7339
1812.7  9.3746  87.8445
1812.8  9.30807 87.2371
1812.9  9.44857 89.1756
1813.0  9.5771  91.0414
1813.1  9.5981  92.2539
1813.2  9.63401 93.464
1813.3  9.80411 94.6543
1813.4  9.94639 95.8242
1813.5  9.84039 96.8247
1813.6  9.7501  97.8009
1813.7  9.80107 98.5589
1813.8  9.83509 99.309
1813.9  9.71609 99.9785
1814.0  9.62046 100.617
1814.1  9.73496 100.974
1814.2  9.82439 101.316
1814.3  9.68831 101.527
1814.4  9.57536 101.695
1814.5  9.66886 101.47
1814.6  9.74279 101.157
1814.7  9.64086 100.05
1814.8  9.55711 98.8751
1814.9  9.63811 97.1081
1815.0  9.70249 95.338
1815.1  9.61749 93.5405
1815.2  9.52994 91.7139
1815.3  9.41938 89.6226
1815.4  9.3204  87.4811
1815.5  9.3244  84.8651
1815.6  9.3344  82.2311
1815.7  9.39837 79.4358
1815.8  9.46066 76.6443
1815.9  9.50716 73.9208
1816.0  9.54349 71.2288
1816.1  9.48849 68.8193
1816.2  9.41093 66.5209
1816.3  9.13026 65.2201
1816.4  8.86654 63.9824
1816.5  8.75204 63.2974
1816.6  8.65325 62.63
1816.7  8.69573 62.1208
1816.8  8.72334 61.6647
1816.9  8.61684 61.6912
1817.0  8.52185 61.7541
1817.1  8.53035 62.1446
1817.2  8.51248 62.5308
1817.3  8.25733 62.8785
1817.4  8.03541 63.2137
1817.5  8.10941 63.4407
1817.6  8.1806  63.6964
1817.7  8.22657 64.2096
1817.8  8.2726  64.8246
1817.9  8.31861 66.3486
1818.0  8.39699 67.8617
1818.1  8.76649 69.2772
1818.2  9.11091 70.5229
1818.3  9.22998 70.2417
1818.4  9.32634 69.8951
1818.5  9.21984 68.9571
1818.6  9.14186 67.9935
1818.7  9.32025 66.8003
1818.8  9.46823 65.6329
1818.9  9.34073 64.7134
1819.0  9.20733 63.8285
1819.1  9.02083 63.2545
1819.2  8.82703 62.6738
1819.3  8.56738 62.0314
1819.4  8.34506 61.4037
1819.5  8.45556 60.9017
1819.6  8.56736 60.4095
1819.7  8.69078 60.0053
1819.8  8.78753 59.634
1819.9  8.64303 59.564
1820.0  8.50829 59.537
1820.1  8.46129 59.897
1820.2  8.39779 60.3395
1820.3  8.18566 61.5242
1820.4  8.00772 63.3805
1820.5  8.13472 71.2855
1820.6  8.23459 78.5835
1820.7  8.09068 80.4258
1820.8  7.97331 82.2705
1820.9  8.09631 84.1135
1821.0  8.19468 85.9871
1821.1  8.07168 88.1351
1821.2  7.9614  90.2228
1821.3  7.9654  91.7713
1821.4  7.95243 93.2516
1821.5  7.78693 94.1366
1821.6  7.62054 94.977
1821.7  7.44615 95.4162
1821.8  7.26732 95.7867
1821.9  7.05082 95.5337
1822.0  6.84068 95.3141
1822.1  6.68768 95.3946
1822.2  6.57677 95.5616
1822.3  6.84443 96.5071
1822.4  7.11223 97.4842
1822.5  7.38423 98.7542
1822.6  7.66812 100.042
1822.7  8.05889 101.486
1822.8  8.44244 102.887
1822.9  8.75644 103.875
1823.0  9.04496 104.826
1823.1  9.10446 105.447
1823.2  9.1563  106.015
1823.3  9.13929 106.119
1823.4  9.12785 106.138
1823.5  9.16635 105.384
1823.6  9.17804 104.584
1823.7  8.94868 103.366
1823.8  8.7386  102.104
1823.9  8.7046  100.467
1824.0  8.65443 98.6816
1824.1  8.45893 95.5716
1824.2  8.2915  92.4166
1824.3  8.37656 88.853
1824.4  8.4547  85.3865
1824.5  8.4717  82.7545
1824.6  8.48275 80.1467
1824.7  8.44027 77.7561
1824.8  8.41647 75.5702
1824.9  8.56097 75.2527
1825.0  8.68464 75.5843
1825.1  8.62114 81.7493
1825.2  8.55294 87.4594
1825.3  8.44238 89.0834
1825.4  8.33319 90.6064
1825.5  8.23519 91.2399
1825.6  8.16531 91.7203
1825.7  8.3482  90.8249
1825.8  8.5113  89.9115
1825.9  8.4943  88.8475
1826.0  8.48961 87.728
1826.1  8.59561 86.1095
1826.2  8.68465 84.4363
1826.3  8.62111 82.2689
1826.4  8.5678  80.1123
1826.5  8.6058  78.0283
1826.6  8.64811 76.0343
1826.7  8.72906 74.8485
1826.8  8.8054  73.7655
1826.9  8.8394  73.621
1827.0  8.8666  73.6
1827.1  8.8326  74.689
1827.2  8.80285 75.7655
1827.3  8.81136 76.7306
1827.4  8.80919 77.5868
1827.5  8.71119 77.4748
1827.6  8.62345 77.3187
1827.7  8.62795 76.766
1827.8  8.62945 76.2209
1827.9  8.60395 75.7504
1828.0  8.59887 75.3308
1828.1  8.77737 75.3688
1828.2  8.9435  75.5311
1828.3  8.99854 76.8124
1828.4  9.03523 78.1916
1828.5  8.90773 80.4646
1828.6  8.7877  82.7557
1828.7  8.73473 85.2097
1828.8  8.68785 87.6689
1828.9  8.69635 90.1444
1829.0  8.7065  92.6449
1829.1  8.7315  95.3709
1829.2  8.7536  98.0031
1829.3  8.7496  99.7936
1829.4  8.7481  101.522
1829.5  8.7691  102.71
1829.6  8.81262 103.742
1829.7  9.05847 103.375
1829.8  9.29447 102.651
1829.9  9.43897 98.7293
1830.0  9.58217 94.7801
1830.1  9.71367 90.5866
1830.2  9.84216 86.6221
1830.3  9.94372 84.7129
1830.4  10.0095 82.9287
1830.5  9.75502 82.2462
1830.6  9.51454 81.6135
1830.7  9.40011 81.4292
1830.8  9.30596 81.3169
1830.9  9.39546 81.8554
1831.0  9.47555 82.4662
1831.1  9.47105 83.7267
1831.2  9.4755  84.985
1831.3  9.56056 86.2247
1831.4  9.63445 87.471
1831.5  9.60895 88.7895
1831.6  9.60126 90.1343
1831.7  9.75367 91.7153
1831.8  9.89526 93.2463
1831.9  9.93775 94.3078
1832.0  9.96198 95.3471
1832.1  9.82198 96.1866
1832.2  9.71636 97.024
1832.3  9.91999 97.844
1832.4  10.0903 98.6487
1832.5  9.96328 99.3247
1832.6  9.85025 99.9426
1832.7  9.86274 100.038
1832.8  9.86764 100.071
1832.9  9.80414 99.5365
1833.0  9.72577 99.007
1833.1  9.51377 98.5175
1833.2  9.32255 98.1058
1833.3  9.31805 98.394
1833.4  9.29618 98.6878
1833.5  9.11818 99.0353
1833.6  8.97411 99.343
1833.7  9.13501 99.2936
1833.8  9.26814 99.175
1833.9  9.14964 98.4355
1834.0  9.03874 97.6589
1834.1  8.99625 96.5494
1834.2  8.94314 95.5158
1834.3  8.79455 95.1641
1834.4  8.67076 94.8257
1834.5  8.76826 94.6032
1834.6  8.86155 94.3143
1834.7  8.91702 93.4289
1834.8  8.99078 92.5793
1834.9  9.22828 92.0628
1835.0  9.4424  91.6946
1835.1  9.4464  92.6591
1835.2  9.47121 93.6171
1835.3  9.68334 94.5176
1835.4  9.87485 95.3917
1835.5  9.88335 96.0377
1835.6  9.87359 96.6987
1835.7  9.6997  97.4947
1835.8  9.51667 98.2702
1835.9  9.25367 98.8512
1836.0  9.00469 99.4132
1836.1  8.88169 99.8052
1836.2  8.75744 100.199
1836.3  8.62186 100.613
1836.4  8.48728 101.033
1836.5  8.36028 101.525
1836.6  8.25531 102.011
1836.7  8.34825 102.451
1836.8  8.42349 102.886
1836.9  8.33849 103.268
1837.0  8.27306 103.641
1837.1  8.38356 103.937
1837.2  8.48345 104.233
1837.3  8.48795 104.519
1837.4  8.50852 104.805
1837.5  8.67352 105.091
1837.6  8.80969 105.377
1837.7  8.68677 105.662
1837.8  8.58156 105.949
1837.9  8.63706 106.235
1838.0  8.70522 106.521
1838.1  8.88722 106.807
1838.2  9.04805 107.04
