# Выгружено из ПО "Атлас - Подсчет запасов"
############################################
~VERSION INFORMATION
#MNEM.UNIT                                    DATA : TYPE DESCRIPTION
VERS.                                         1.20 : CWLS LOG ASCII STANDARD_VERSION 1.20
WRAP.                                           NO : One line per depth step
############################################
~WELL INFORMATION
#MNEM.UNIT                                    DATA : TYPE DESCRIPTION
STRT.M                                      1000.0 : Start depth
STOP.M                                      3049.9 : Stop depth
STEP.M                                         0.1 : Step
NULL.                                      -999.25 : Null Value
WELL.                                           16 : 16
X.                                        12554177 : X-coordinate of Well Head
Y.                                         8022673 : Y-coordinate of Well Head
RKB.                                          32.7 : RKB
############################################
~CURVE INFORMATION
#MNEM.UNIT                                    DATA : TYPE DESCRIPTION
DEPT.M                                             : DEPT
ГК.у.е.                                            : 
ПС.мВ                                              : 
############################################
~ASCII
# ...
1402.2  9.9175  90.193
1402.3  9.86246 89.1834
1402.4  9.78662 88.1697
1402.5  9.52312 87.1082
1402.6  9.26264 86.0065
1402.7  9.02928 84.5434
1402.8  8.81049 83.0402
1402.9  8.72549 81.1942
1403.0  8.63408 79.4904
1403.1  8.48508 79.0649
1403.2  8.33529 78.774
1403.3  8.17819 79.6935
1403.4  8.01913 80.6047
1403.5  7.84063 81.4501
1403.6  7.66429 82.144
1403.7  7.50739 81.4744
1403.8  7.3643  80.7286
1403.9  7.3473  79.3066
1404.0  7.35368 77.9165
1404.1  7.57018 76.813
1404.2  7.78836 75.7498
1404.3  8.02201 75.0473
1404.4  8.24266 74.3818
1404.5  8.34916 74.0403
1404.6  8.43735 73.7074
1404.7  8.36089 73.4515
1404.8  8.31623 73.1953
1404.9  8.55823 72.9388
1405.0  8.78791 72.6739
1405.1  8.90691 72.3329
1405.2  9.00595 71.9791
1405.3  8.9254  71.5098
1405.4  8.84109 71.0326
1405.5  8.72208 70.4796
1405.6  8.612   69.9468
1405.7  8.58202 69.595
1405.8  8.55545 69.2789
1405.9  8.55995 69.2874
1406.0  8.56655 69.3647
1406.1  8.59205 70.0612
1406.2  8.62095 70.7875
1406.3  8.68049 71.7821
1406.4  8.72589 72.7606
1406.5  8.64489 73.6051
1406.6  8.57605 74.4294
1406.7  8.61653 75.073
1406.8  8.66617 75.7154
1406.9  8.79767 76.3384
1407.0  8.91044 76.9836
1407.1  8.85494 77.8286
1407.2  8.7978  78.6354
1407.3  8.72575 79.0997
1407.4  8.65589 79.4446
1407.5  8.60489 78.7216
1407.6  8.55225 77.916
1407.7  8.48479 76.368
1407.8  8.43887 74.819
1407.9  8.58737 73.281
1408.0  8.70994 71.7748
1408.1  8.59944 70.5543
1408.2  8.5     69.3837
1408.3  8.5     68.6602
1408.4  8.51146 67.9546
1408.5  8.62596 67.4016
1408.6  8.71964 66.8391
1408.7  8.6262  66.191
1408.8  8.54075 65.5495
1408.9  8.52825 64.9755
1409.0  8.5132  64.4343
1409.1  8.4752  64.1878
1409.2  8.43204 63.97
1409.3  8.34249 64.01
1409.4  8.27562 64.0415
1409.5  8.41162 63.997
1409.6  8.51954 63.9557
1409.7  8.37513 63.9427
1409.8  8.25566 63.9703
1409.9  8.36216 64.3633
1410.0  8.4584  64.8002
1410.1  8.4624  65.6307
1410.2  8.48001 66.5177
1410.3  8.62009 67.9151
1410.4  8.74134 69.313
1410.5  8.69484 70.731
1410.6  8.64745 72.1928
1410.7  8.59198 74.0487
1410.8  8.5437  75.9369
1410.9  8.5607  78.0929
1411.0  8.59683 80.1831
1411.1  8.80482 81.6826
1411.2  8.9869  83.1887
1411.3  8.93587 84.7557
1411.4  8.90827 86.3295
1411.5  9.09077 87.9825
1411.6  9.26561 89.6065
1411.7  9.37154 90.9697
1411.8  9.46064 92.2971
1411.9  9.39714 93.2866
1412.0  9.35527 94.247
1412.1  9.50777 94.9465
1412.2  9.67007 95.6501
1412.3  9.92072 96.3916
1412.4  10.1188 97.126
1412.5  9.84732 97.8055
1412.6  9.59665 98.5427
1412.7  9.53319 99.7985
1412.8  9.48616 101.081
1412.9  9.58766 102.587
1413.0  9.67049 104.002
1413.1  9.58549 104.597
1413.2  9.49924 105.038
1413.3  9.40168 104.099
1413.4  9.32166 103.078
1413.5  9.39816 101.313
1413.6  9.45639 99.4863
1413.7  9.35046 97.1117
1413.8  9.24058 94.6952
1413.9  9.09658 91.9302
1414.0  8.94022 89.1705
1414.1  8.67272 86.459
1414.2  8.44686 83.8717
1414.3  8.59545 82.3988
1414.4  8.7328  81.0826
1414.5  8.7708  81.1586
1414.6  8.82326 81.2997
1414.7  9.00565 82.0257
1414.8  9.19718 82.7578
1414.9  9.46868 83.5353
1415.0  9.70114 84.3079
1415.1  9.58264 85.0364
1415.2  9.46875 85.7391
1415.3  9.3962  86.2099
1415.4  9.3344  86.6824
1415.5  9.3684  87.1754
1415.6  9.37864 87.6107
1415.7  9.17526 87.5283
1415.8  9.00176 87.3617
1415.9  9.09926 86.4397
1416.0  9.18104 85.4937
1416.1  9.12154 84.3322
1416.2  9.07776 83.2281
1416.3  9.17531 82.6387
1416.4  9.2664  82.0971
1416.5  9.3004  81.9786
1416.6  9.3238  81.8944
1416.7  9.25184 82.1183
1416.8  9.19211 82.4146
1416.9  9.24311 83.3596
1417.0  9.2852  84.3091
1417.1  9.2472  85.2986
1417.2  9.2155  86.2307
1417.3  9.24052 86.6474
1417.4  9.24943 86.955
1417.5  9.11393 86.2855
1417.6  9.00261 85.5423
1417.7  9.10854 84.1366
1417.8  9.22352 82.7609
1417.9  9.41852 81.6709
1418.0  9.59145 80.6574
1418.1  9.56595 80.3314
1418.2  9.56086 80.116
1418.3  9.73947 80.8954
1418.4  9.87066 81.7774
1418.5  9.57766 83.5894
1418.6  9.31065 85.411
1418.7  9.27717 87.3183
1418.8  9.26142 89.1876
1418.9  9.40542 90.6916
1419.0  9.53415 92.1362
1419.1  9.52565 93.0472
1419.2  9.5199  93.9168
1419.3  9.53891 94.4146
1419.4  9.56556 94.9292
1419.5  9.66106 95.6002
1419.6  9.74435 96.2356
1419.7  9.71786 96.5514
1419.8  9.69355 96.8675
1419.9  9.68905 97.1825
1420.0  9.66543 97.2298
1420.1  9.46993 94.8703
1420.2  9.30466 92.5949
1420.3  9.41122 91.074
1420.4  9.48487 89.5241
1420.5  9.26387 87.6976
1420.6  9.04459 85.9015
1420.7  8.84071 84.3784
1420.8  8.63788 82.893
1420.9  8.44688 81.7645
1421.0  8.28691 80.6696
1421.1  8.40591 79.8766
1421.2  8.50915 79.1049
1421.3  8.47062 78.5241
1421.4  8.44281 77.9776
1421.5  8.51081 77.7336
1421.6  8.56905 77.5304
1421.7  8.53957 77.6938
1421.8  8.52361 77.8592
1421.9  8.62961 78.0407
1422.0  8.71394 78.1874
1422.1  8.60344 78.0219
1422.2  8.49935 77.8556
1422.3  8.45282 77.682
1422.4  8.4097  77.5334
1422.5  8.3967  77.6069
1422.6  8.41182 77.66
1422.7  8.67965 77.5306
1422.8  8.91079 77.4071
1422.9  8.80879 77.3386
1423.0  8.73738 77.8704
1423.1  8.94088 83.7969
1423.2  9.12085 89.1297
1423.3  9.08933 89.1273
1423.4  9.04758 88.9375
1423.5  8.91358 87.0645
1423.6  8.78705 85.3525
1423.7  8.72758 85.0876
1423.8  8.66209 84.8428
1423.9  8.54309 84.7813
1424.0  8.42579 84.6769
1424.1  8.32379 84.1869
1424.2  8.24391 83.6406
1424.3  8.36298 82.587
1424.4  8.46574 81.5365
1424.5  8.42325 80.5025
1424.6  8.40541 79.5542
1424.7  8.60929 79.3763
1424.8  8.79045 79.2435
1424.9  8.76495 79.5185
1425.0  8.72968 79.7486
1425.1  8.60668 79.5751
1425.2  8.49345 79.3804
1425.3  8.46793 78.9941
1425.4  8.45862 78.6101
1425.5  8.59462 78.2411
1425.6  8.73951 77.91
1425.7  8.96438 77.9194
1425.8  9.15849 78.0362
1425.9  9.07349 79.1167
1426.0  9.02508 80.2779
1426.1  9.30558 82.1644
1426.2  9.54864 84.0485
1426.3  9.45509 85.9131
1426.4  9.36504 87.7271
1426.5  9.30554 89.1066
1426.6  9.2507  90.4705
1426.7  9.23771 91.6937
1426.8  9.21749 92.8467
1426.9  9.13249 93.3532
1427.0  9.04584 93.7078
1427.1  8.94434 92.6968
1427.2  8.83299 91.645
1427.3  8.63287 90.2246
1427.4  8.4513  88.8816
1427.5  8.4343  88.2181
1427.6  8.40114 87.6276
1427.7  8.22275 87.6936
1427.8  8.0637  87.7925
1427.9  8.0807  88.187
1428.0  8.12238 88.5816
1428.1  8.38588 88.9765
1428.2  8.60389 88.7109
1428.3  8.41277 82.4996
1428.4  8.21547 76.7247
1428.5  7.96047 74.8042
1428.6  7.71144 72.9658
1428.7  7.51606 71.8655
1428.8  7.35492 70.8044
1428.9  7.50392 70.1089
1429.0  7.64606 69.4452
1429.1  7.72656 69.0677
1429.2  7.81131 68.7305
1429.3  7.93438 68.7561
1429.4  8.07479 68.8398
1429.5  8.37229 69.4468
1429.6  8.64385 70.0882
1429.7  8.68233 71.0391
1429.8  8.71274 71.9992
1429.9  8.67025 73.0297
1430.0  8.64261 74.6395
1430.1  8.74861 81.456
1430.2  8.844   87.9568
1430.3  8.844   91.6245
1430.4  8.86653 95.2082
1430.5  9.09153 98.0772
1430.6  9.30761 100.82
1430.7  9.44353 102.428
1430.8  9.55369 103.952
1430.9  9.43069 104.704
1431.0  9.30508 105.45
1431.1  9.15608 106.15
1431.2  9.02035 106.826
1431.3  9.00384 107.297
1431.4  8.98429 107.756
1431.5  8.93729 108.105
1431.6  8.89885 108.404
1431.7  8.93733 108.253
1431.8  8.96474 108.037
1431.9  8.89224 107.234
1432.0  8.8287  106.308
1432.1  8.8457  104.276
1432.2  8.87291 102.158
1432.3  8.99198 99.2588
1432.4  9.08794 96.355
1432.5  8.97744 93.379
1432.6  8.86864 90.4615
1432.7  8.7752  88.07
1432.8  8.70422 85.8975
1432.9  8.83622 85.723
1433.0  8.98133 85.6433
1433.1  9.24433 86.4158
1433.2  9.50907 87.1442
1433.3  9.78974 87.4764
1433.4  10.0369 87.7907
1433.5  9.98589 87.9477
1433.6  9.92724 88.0755
1433.7  9.79982 87.9406
1433.8  9.68375 87.7501
1433.9  9.67125 87.0621
1434.0  9.65234 86.3838
1434.1  9.57584 85.7928
1434.2  9.53667 85.2914
1434.3  9.83335 85.5956
1434.4  -999.25 86.0227
1434.5  -999.25 87.5582
1434.6  -999.25 89.1247
1434.7  -999.25 90.9696
1434.8  -999.25 92.8036
1434.9  -999.25 94.5176
1435.0  -999.25 96.1531
1435.1  -999.25 97.0831
1435.2  -999.25 97.8394
1435.3  -999.25 97.0334
1435.4  -999.25 96.184
1435.5  -999.25 94.9361
1435.6  9.97385 93.7009
1435.7  9.90239 92.5811
