# Выгружено из ПО "Атлас - Подсчет запасов"
############################################
~VERSION INFORMATION
#MNEM.UNIT                                    DATA : TYPE DESCRIPTION
VERS.                                         1.20 : CWLS LOG ASCII STANDARD_VERSION 1.20
WRAP.                                           NO : One line per depth step
############################################
~WELL INFORMATION
#MNEM.UNIT                                    DATA : TYPE DESCRIPTION
STRT.M                                      1000.0 : Start depth
STOP.M                                      3049.9 : Stop depth
STEP.M                                         0.1 : Step
NULL.                                      -999.25 : Null Value
WELL.                                           16 : 16
X.                                        12554177 : X-coordinate of Well Head
Y.                                         8022673 : Y-coordinate of Well Head
RKB.                                          32.7 : RKB
############################################
~CURVE INFORMATION
#MNEM.UNIT                                    DATA : TYPE DESCRIPTION
DEPT.M                                             : DEPT
ГК.у.е.                                            : 
ПС.мВ                                              : 
############################################
~ASCII
# ...
1134.0  6.26918 58.6704
1134.1  6.11118 58.4249
1134.2  5.9619  58.2103
1134.3  5.89085 58.2733
1134.4  5.83211 58.3607
1134.5  5.88311 58.6672
1134.6  5.91419 58.9659
1134.7  5.76628 59.1942
1134.8  5.63896 59.4199
1134.9  5.69846 59.6189
1135.0  5.77102 59.7816
1135.1  5.96102 59.6176
1135.2  6.11769 59.398
1135.3  5.9746  58.6781
1135.4  5.83103 57.9889
1135.5  5.68153 57.5684
1135.6  5.53429 57.2009
1135.7  5.40737 57.3098
1135.8  5.30011 57.4289
1135.9  5.37111 57.6374
1136.0  5.44216 57.7982
1136.1  5.51366 57.5302
1136.2  5.57345 57.2119
1136.3  5.52792 56.4404
1136.4  5.48645 55.6454
1136.5  5.48095 54.6309
1136.6  5.4824  53.6187
1136.7  5.54636 52.6273
1136.8  5.61311 51.637
1136.9  5.70411 50.6685
1137.0  5.78295 49.7136
1137.1  5.75245 48.8801
1137.2  5.70959 48.0785
1137.3  5.5555  47.5637
1137.4  5.40238 47.095
1137.5  5.25638 47.035
1137.6  5.12085 46.9853
1137.7  5.07937 47.0283
1137.8  5.05121 47.0756
1137.9  5.14321 47.1616
1138.0  5.23636 47.2548
1138.1  5.33986 47.4123
1138.2  5.44761 47.5537
1138.3  5.5937  47.5513
1138.4  5.71654 47.5336
1138.5  5.63204 47.3796
1138.6  5.54749 47.2297
1138.7  5.46255 47.1173
1138.8  5.37749 47.0015
1138.9  5.29249 46.857
1139.0  5.20994 46.6956
1139.1  5.14944 46.3821
1139.2  5.10075 46.0705
1139.3  5.15829 45.7759
1139.4  5.20394 45.5008
1139.5  5.14344 45.3988
1139.6  5.09365 45.3026
1139.7  5.14012 45.2586
1139.8  5.18671 45.2116
1139.9  5.23371 45.1376
1140.0  5.28066 45.0484
1140.1  5.32716 44.8229
1140.2  5.34519 44.6071
1140.3  5.10704 44.4786
1140.4  4.89055 44.3586
1140.5  4.86605 44.3146
1140.6  4.8502  44.2592
1140.7  4.91217 44.1018
1140.8  4.97786 43.9328
1140.9  5.07636 43.6613
1141.0  5.16054 43.3889
1141.1  5.11604 43.1079
1141.2  5.07155 42.8311
1141.3  5.02702 42.5919
1141.4  4.99526 42.3606
1141.5  5.07776 42.1966
1141.6  5.13484 42.0257
1141.7  4.96344 41.7934
1141.8  4.809   41.553
1141.9  4.809   41.243
1142.0  4.82367 40.9534
1142.1  4.97017 40.8479
1142.2  5.11661 40.7501
1142.3  5.2627  40.7216
1142.4  5.38699 40.6991
1142.5  5.31699 40.7301
1142.6  5.24705 40.7613
1142.7  5.17759 40.7943
1142.8  5.13407 40.831
1142.9  5.32457 40.901
1143.0  5.48919 40.9937
1143.1  5.42119 41.2907
1143.2  5.3668  41.5996
1143.3  5.43485 42.0159
1143.4  5.46877 42.4058
1143.5  5.19677 42.5633
1143.6  4.94445 42.7139
1143.7  4.86899 42.8029
1143.8  4.7995  42.8945
1143.9  4.7845  43.0095
1144.0  4.78502 43.1131
1144.1  4.92502 43.1147
1144.2  5.05415 43.1142
1144.3  5.08567 43.0962
1144.4  5.10639 43.083
1144.5  5.03039 43.113
1144.6  4.95435 43.1418
1144.7  4.87789 43.1598
1144.8  4.8109  43.1745
1144.9  4.8299  43.1595
1145.0  4.85846 43.1383
1145.1  4.97296 43.0613
1145.2  5.0742  42.9837
1145.3  5.05619 42.9012
1145.4  5.03324 42.8242
1145.5  4.96574 42.7962
1145.6  4.9014  42.7594
1145.7  4.86542 42.6435
1145.8  4.84031 42.52
1145.9  4.91331 42.3305
1146.0  4.98986 42.1542
1146.1  5.09836 42.0967
1146.2  5.20471 42.0354
1146.3  5.29176 41.9393
1146.4  5.37911 41.8349
1146.5  5.47011 41.6544
1146.6  5.5449  41.498
1146.7  5.47394 41.5574
1146.8  5.40284 41.6198
1146.9  5.33134 41.7073
1147.0  5.28232 41.8243
1147.1  5.43532 42.2073
1147.2  5.53893 42.6119
1147.3  5.19822 43.2108
1147.4  4.88274 43.8089
1147.5  4.79024 44.4074
1147.6  4.71876 45.0059
1147.7  4.83619 45.604
1147.8  4.94861 46.1967
1147.9  5.01461 46.7332
1148.0  5.08201 47.2288
1148.1  5.16201 47.3568
1148.2  5.2414  47.4712
1148.3  5.31545 47.4632
1148.4  5.38821 47.4188
1148.5  5.45021 47.0468
1148.6  5.4994  46.6579
1148.7  5.43344 46.1177
1148.8  5.36739 45.6359
1148.9  5.30139 45.6844
1149.0  5.24911 45.7734
1149.1  5.32011 46.2264
1149.2  5.39115 46.6794
1149.3  5.4627  47.1332
1149.4  5.52249 47.5626
1149.5  5.47749 47.7781
1149.6  5.42469 47.9675
1149.7  5.30177 47.9231
1149.8  5.17924 47.8727
1149.9  5.06174 47.7702
1150.0  4.96191 47.6219
1150.1  5.02091 47.0614
1150.2  5.08311 46.5124
1150.3  5.17416 46.0661
1150.4  5.27112 45.6327
1150.5  5.42212 45.3097
1150.6  5.53544 44.9911
1150.7  5.31007 44.7128
1150.8  5.10159 44.454
1150.9  5.04759 44.3745
1151.0  4.99795 44.2986
1151.1  4.98745 44.2546
1151.2  4.9823  44.2141
1151.3  5.02533 44.2056
1151.4  5.07221 44.2147
1151.5  5.15421 44.3817
1151.6  5.23375 44.6411
1151.7  5.29122 45.7304
1151.8  5.34871 46.821
1151.9  5.40571 47.9095
1152.0  5.44714 48.9837
1152.1  5.34864 49.9297
1152.2  5.25139 50.8614
1152.3  5.16534 51.6654
1152.4  5.07844 52.4683
1152.5  4.98294 53.2708
1152.6  4.89305 54.0734
1152.7  4.85357 54.8764
1152.8  4.82381 55.6804
1152.9  4.88181 56.4834
1153.0  4.94126 57.2466
1153.1  5.01376 57.6516
1153.2  5.08215 58.0168
1153.3  5.11367 58.0248
1153.4  5.14425 58.0652
1153.5  5.16675 58.3972
1153.6  5.1921  58.764
1153.7  5.24307 59.4431
1153.8  5.29671 60.1826
1153.9  5.37371 61.4566
1154.0  5.45762 62.7184
1154.1  5.60362 63.8714
1154.2  5.75071 64.9871
1154.3  5.90781 65.7681
1154.4  6.06126 66.5481
1154.5  6.18376 67.3286
1154.6  6.26443 68.109
1154.7  5.96911 68.8886
1154.8  5.68683 69.6396
1154.9  5.52533 70.1246
1155.0  5.36859 70.6096
1155.1  5.25459 71.0946
1155.2  5.1523  71.5795
1155.3  5.1553  72.0648
1155.4  5.16216 72.4946
1155.5  5.20366 72.4311
1155.6  5.24635 72.3137
1155.7  5.29982 71.7116
1155.8  5.36067 71.0456
1155.9  5.48717 69.8137
1156.0  5.61607 68.5479
1156.1  5.76657 66.9784
1156.2  5.91071 65.4032
1156.3  5.99776 63.7747
1156.4  6.09202 62.16
1156.5  6.25202 60.6515
1156.6  6.37259 59.2172
1156.7  6.13873 58.4502
1156.8  5.91789 57.7594
1156.9  5.81689 57.764
1157.0  5.71218 57.7769
1157.1  5.57418 57.8659
1157.2  5.43809 57.9315
1157.3  5.31902 57.787
1157.4  5.19928 57.6086
1157.5  5.07228 57.1256
1157.6  4.94789 56.5947
1157.7  4.84696 55.6333
1157.8  4.75595 54.6358
1157.9  4.75545 53.3258
1158.0  4.75981 52.0165
1158.1  4.80781 50.713
1158.2  4.85795 49.4515
1158.3  4.9275  48.5665
1158.4  4.99591 47.7143
1158.5  5.05491 47.1478
1158.6  5.11105 46.5975
1158.7  5.14153 46.1927
1158.8  5.1679  45.8096
1158.9  5.1569  45.6261
1159.0  5.14345 45.4375
1159.1  5.10795 45.2025
1159.2  5.07645 44.9894
1159.3  5.08095 44.9739
1159.4  5.09346 44.9549
1159.5  5.17796 44.9044
1159.6  5.24745 44.828
1159.7  5.18199 44.5182
1159.8  5.12525 44.2388
1159.9  5.14775 44.2368
1160.0  5.16209 44.2384
1160.1  5.10309 44.2724
1160.2  5.0456  44.2924
1160.3  5.00157 44.1863
1160.4  4.97081 44.1058
1160.5  5.05881 44.2533
1160.6  5.14956 44.406
1160.7  5.26499 44.6053
1160.8  5.38302 44.8088
1160.9  5.52302 45.0463
1161.0  5.6515  45.2738
1161.1  5.6765  45.4118
1161.2  5.68399 45.5488
1161.3  5.5339  45.6769
1161.4  5.38954 45.8022
1161.5  5.29504 45.9037
1161.6  5.21395 46.0066
1161.7  5.25343 46.122
1161.8  5.29706 46.2469
1161.9  5.37756 46.4559
1162.0  5.4494  46.6526
1162.1  5.4434  46.7381
1162.2  5.43105 46.8125
1162.3  5.3615  46.788
1162.4  5.297   46.7499
1162.5  5.277   46.5889
1162.6  5.26205 46.4185
1162.7  5.29253 46.1636
1162.8  5.32305 45.9153
1162.9  5.35355 45.7283
1163.0  5.36223 45.5468
1163.1  5.17473 45.4153
1163.2  5.01315 45.2841
1163.3  5.0847  45.155
1163.4  5.15506 45.0373
1163.5  5.21556 45.0197
1163.6  5.2756  44.9827
1163.7  5.33157 44.7698
1163.8  5.38776 44.5765
1163.9  5.44526 44.5615
1164.0  5.49224 44.5527
1164.1  5.44474 44.5997
1164.2  5.39079 44.6298
1164.3  5.27872 44.5077
1164.4  5.18636 44.3974
1164.5  5.26986 44.3919
1164.6  5.3534  44.4034
1164.7  5.43735 44.5673
1164.8  5.52136 44.731
1164.9  5.60486 44.891
1165.0  5.68841 45.0576
1165.1  5.77241 45.2831
1165.2  5.85636 45.5034
1165.3  5.93991 45.677
1165.4  5.97645 45.8451
1165.5  5.59145 45.9661
1165.6  5.24415 46.0894
1165.7  5.23565 46.2333
1165.8  5.23115 46.3836
1165.9  5.26265 46.5896
1166.0  5.28234 46.7953
1166.1  5.19584 46.9978
1166.2  5.09544 47.2055
1166.3  4.8698  47.4601
1166.4  4.65383 47.6969
1166.5  4.52233 47.7754
1166.6  4.41085 47.8627
1166.7  4.47931 48.0296
1166.8  4.55817 48.1971
1166.9  4.72967 48.3676
1167.0  4.89982 48.5433
1167.1  5.05782 48.7663
1167.2  5.2021  48.9883
1167.3  5.22311 49.2009
1167.4  5.23354 49.3924
