# Выгружено из ПО "Атлас - Подсчет запасов"
############################################
~VERSION INFORMATION
#MNEM.UNIT                                    DATA : TYPE DESCRIPTION
VERS.                                         1.20 : CWLS LOG ASCII STANDARD_VERSION 1.20
WRAP.                                           NO : One line per depth step
############################################
~WELL INFORMATION
#MNEM.UNIT                                    DATA : TYPE DESCRIPTION
STRT.M                                      1000.0 : Start depth
STOP.M                                      3049.9 : Stop depth
STEP.M                                         0.1 : Step
NULL.                                      -999.25 : Null Value
WELL.                                           16 : 16
X.                                        12554177 : X-coordinate of Well Head
Y.                                         8022673 : Y-coordinate of Well Head
RKB.                                          32.7 : RKB
############################################
~CURVE INFORMATION
#MNEM.UNIT                                    DATA : TYPE DESCRIPTION
DEPT.M                                             : DEPT
ГК.у.е.                                            : 
ПС.мВ                                              : 
############################################
~ASCII
# ...
3012.0  9.48917 93.4897
3012.1  9.65087 93.4372
3012.2  9.77502 93.3663
3012.3  9.56527 93.129
3012.4  9.356   92.9091
3012.5  9.146   92.8407
3012.6  8.96311 92.8114
3012.7  9.02403 93.135
3012.8  9.09888 93.4663
3012.9  9.29713 93.8583
3013.0  9.49587 94.2415
3013.1  9.69462 94.5363
3013.2  9.87045 94.8146
3013.3  9.84492 94.9502
3013.4  9.8309  95.0713
3013.5  9.9199  95.0643
3013.6  9.98088 95.0466
3013.7  9.79011 94.9333
3013.8  9.62391 94.8141
3013.9  9.68284 94.6453
3014.0  9.75287 94.4907
3014.1  9.92158 94.4677
3014.2  10.0899 94.4266
3014.3  10.2586 94.2229
3014.4  10.4269 94.0273
3014.5  10.5959 93.8997
3014.6  10.7496 93.7722
3014.7  10.7656 93.6449
3014.8  10.7664 93.5452
3014.9  10.6311 93.697
3015.0  10.509  93.846
3015.1  10.509  93.9662
3015.2  10.5052 94.0831
3015.3  10.4671 94.1737
3015.4  10.4202 94.2659
3015.5  10.2928 94.3755
3015.6  10.1942 94.4967
3015.7  10.3555 94.7229
3015.8  10.4976 94.9403
3015.9  10.4636 95.0732
3016.0  10.4457 95.205
3016.1  10.5729 95.3246
3016.2  10.6777 95.4264
3016.3  10.5846 95.3709
3016.4  10.4959 95.307
3016.5  10.4449 95.167
3016.6  10.382  95.015
3016.7  10.2122 94.7558
3016.8  10.0675 94.4973
3016.9  10.1524 94.2506
3017.0  10.2324 94.0266
3017.1  10.2664 94.0131
3017.2  10.2983 94.0078
3017.3  10.3108 94.0759
3017.4  10.3097 94.1561
3017.5  10.1867 94.3471
3017.6  10.0803 94.5381
3017.7  10.1227 94.7289
3017.8  10.158  94.9201
3017.9  10.128  95.1103
3018.0  10.1108 95.306
3018.1  10.2089 95.5463
3018.2  10.3025 95.7678
3018.3  10.3576 95.8259
3018.4  10.4104 95.8734
3018.5  10.4444 95.8274
3018.6  10.4925 95.7873
3018.7  10.6668 95.8003
3018.8  10.8333 95.808
3018.9  10.9262 95.7686
3019.0  10.9841 95.7398
3019.1  10.7248 95.8073
3019.2  10.4933 95.8709
3019.3  10.5063 95.8999
3019.4  10.5286 95.9474
3019.5  10.6346 96.1614
3019.6  10.7474 96.4004
3019.7  10.9212 96.8628
3019.8  11.0716 97.3134
3019.9  11.0082 97.6465
3020.0  10.9493 97.982
3020.1  10.9323 98.3325
3020.2  10.8681 98.6739
3020.3  10.379  98.9433
3020.4  9.923   99.1872
3020.5  9.753   99.2092
3020.6  9.60641 99.2176
3020.7  9.67033 99.1037
3020.8  9.73606 98.9825
3020.9  9.81646 98.7983
3021.0  9.87328 98.6069
3021.1  9.71609 98.3561
3021.2  9.57415 98.1189
3021.3  9.56564 97.9983
3021.4  9.5431  97.8864
3021.5  9.3941  97.8504
3021.6  9.24513 97.8196
3021.7  9.09681 97.8356
3021.8  8.94853 97.8549
3021.9  8.80421 97.9033
3022.0  8.68251 97.955
3022.1  8.76761 98.0346
3022.2  8.86483 98.1229
3022.3  9.07308 98.2916
3022.4  9.28125 98.4511
3022.5  9.49375 98.5327
3022.6  9.70242 98.6186
3022.7  9.87621 98.7445
3022.8  10.0113 98.8749
3022.9  9.79509 99.0432
3023.0  9.61322 99.2006
3023.1  9.74538 99.2561
3023.2  9.85844 99.3099
3023.3  9.80288 99.3484
3023.4  9.7394  99.3641
3023.5  9.6034  99.1751
3023.6  9.481   98.9861
3023.7  9.481   98.7973
3023.8  9.49422 98.6205
3023.9  9.62605 98.5556
3024.0  9.75011 98.4983
3024.1  9.80117 98.5108
3024.2  9.82232 98.5333
3024.3  9.57552 98.6465
3024.4  9.35315 98.7795
3024.5  9.34465 99.095
3024.6  9.32679 99.4063
3024.7  9.22491 99.6785
3024.8  9.12154 99.9353
3024.9  9.00718 100.048
3025.0  8.90015 100.139
3025.1  8.8616  100.024
3025.2  8.8266  99.9067
3025.3  8.82259 99.7535
3025.4  8.81305 99.5975
3025.5  8.75355 99.4119
3025.6  8.68128 99.228
3025.7  8.49451 99.0587
3025.8  8.32345 98.8923
3025.9  8.29798 98.7555
3026.0  8.29412 98.6277
3026.1  8.48536 98.5852
3026.2  8.66936 98.5434
3026.3  8.79302 98.5073
3026.4  8.90525 98.4691
3026.5  8.91775 98.4101
3026.6  8.94642 98.3466
3026.7  9.12021 98.2427
3026.8  9.27615 98.1265
3026.9  9.26766 97.9017
3027.0  9.25875 97.7097
3027.1  9.24623 97.8168
3027.2  9.24987 97.9396
3027.3  9.39855 98.206
3027.4  9.55665 98.4589
3027.5  9.80315 98.5984
3027.6  10.0216 98.72
3027.7  9.98764 98.6806
3027.8  9.96636 98.6498
3027.9  10.0597 98.6983
3028.0  10.124  98.7466
3028.1  9.92428 98.7921
3028.2  9.73309 98.8079
3028.3  9.61394 98.5566
3028.4  9.5142  98.3036
3028.5  9.5862  98.0302
3028.6  9.62972 97.7657
3028.7  9.41748 97.5835
3028.8  9.22985 97.4167
3028.9  9.26831 97.3943
3029.0  9.28218 97.3948
3029.1  9.07392 97.6025
3029.2  8.86402 97.814
3029.3  8.63424 98.0638
3029.4  8.4365  98.3029
3029.5  8.5215  98.4519
3029.6  8.62093 98.5844
3029.7  8.84965 98.5684
3029.8  9.07943 98.5338
3029.9  9.31314 98.332
3030.0  9.52505 98.1239
3030.1  9.53556 97.8631
3030.2  9.54885 97.5769
3030.3  9.5874  97.0563
3030.4  9.63705 96.5574
3030.5  9.78755 96.2414
3030.6  9.90938 95.9378
3030.7  9.77355 95.7466
3030.8  9.66081 95.5612
3030.9  9.75869 95.4339
3031.0  9.83719 95.3296
3031.1  9.73907 95.4357
3031.2  9.62592 95.5416
3031.3  9.37511 95.6472
3031.4  9.13345 95.7525
3031.5  8.96795 95.858
3031.6  8.80623 95.9466
3031.7  8.67889 95.8827
3031.8  8.57972 95.8186
3031.9  8.73653 95.7552
3032.0  8.89502 95.6841
3032.1  9.06523 95.5455
3032.2  9.2167  95.3997
3032.3  9.20368 95.1864
3032.4  9.17675 94.9738
3032.5  9.02425 94.7613
3032.6  8.89931 94.5487
3032.7  9.02217 94.3365
3032.8  9.16063 94.1237
3032.9  9.4363  93.9109
3033.0  9.67819 93.6977
3033.1  9.61011 93.485
3033.2  9.55966 93.2877
3033.3  9.66629 93.2246
3033.4  9.75645 93.1767
3033.5  9.70095 93.2632
3033.6  9.66927 93.3497
3033.7  9.85155 93.4361
3033.8  10.0118 93.5227
3033.9  9.96985 93.6091
3034.0  9.94261 93.6957
3034.1  10.0487 93.7823
3034.2  10.1329 93.8687
3034.3  10.0223 93.9553
3034.4  9.9192  94.009
3034.5  9.8812  93.7695
3034.6  9.85296 93.5301
3034.7  9.91238 93.2914
3034.8  9.95834 93.0571
3034.9  9.88193 92.8683
3035.0  9.82872 92.6807
3035.1  9.98591 92.508
3035.2  10.1151 92.3422
3035.3  9.99594 92.2341
3035.4  9.87585 92.1445
3035.5  9.74435 92.2195
3035.6  9.60983 92.3263
3035.7  9.44853 92.7183
3035.8  9.33319 93.0847
3035.9  9.63432 93.2116
3036.0  9.91491 93.3388
3036.1  10.004  93.4664
3036.2  10.0734 93.5937
3036.3  9.96726 93.7203
3036.4  9.8618  93.8467
3036.5  9.7598  93.9737
3036.6  9.67566 94.1007
3036.7  9.75207 94.2276
3036.8  9.81845 94.342
3036.9  9.79298 94.342
3037.0  9.7679  94.3154
3037.1  9.74687 94.0496
3037.2  9.73861 93.7844
3037.3  9.84474 93.518
3037.4  9.92215 93.2524
3037.5  9.74365 92.9864
3037.6  9.57494 92.7652
3037.7  9.49454 92.947
3037.8  9.42751 93.1448
3037.9  9.48244 93.4819
3038.0  9.54607 93.8083
3038.1  9.68674 94.0311
3038.2  9.79328 94.2534
3038.3  9.59604 94.4771
3038.4  9.4394  94.7002
3038.5  9.6434  94.9228
3038.6  9.83466 95.1453
3038.7  9.91107 95.3675
3038.8  9.97659 95.5903
3038.9  9.94264 95.8125
3039.0  9.91585 95.9986
3039.1  9.9544  95.8544
3039.2  9.95831 95.7337
3039.3  9.65144 95.8208
3039.4  9.38195 95.9149
3039.5  9.44145 96.0739
3039.6  9.48609 96.2017
3039.7  9.3972  96.0489
3039.8  9.3187  95.9051
3039.9  9.33568 95.8462
3040.0  9.3493  95.7995
3040.1  9.33228 95.864
3040.2  9.32466 95.9432
3040.3  9.40125 96.1555
3040.4  9.48575 96.3672
3040.5  9.64325 96.5798
3040.6  9.7884  96.7922
3040.7  9.82236 97.0034
3040.8  9.8568  97.2418
3040.9  9.89476 97.7187
3041.0  -999.25 98.1717
3041.1  -999.25 98.399
3041.2  -999.25 98.6258
3041.3  -999.25 98.8536
3041.4  -999.25 99.0807
3041.5  -999.25 99.3077
3041.6  -999.25 99.5233
3041.7  -999.25 99.6362
3041.8  -999.25 99.738
3041.9  -999.25 99.738
3042.0  -999.25 99.7061
3042.1  -999.25 99.3867
3042.2  9.4028  99.084
3042.3  9.37076 98.9243
3042.4  9.3582  98.7809
3042.5  9.5202  98.7804
3042.6  9.67917 98.78
3042.7  9.81051 98.78
3042.8  9.92049 98.7991
3042.9  9.83559 98.9893
3043.0  9.74709 99.1801
3043.1  9.62794 99.3708
3043.2  9.51674 99.547
3043.3  9.47419 99.5971
3043.4  9.45045 99.6329
3043.5  9.59495 99.5414
3043.6  9.72755 99.4498
3043.7  9.75302 99.3585
3043.8  9.79007 99.2668
3043.9  9.9304  99.1755
3044.0  10.0634 99.078
3044.1  10.1275 98.9284
3044.2  10.1811 98.779
3044.3  10.1426 98.6288
3044.4  10.0948 98.4693
3044.5  9.9628  98.2217
3044.6  9.84445 97.9739
3044.7  9.84894 97.7237
3044.8  9.85936 97.498
3044.9  9.92278 97.498
3045.0  9.98811 97.4979
3045.1  10.0692 97.4975
3045.2  10.1437 97.4969
3045.3  10.1607 97.4965
3045.4  10.1662 97.5279
3045.5  10.0682 97.8464
