# Выгружено из ПО "Атлас - Подсчет запасов"
############################################
~VERSION INFORMATION
#MNEM.UNIT                                    DATA : TYPE DESCRIPTION
VERS.                                         1.20 : CWLS LOG ASCII STANDARD_VERSION 1.20
WRAP.                                           NO : One line per depth step
############################################
~WELL INFORMATION
#MNEM.UNIT                                    DATA : TYPE DESCRIPTION
STRT.M                                      1000.0 : Start depth
STOP.M                                      3049.9 : Stop depth
STEP.M                                         0.1 : Step
NULL.                                      -999.25 : Null Value
WELL.                                           16 : 16
X.                                        12554177 : X-coordinate of Well Head
Y.                                         8022673 : Y-coordinate of Well Head
RKB.                                          32.7 : RKB
############################################
~CURVE INFORMATION
#MNEM.UNIT                                    DATA : TYPE DESCRIPTION
DEPT.M                                             : DEPT
ГК.у.е.                                            : 
ПС.мВ                                              : 
############################################
~ASCII
# ...
1670.8  8.35485 60.869
1670.9  8.39335 61.5585
1671.0  8.4233  62.2531
1671.1  8.37629 62.9931
1671.2  8.33145 63.7293
1671.3  8.30593 64.4322
1671.4  8.28045 65.179
1671.5  8.25495 66.328
1671.6  8.2367  67.4814
1671.7  8.28367 68.6736
1671.8  8.34217 69.8363
1671.9  8.50367 70.7178
1672.0  8.65496 71.592
1672.1  8.71446 72.401
1672.2  8.78581 73.2409
1672.3  8.96392 74.3596
1672.4  9.12485 75.4713
1672.5  9.13335 76.5328
1672.6  9.12699 77.5738
1672.7  8.98708 78.4308
1672.8  8.86906 79.3173
1672.9  8.94956 80.4593
1673.0  9.0182  81.5805
1673.1  8.9802  82.5145
1673.2  8.9528  83.4378
1673.3  9.02085 84.2653
1673.4  9.09902 85.1489
1673.5  9.26902 86.5464
1673.6  9.4288  87.948
1673.7  9.49676 89.3861
1673.8  9.55585 90.7974
1673.9  9.53435 91.9504
1674.0  9.49928 93.1105
1674.1  9.34228 94.3345
1674.2  9.21821 95.5406
1674.3  9.39032 96.5862
1674.4  9.56477 97.6158
1674.5  9.76227 98.5128
1674.6  9.92639 99.421
1674.7  9.79047 100.43
1674.8  9.65228 101.425
1674.9  9.49528 102.286
1675.0  9.36121 103.146
1675.1  9.43321 103.993
1675.2  9.4908  104.809
1675.3  9.41875 105.338
1675.4  9.351   105.848
1675.5  9.321   106.186
1675.6  9.27999 106.479
1675.7  9.14008 106.371
1675.8  9.00719 106.263
1675.9  8.93919 106.155
1676.0  8.86353 106.046
1676.1  8.71903 105.938
1676.2  8.59325 105.83
1676.3  8.63578 105.722
1676.4  8.68381 105.633
1676.5  8.78181 105.724
1676.6  8.85339 105.799
1676.7  8.68749 105.74
1676.8  8.55292 105.73
1676.9  8.70192 106.158
1677.0  8.84746 106.597
1677.1  8.96196 107.134
1677.2  9.06795 107.633
1677.3  9.09747 107.784
1677.4  9.12655 107.929
1677.5  9.15205 108.024
1677.6  9.16184 108.092
1677.7  9.03042 107.918
1677.8  8.90649 107.722
1677.9  8.85149 107.335
1678.0  8.79474 106.953
1678.1  8.72224 106.626
1678.2  8.67146 106.324
1678.3  8.81605 106.246
1678.4  8.95281 106.201
1678.5  9.02081 106.45
1678.6  9.0769  106.672
1678.7  9.02593 106.637
1678.8  8.99106 106.593
1678.9  9.10156 106.464
1679.0  9.19544 106.335
1679.1  9.13994 106.206
1679.2  9.07174 106.072
1679.3  8.88913 105.901
1679.4  8.73141 105.73
1679.5  8.79541 105.559
1679.6  8.86316 105.388
1679.7  8.96459 105.217
1679.8  9.0522  105.076
1679.9  9.0142  105.201
1680.0  8.96638 105.326
1680.1  8.83038 105.451
1680.2  8.71225 105.576
1680.3  8.75478 105.701
1680.4  8.76962 105.826
1680.5  8.53612 105.951
1680.6  8.32345 106.077
1680.7  8.29796 106.201
1680.8  8.2716  106.314
1680.9  8.2376  106.311
1681.0  8.2087  106.309
1681.1  8.2257  106.307
1681.2  8.23675 106.312
1681.3  8.19422 106.379
1681.4  8.15905 106.453
1681.5  8.18955 106.59
1681.6  8.21905 106.728
1681.7  8.23954 106.865
1681.8  8.25034 107.002
1681.9  8.17384 107.138
1682.0  8.09989 107.275
1682.1  8.04889 107.412
1682.2  8.01616 107.55
1682.3  8.14774 107.687
1682.4  8.28092 107.824
1682.5  8.42992 107.96
1682.6  8.5661  108.097
1682.7  8.58709 108.234
1682.8  8.61877 108.361
1682.9  8.74627 108.394
1683.0  8.83887 108.417
1683.1  8.61787 108.346
1683.2  8.43686 108.276
1683.3  8.61547 108.205
1683.4  8.78877 108.135
1683.5  8.91627 108.064
1683.6  9.01909 107.994
1683.7  8.90017 107.923
1683.8  8.80747 107.853
1683.9  8.95197 107.782
1684.0  9.07139 107.712
1684.1  8.96539 107.641
1684.2  8.8649  107.579
1684.3  8.81387 107.601
1684.4  8.75649 107.632
1684.5  8.64149 107.745
1684.6  8.54015 107.858
1684.7  8.56164 107.972
1684.8  8.59206 108.086
1684.9  8.70256 108.199
1685.0  8.78963 108.312
1685.1  8.66613 108.426
1685.2  8.53459 108.539
1685.3  8.33046 108.653
1685.4  8.13854 108.743
1685.5  8.05404 108.618
1685.6  7.9712  108.493
1685.7  7.90324 108.369
1685.8  7.83389 108.244
1685.9  7.75289 108.119
1686.0  7.70894 107.994
1686.1  7.99794 107.869
1686.2  8.26946 107.745
1686.3  8.38403 107.62
1686.4  8.46958 107.495
1686.5  8.29558 107.37
1686.6  8.13515 107.252
1686.7  8.09667 107.188
1686.8  8.06075 107.13
1686.9  8.04825 107.128
1687.0  8.03785 107.126
1687.1  8.04635 107.123
1687.2  8.05315 107.133
1687.3  8.04464 107.255
1687.4  8.0387  107.376
1687.5  8.0557  107.498
1687.6  8.0727  107.62
1687.7  8.08969 107.741
1687.8  8.11521 107.862
1687.9  8.21721 107.984
1688.0  8.31921 108.106
1688.1  8.42121 108.228
1688.2  8.5083  108.349
1688.3  8.46127 108.471
1688.4  8.40198 108.592
1688.5  8.23198 108.714
1688.6  8.079   108.835
1688.7  8.079   108.957
1688.8  8.08286 109.078
1688.9  8.12136 109.2
1689.0  8.14794 109.295
1689.1  8.06744 109.157
1689.2  8.00391 109.018
1689.3  8.09296 108.879
1689.4  8.18787 108.74
1689.5  8.33637 108.602
1689.6  8.45044 108.474
1689.7  8.25506 108.441
1689.8  8.08966 108.418
1689.9  8.19616 108.492
1690.0  8.29796 108.565
1690.1  8.35746 108.639
1690.2  8.41565 108.712
1690.3  8.46218 108.786
1690.4  8.48443 108.859
1690.5  8.28893 108.933
1690.6  8.12236 109.006
1690.7  8.2158  109.08
1690.8  8.31066 109.153
1690.9  8.41716 109.227
1691.0  8.50874 109.3
1691.1  8.46624 109.374
1691.2  8.44501 109.448
1691.3  8.61511 109.521
1691.4  8.75478 109.594
1691.5  8.62278 109.668
1691.6  8.50955 109.741
1691.7  8.56502 109.815
1691.8  8.62051 109.868
1691.9  8.67551 109.723
1692.0  8.71864 109.579
1692.1  8.65514 109.437
1692.2  8.58864 109.296
1692.3  8.49509 109.154
1692.4  8.4131  109.013
1692.5  8.4341  108.871
1692.6  8.4526  108.711
1692.7  8.4486  108.384
1692.8  8.43734 108.019
1692.9  8.36084 107.321
1693.0  8.29495 106.46
1693.1  8.32445 104.139
1693.2  8.35485 101.727
1693.3  8.39338 98.5003
1693.4  8.41734 95.1712
1693.5  8.31084 90.8887
1693.6  8.2129  86.8409
1693.7  8.19191 84.9021
1693.8  8.15983 83.2917
1693.9  8.02833 84.6567
1694.0  7.90615 86.0856
1694.1  7.86765 88.0891
1694.2  7.82705 90.0782
1694.3  7.76751 91.9403
1694.4  7.72807 93.8558
1694.5  7.86857 96.2713
1694.6  7.99415 98.6784
1694.7  7.98565 101.01
1694.8  7.98561 103.233
1694.9  8.06161 104.448
1695.0  8.13766 105.61
1695.1  8.21416 106.296
1695.2  8.30046 106.925
1695.3  8.47507 107.043
1695.4  8.63495 107.154
1695.5  8.66445 107.19
1695.6  8.68335 107.232
1695.7  8.60689 107.319
1695.8  8.5346  107.411
1695.9  8.5006  107.547
1696.0  8.46064 107.663
1696.1  8.36714 107.602
1696.2  8.27364 107.53
1696.3  8.18009 107.362
1696.4  8.09985 107.192
1696.5  8.13835 107.011
1696.6  8.1683  106.541
1696.7  8.12133 103.465
1696.8  8.07139 100.152
1696.9  7.99539 94.744
1697.0  7.94227 89.3682
1697.1  8.09477 84.2867
1697.2  8.24306 79.4624
1697.3  8.35362 76.9464
1697.4  8.4526  74.8285
1697.5  8.4486  76.2615
1697.6  8.43224 77.6944
1697.7  8.30482 79.1271
1697.8  8.17428 80.5614
1697.9  8.01728 81.9939
1698.0  7.8781  83.4265
1698.1  7.8991  84.8595
1698.2  7.92821 86.1531
1698.3  8.03027 86.1936
1698.4  8.13261 86.0945
1698.5  8.23861 84.741
1698.6  8.34806 83.0888
1698.7  8.48847 78.7519
1698.8  8.60544 74.9616
1698.9  8.50994 76.1366
1699.0  8.42035 77.2137
1699.1  8.38385 77.4107
1699.2  8.35185 77.5942
1699.3  8.36036 77.6557
1699.4  8.3714  77.6791
1699.5  8.4054  77.3606
1699.6  8.4288  76.9624
1699.7  8.35684 75.8481
1699.8  8.28815 74.7324
1699.9  8.24965 73.6179
1700.0  8.21755 72.9638
1700.1  8.24305 76.4478
1700.2  8.26175 79.6531
1700.3  8.21922 80.3546
1700.4  8.19592 81.0238
1700.5  8.34492 81.4113
1700.6  8.49686 81.7786
1700.7  8.67525 81.9639
1700.8  8.82534 82.1383
1700.9  8.71884 82.2108
1701.0  8.62685 82.3334
1701.1  8.66535 82.9064
1701.2  8.71486 83.4565
1701.3  8.86345 83.8012
1701.4  8.98554 83.9151
1701.5  8.87104 81.9581
1701.6  8.76035 79.8305
1701.7  8.68389 76.1703
1701.8  8.63412 72.5073
1701.9  8.82512 68.8643
1702.0  9.00466 65.3314
1702.1  9.08116 62.7884
1702.2  9.11938 60.3598
1702.3  8.81319 58.958
1702.4  8.52098 57.5605
1702.5  8.35098 56.187
1702.6  8.21206 54.8279
1702.7  8.35247 53.5981
1702.8  8.46068 52.4497
1702.9  8.27768 52.0472
1703.0  8.12962 51.6447
1703.1  8.29562 51.2422
1703.2  8.42033 50.8397
1703.3  8.17368 50.437
1703.4  7.96772 50.0447
1703.5  8.12472 49.7417
1703.6  8.25795 49.4396
1703.7  8.17749 49.1463
1703.8  8.10755 48.8526
1703.9  8.13305 48.5591
1704.0  8.14113 48.269
1704.1  7.99263 48.009
1704.2  7.8624  -999.25
