# Выгружено из ПО "Атлас - Подсчет запасов"
############################################
~VERSION INFORMATION
#MNEM.UNIT                                    DATA : TYPE DESCRIPTION
VERS.                                         1.20 : CWLS LOG ASCII STANDARD_VERSION 1.20
WRAP.                                           NO : One line per depth step
############################################
~WELL INFORMATION
#MNEM.UNIT                                    DATA : TYPE DESCRIPTION
STRT.M                                      1000.0 : Start depth
STOP.M                                      3049.9 : Stop depth
STEP.M                                         0.1 : Step
NULL.                                      -999.25 : Null Value
WELL.                                           16 : 16
X.                                        12554177 : X-coordinate of Well Head
Y.                                         8022673 : Y-coordinate of Well Head
RKB.                                          32.7 : RKB
############################################
~CURVE INFORMATION
#MNEM.UNIT                                    DATA : TYPE DESCRIPTION
DEPT.M                                             : DEPT
ГК.у.е.                                            : 
ПС.мВ                                              : 
############################################
~ASCII
# ...
1938.9  7.95829 108.766
1939.0  7.90666 108.878
1939.1  7.99316 109.082
1939.2  8.07971 109.286
1939.3  8.16676 109.491
1939.4  8.23564 109.695
1939.5  8.14214 109.899
1939.6  8.04944 110.103
1939.7  7.964   110.308
1939.8  7.89982 110.512
1939.9  8.02782 110.716
1940.0  8.143   110.92
1940.1  8.143   111.125
1940.2  8.12764 111.332
1940.3  7.97405 111.557
1940.4  7.86113 111.764
1940.5  8.11213 111.814
1940.6  8.3363  111.84
1940.7  8.31931 111.653
1940.8  8.3023  111.46
1940.9  8.2853  111.221
1941.0  8.26534 111.006
1941.1  8.21884 111.019
1941.2  8.16419 111.061
1941.3  8.03611 111.375
1941.4  7.93081 111.701
1941.5  8.02881 112.135
1941.6  8.13146 112.553
1941.7  8.27587 112.818
1941.8  8.39919 113.06
1941.9  8.33119 113.083
1942.0  8.28407 113.098
1942.1  8.42457 113.036
1942.2  8.5595  112.963
1942.3  8.64456 112.796
1942.4  8.68651 112.604
1942.5  8.34201 112.196
1942.6  7.99583 111.797
1942.7  7.63455 111.492
1942.8  7.32942 111.204
1942.9  7.53342 111.07
1943.0  7.74298 110.928
1943.1  8.00248 110.711
1943.2  8.25431 110.493
1943.3  8.43742 110.276
1943.4  8.61947 110.058
1943.5  8.79397 109.841
1943.6  8.954   109.623
1943.7  8.98398 109.406
1943.8  8.99949 109.196
1943.9  8.88449 109.054
1944.0  8.7797  108.92
1944.1  8.7667  108.855
1944.2  8.77331 108.79
1944.3  8.95642 108.724
1944.4  9.11674 108.658
1944.5  9.07425 108.593
1944.6  9.05301 108.528
1944.7  9.22291 108.463
1944.8  9.3722  108.373
1944.9  9.3342  108.06
1945.0  9.28208 107.759
1945.1  9.10308 107.565
1945.2  8.94755 107.412
1945.3  9.00309 107.634
1945.4  9.03468 107.836
1945.5  8.85168 107.852
1945.6  8.64743 107.841
1945.7  8.25217 107.592
1945.8  7.8534  107.272
1945.9  7.4279  106.316
1946.0  7.06843 105.348
1946.1  7.30243 104.275
1946.2  7.54027 103.227
1946.3  7.81293 102.406
1946.4  8.06521 101.58
1946.5  8.13721 100.7
1946.6  8.21561 99.7475
1946.7  8.35153 98.1339
1946.8  8.48551 96.3099
1946.9  8.60051 92.6134
1947.0  8.71356 88.8038
1947.1  8.80906 83.9773
1947.2  8.87204 79.3481
1947.3  8.6424  76.4888
1947.4  8.41558 73.7625
1947.5  8.21157 72.199
1947.6  8.05226 70.6397
1947.7  8.29462 69.1186
1947.8  8.51425 67.6111
1947.9  8.52675 66.2436
1948.0  8.51247 64.9169
1948.1  8.25747 63.9574
1948.2  8.05226 63.0405
1948.3  8.29491 62.5057
1948.4  8.50234 61.9753
1948.5  8.39584 61.4788
1948.6  8.28894 60.9634
1948.7  8.17851 60.2783
1948.8  8.08966 59.5931
1948.9  8.19616 58.9146
1949.0  8.28985 58.2543
1949.1  8.26835 57.7578
1949.2  8.23709 57.268
1949.3  8.11802 56.8377
1949.4  8.00294 56.4141
1949.5  7.92244 56.0456
1949.6  7.82834 55.6983
1949.7  7.61197 55.5419
1949.8  7.43657 55.4197
1949.9  7.63207 55.6062
1950.0  7.79989 55.8119
1950.1  7.71889 56.1904
1950.2  7.64645 56.5729
1950.3  7.65095 56.9916
1950.4  7.63968 57.4229
1950.5  7.48668 57.9709
1950.6  7.3558  58.5298
1950.7  7.42376 59.1874
1950.8  7.49306 59.8463
1950.9  7.57356 60.5088
1951.0  7.64134 61.2047
1951.1  7.59484 62.2002
1951.2  7.53639 63.3093
1951.3  7.37029 65.4421
1951.4  7.22951 67.8876
1951.5  7.31451 73.1671
1951.6  7.40376 78.5485
1951.7  7.53118 84.8456
1951.8  -999.25 90.8985
1951.9  -999.25 94.6785
1952.0  -999.25 98.3172
1952.1  -999.25 100.687
1952.2  -999.25 102.971
1952.3  -999.25 104.494
1952.4  -999.25 105.915
1952.5  -999.25 106.438
1952.6  -999.25 106.912
1952.7  -999.25 106.954
1952.8  -999.25 106.995
1952.9  -999.25 107.033
1953.0  -999.25 107.038
1953.1  -999.25 106.734
1953.2  -999.25 106.428
1953.3  -999.25 106.098
1953.4  9.1823  105.812
1953.5  9.1653  105.915
1953.6  9.14275 105.946
1953.7  9.07029 105.328
1953.8  9.01181 104.676
1953.9  9.07981 103.73
1954.0  9.14015 102.846
1954.1  9.13165 102.514
1954.2  9.10999 102.247
1954.3  8.96991 102.553
1954.4  8.86017 102.879
1954.5  9.02167 103.381
1954.6  9.16275 103.869
1954.7  9.12027 104.241
1954.8  9.10538 104.629
1954.9  9.33888 105.153
1955.0  9.56392 105.685
1955.1  9.71292 106.286
1955.2  9.83935 106.864
1955.3  9.7628  107.229
1955.4  9.68334 107.545
1955.5  9.57684 107.416
1955.6  9.4842  107.284
1955.7  9.51618 107.13
1955.8  9.5418  106.864
1955.9  9.5098  105.582
1956.0  9.44741 104.422
1956.1  9.11191 104.349
1956.2  8.80405 104.305
1956.3  8.74451 104.525
1956.4  8.67613 104.719
1956.5  8.52763 104.686
1956.6  8.41271 104.647
1956.7  8.5996  104.551
1956.8  8.74202 104.489
1956.9  8.48252 104.743
1957.0  8.22732 104.975
1957.1  8.01082 105.019
1957.2  7.8122  105.034
1957.3  7.77417 104.791
1957.4  7.72338 104.579
1957.5  7.55738 104.637
1957.6  7.41991 104.715
1957.7  7.53883 104.969
1957.8  7.6911  105.186
1957.9  8.14161 105.08
1958.0  8.57588 104.946
1958.1  8.86438 104.57
1958.2  9.13421 104.202
1958.3  9.23627 103.902
1958.4  9.34587 103.603
1958.5  9.52437 103.303
1958.6  9.67309 102.997
1958.7  9.55416 102.638
1958.8  9.43724 102.261
1958.9  9.33974 101.726
1959.0  9.26006 101.176
1959.1  9.34056 100.482
1959.2  9.40154 99.7872
1959.3  9.28697 99.0893
1959.4  9.16528 98.3881
1959.5  8.97828 97.6501
1959.6  8.82656 96.8998
1959.7  8.99196 96.0394
1959.8  9.13504 95.16
1959.9  9.07554 94.121
1960.0  9.00713 93.0798
1960.1  8.85863 92.0193
1960.2  8.72585 90.9589
1960.3  8.73436 89.8983
1960.4  8.74455 88.8165
1960.5  8.77005 87.533
1960.6  8.7943  86.2135
1960.7  8.80729 84.5705
1960.8  8.78241 82.9289
1960.9  8.41691 81.3204
1961.0  8.10032 79.7409
1961.1  8.22332 78.4219
1961.2  8.33275 77.1477
1961.3  8.32024 76.2747
1961.4  8.29794 75.3884
1961.5  8.18744 74.3739
1961.6  8.06589 73.3152
1961.7  7.84502 71.8591
1961.8  7.61031 70.4215
1961.9  7.25381 69.1685
1962.0  6.9334  67.896
1962.1  6.9374  66.448
1962.2  6.94185 64.9948
1962.3  6.95036 63.4929
1962.4  6.96736 61.9976
1962.5  7.06086 60.5451
1962.6  7.15691 59.1107
1962.7  7.27583 57.8395
1962.8  7.37023 56.5717
1962.9  7.24273 55.3497
1963.0  7.13736 54.1385
1963.1  7.23086 53.0245
1963.2  7.30394 51.9601
1963.3  7.19338 51.3412
1963.4  7.08679 50.7368
1963.5  7.01479 50.2558
1963.6  6.9555  49.7871
1963.7  7.01047 49.4288
1963.8  7.04894 49.0815
1963.9  6.93844 48.837
1964.0  6.81772 48.6006
1964.1  6.60522 48.4366
1964.2  6.42421 48.3057
1964.3  6.52627 48.4723
1964.4  6.60609 48.6792
1964.5  6.48709 49.2502
1964.6  6.39531 49.8364
1964.7  6.54822 50.5595
1964.8  6.69111 51.3003
1964.9  6.74211 52.1918
1965.0  6.7859  53.0734
1965.1  6.7649  53.8669
1965.2  6.72644 54.6458
1965.3  6.53082 55.2937
1965.4  6.33032 55.9958
1965.5  6.08382 57.1928
1965.6  5.79611 58.3898
1965.7  5.13801 59.5866
1965.8  4.52758 62.2533
1965.9  4.35358 78.1168
1966.0  4.21487 92.8031
1966.1  4.39337 96.9097
1966.2  4.63515 100.79
1966.3  5.44664 102.639
1966.4  6.22917 104.379
1966.5  6.76016 105.161
1966.6  7.27502 105.859
1966.7  7.6448  105.803
1966.8  8.0205  105.72
1966.9  8.445   105.391
1967.0  8.84062 105.042
1967.1  8.97662 104.527
1967.2  9.1028  103.973
1967.3  9.14083 103.077
1967.4  9.14506 102.208
1967.5  8.84606 101.579
1967.6  8.58125 101.025
1967.7  8.62373 101.143
1967.8  8.65089 101.31
1967.9  8.53989 101.914
1968.0  8.46173 102.551
1968.1  8.67873 103.478
1968.2  8.87315 104.387
1968.3  8.86464 105.135
1968.4  8.86126 105.839
1968.5  8.90376 106.164
1968.6  8.94285 106.441
1968.7  8.95135 106.293
1968.8  8.94113 106.102
1968.9  8.76263 105.535
1969.0  8.58243 104.964
1969.1  8.38693 104.36
1969.2  8.17948 103.741
1969.3  7.86429 102.978
1969.4  7.56058 102.131
1969.5  7.35658 100.525
1969.6  7.12827 98.8879
1969.7  6.68155 96.979
1969.8  6.28921 95.0942
1969.9  6.39121 93.4482
1970.0  6.53456 91.9723
1970.1  7.04956 92.0248
1970.2  7.55513 92.2401
1970.3  7.97638 93.9211
1970.4  8.36952 95.6336
1970.5  8.51452 97.6476
1970.6  8.65946 99.6111
1970.7  8.80387 101.12
1970.8  8.92929 102.566
1970.9  8.88229 103.421
1971.0  8.82213 104.237
1971.1  8.64363 104.702
1971.2  8.45828 105.166
1971.3  8.21113 105.621
1971.4  7.96602 106.082
1971.5  7.73652 106.598
1971.6  7.50488 107.082
1971.7  7.25404 107.287
1971.8  6.99181 107.491
1971.9  6.63031 107.695
1972.0  6.27857 107.899
1972.1  6.01457 108.103
1972.2  5.82598 108.307
1972.3  6.31578 108.512
