# Выгружено из ПО "Атлас - Подсчет запасов"
############################################
~VERSION INFORMATION
#MNEM.UNIT                                    DATA : TYPE DESCRIPTION
VERS.                                         1.20 : CWLS LOG ASCII STANDARD_VERSION 1.20
WRAP.                                           NO : One line per depth step
############################################
~WELL INFORMATION
#MNEM.UNIT                                    DATA : TYPE DESCRIPTION
STRT.M                                      1000.0 : Start depth
STOP.M                                      3049.9 : Stop depth
STEP.M                                         0.1 : Step
NULL.                                      -999.25 : Null Value
WELL.                                           16 : 16
X.                                        12554177 : X-coordinate of Well Head
Y.                                         8022673 : Y-coordinate of Well Head
RKB.                                          32.7 : RKB
############################################
~CURVE INFORMATION
#MNEM.UNIT                                    DATA : TYPE DESCRIPTION
DEPT.M                                             : DEPT
ГК.у.е.                                            : 
ПС.мВ                                              : 
############################################
~ASCII
# ...
1268.1  7.26351 66.8132
1268.2  7.32469 66.2363
1268.3  7.1716  65.9797
1268.4  7.03956 65.7423
1268.5  7.09506 65.6753
1268.6  7.15691 65.6751
1268.7  7.27583 66.2758
1268.8  7.37364 67.0661
1268.9  7.28014 69.5541
1269.0  7.1977  72.1096
1269.1  7.2147  75.2721
1269.2  7.23495 78.3051
1269.3  7.28448 80.1757
1269.4  7.33666 81.945
1269.5  7.41316 82.824
1269.6  7.4871  83.7032
1269.7  7.53807 84.5842
1269.8  7.58145 85.4144
1269.9  7.55595 85.7784
1270.0  7.51643 86.0449
1270.1  7.35093 85.4344
1270.2  7.202   84.8289
1270.3  7.202   84.2675
1270.4  7.20751 83.6184
1270.5  7.26251 82.1744
1270.6  7.31415 80.6349
1270.7  7.33564 78.2369
1270.8  7.37157 75.9152
1270.9  7.53707 74.3087
1271.0  7.70678 72.828
1271.1  7.91428 72.478
1271.2  8.11161 72.2244
1271.3  8.21767 72.8383
1271.4  8.30068 73.6771
1271.5  8.17768 76.5452
1271.6  8.08991 79.4639
1271.7  8.31877 82.8388
1271.8  8.52205 86.1478
1271.9  8.49255 88.8223
1272.0  8.45499 91.4762
1272.1  8.34499 93.9446
1272.2  8.26506 96.3845
1272.3  8.45568 98.5699
1272.4  8.60748 100.71
1272.5  8.41248 102.47
1272.6  8.2425  103.71
1272.7  8.29747 100.272
1272.8  8.33894 96.9283
1272.9  8.25844 94.4743
1273.0  8.17539 92.0595
1273.1  8.06939 89.997
1273.2  7.98546 87.9485
1273.3  8.10003 86.0239
1273.4  8.21021 84.2187
1273.5  8.28221 83.4667
1273.6  8.3538  82.8495
1273.7  8.42176 83.4442
1273.8  8.50888 83.9577
1273.9  8.76738 83.7352
1274.0  8.99364 83.4314
1274.1  8.93014 82.3969
1274.2  8.84118 81.4734
1274.3  8.52299 81.5474
1274.4  8.22343 81.694
1274.5  8.08793 82.493
1274.6  7.96345 83.1873
1274.7  7.93796 82.9404
1274.8  7.93157 82.629
1274.9  8.09707 81.7405
1275.0  8.25151 80.8671
1275.1  8.30651 80.1286
1275.2  8.35515 79.3802
1275.3  8.34664 78.5427
1275.4  8.31137 77.7349
1275.5  8.03537 77.1844
1275.6  7.79596 76.6305
1275.7  7.8854  76.0458
1275.8  7.96895 75.4439
1275.9  7.99845 74.6934
1276.0  8.02755 73.9609
1276.1  8.05305 73.3909
1276.2  8.0709  72.815
1276.3  8.01987 72.1851
1276.4  7.94426 71.5317
1276.5  7.64726 70.6602
1276.6  7.37154 69.7646
1276.7  7.2871  68.6518
1276.8  7.21435 67.5011
1276.9  7.24785 66.0236
1277.0  7.28481 64.5392
1277.1  7.35281 62.9927
1277.2  7.39659 61.5098
1277.3  7.22248 60.5977
1277.4  7.07366 59.7464
1277.5  7.15016 59.4304
1277.6  7.23046 59.1343
1277.7  7.34489 59.0179
1277.8  7.45481 58.9372
1277.9  7.52281 59.1787
1278.0  7.56703 59.4237
1278.1  7.39753 59.7007
1278.2  7.2492  59.9477
1278.3  7.29123 59.9241
1278.4  7.3269  59.9019
1278.5  7.3059  59.8914
1278.6  7.30356 59.9149
1278.7  7.46896 60.2432
1278.8  7.61715 60.5421
1278.9  7.60865 60.5731
1279.0  7.61457 60.5637
1279.1  7.75007 60.1907
1279.2  7.8648  59.8291
1279.3  7.79275 59.5705
1279.4  7.70803 59.3305
1279.5  7.50853 59.256
1279.6  7.34386 59.204
1279.7  7.49227 59.3539
1279.8  7.63661 59.5054
1279.9  7.74261 59.6689
1280.0  7.81212 59.8241
1280.1  7.55362 59.9051
1280.2  7.3227  59.9783
1280.3  7.33971 59.9813
1280.4  7.36902 59.9631
1280.5  7.50902 59.7546
1280.6  7.6422  59.5467
1280.7  7.71416 59.3438
1280.8  7.77349 59.1751
1280.9  7.71849 59.3161
1281.0  7.67195 59.4836
1281.1  7.70145 59.8891
1281.2  7.72205 60.2831
1281.3  7.66251 60.5743
1281.4  7.62046 60.8206
1281.5  7.73496 60.6671
1281.6  7.82399 60.5071
1281.7  7.68408 60.2882
1281.8  7.5576  60.0993
1281.9  7.5536  60.1818
1282.0  7.56061 60.2665
1282.1  7.66661 60.3715
1282.2  7.75224 60.4472
1282.3  7.65468 60.2591
1282.4  7.57716 60.0733
1282.5  7.67866 59.9063
1282.6  7.77045 59.7795
1282.7  7.77495 60.0138
1282.8  7.76203 60.2508
1282.9  7.59253 60.5088
1283.0  7.45272 60.7726
1283.1  7.57972 61.0886
1283.2  7.70591 61.4283
1283.3  7.82498 61.9811
1283.4  7.9286  62.57
1283.5  7.8946  63.489
1283.6  7.87971 64.4433
1283.7  8.03661 65.715
1283.8  8.18987 66.9915
1283.9  8.30836 68.295
1284.0  8.40734 69.594
1284.1  8.33084 70.8525
1284.2  8.27391 72.0846
1284.3  8.39298 73.0807
1284.4  8.50125 74.0469
1284.5  8.51375 74.7554
1284.6  8.53396 75.4145
1284.7  8.6234  75.6294
1284.8  8.69123 75.7477
1284.9  8.56374 74.9952
1285.0  8.43583 74.1062
1285.1  8.30433 71.9907
1285.2  8.16098 69.8297
1285.3  7.91083 67.2566
1285.4  7.65882 64.8092
1285.5  7.38732 63.4632
1285.6  7.1413  62.2117
1285.7  7.12431 61.8089
1285.8  7.12132 61.4221
1285.9  7.24432 61.1836
1286.0  7.34779 60.952
1286.1  7.27579 60.782
1286.2  7.2186  60.6363
1286.3  7.29465 60.7088
1286.4  7.35789 60.7615
1286.5  7.30689 60.637
1286.6  7.24704 60.5446
1286.7  7.10763 60.7399
1286.8  6.97644 60.9525
1286.9  6.92094 61.317
1287.0  6.85698 61.7137
1287.1  6.71698 62.3997
1287.2  6.57699 63.1392
1287.3  6.43691 64.3615
1287.4  6.28892 65.6071
1287.5  6.06842 67.0761
1287.6  5.86195 68.5433
1287.7  5.78149 69.995
1287.8  5.69754 71.3763
1287.9  5.58304 72.1088
1288.0  5.46728 72.7514
1288.1  5.34028 72.5854
1288.2  5.2285  72.3579
1288.3  5.25352 71.5775
1288.4  5.276   70.79
1288.5  5.276   69.9315
1288.6  5.2739  69.1077
1288.7  5.25291 68.595
1288.8  5.23826 68.0705
1288.9  5.28076 67.4465
1289.0  5.32666 66.8212
1289.1  5.40316 66.1837
1289.2  5.4775  65.5737
1289.3  5.53254 65.2105
1289.4  5.61849 64.8289
1289.5  5.98299 64.2789
1289.6  6.34792 63.7295
1289.7  6.7167  63.1848
1289.8  7.08004 62.673
1289.9  7.39004 62.4635
1290.0  7.70549 62.2527
1290.1  8.06999 62.0302
1290.2  8.39885 61.7909
1290.3  8.40736 61.3996
1290.4  8.43117 61.0265
1290.5  8.59267 60.812
1290.6  8.75281 60.6317
1290.7  8.90072 60.7586
1290.8  9.05398 60.9027
1290.9  9.25347 61.1997
1291.0  9.39946 61.5004
1291.1  9.06446 61.8339
1291.2  8.74179 62.1729
1291.3  8.52966 62.5622
1291.4  8.35217 62.9605
1291.5  8.48367 63.445
1291.6  8.59179 63.9331
1291.7  8.48986 64.4538
1291.8  8.39289 64.9646
1291.9  8.34189 65.3801
1292.0  8.30621 65.7927
1292.1  8.40821 66.1792
1292.2  8.49195 66.5603
1292.3  8.4114  66.8935
1292.4  8.32243 67.2042
1292.5  8.15693 67.3162
1292.6  8.0135  67.4153
1292.7  8.06847 67.3983
1292.8  8.10228 67.3691
1292.9  7.94528 67.2301
1293.0  7.82397 67.0911
1293.1  8.02347 66.9521
1293.2  8.19409 66.8131
1293.3  8.10504 66.6746
1293.4  8.03731 66.5557
1293.5  8.16031 66.6127
1293.6  8.2693  66.647
1293.7  8.25231 66.4771
1293.8  8.25017 66.3389
1293.9  8.38167 66.4874
1294.0  8.49534 66.6421
1294.1  8.44884 66.8526
1294.2  8.40785 67.0294
1294.3  8.41636 66.9033
1294.4  8.41209 66.7819
1294.5  8.29309 66.7009
1294.6  8.17414 66.618
1294.7  8.05571 66.5181
1294.8  7.94219 66.3871
1294.9  7.87419 65.9781
1295.0  7.82446 65.574
1295.1  7.93896 65.214
1295.2  8.02924 64.8646
1295.3  7.90166 64.611
1295.4  7.79341 64.3431
1295.5  7.85741 63.9446
1295.6  7.90649 63.5354
1295.7  7.82155 63.0297
1295.8  7.7416  62.5352
1295.9  7.7076  62.1472
1296.0  7.69783 61.7725
1296.1  7.90583 61.518
1296.2  8.08535 61.2606
1296.3  8.0088  60.977
1296.4  7.95532 60.6897
1296.5  8.10832 60.3672
1296.6  8.22559 60.0829
1296.7  8.02171 60.1419
1296.8  7.83675 60.2278
1296.9  7.82425 60.5553
1297.0  7.82997 60.9039
1297.1  7.99947 61.4424
1297.2  8.1554  62.0546
1297.3  8.18942 63.3309
1297.4  8.24423 64.6047
1297.5  8.48623 65.8702
1297.6  8.7095  67.0657
1297.7  8.76447 67.6318
1297.8  8.79828 68.1962
1297.9  8.64128 68.7372
1298.0  8.51782 69.2871
1298.1  8.69582 69.9176
1298.2  8.86365 70.5502
1298.3  8.9402  71.2026
1298.4  9.01961 71.8273
1298.5  9.12561 72.2098
1298.6  9.2282  72.5826
1298.7  9.30016 72.8684
1298.8  9.3646  73.1735
1298.9  9.3606  73.6475
1299.0  9.34213 74.0641
1299.1  9.19363 73.9651
1299.2  9.0617  73.8369
1299.3  9.07871 73.4456
1299.4  9.09866 73.0647
1299.5  9.14516 72.7717
1299.6  9.17044 72.4773
1299.7  9.00504 72.1705
1299.8  8.84669 71.858
1299.9  8.75369 71.498
1300.0  8.65553 71.14
1300.1  8.51103 70.8
1300.2  8.36659 70.4434
1300.3  8.2225  69.9376
1300.4  8.09045 69.4247
1300.5  8.06495 68.8427
1300.6  8.02674 68.2687
1300.7  7.87433 67.766
1300.8  7.73995 67.2798
1300.9  7.76945 66.9483
1301.0  7.82103 66.6138
1301.1  8.07103 66.2523
1301.2  8.28539 65.8771
1301.3  8.17933 65.3783
1301.4  8.09591 64.8983
1301.5  8.21491 64.5813
1301.6  8.32965 64.2711
