# Выгружено из ПО "Атлас - Подсчет запасов"
############################################
~VERSION INFORMATION
#MNEM.UNIT                                    DATA : TYPE DESCRIPTION
VERS.                                         1.20 : CWLS LOG ASCII STANDARD_VERSION 1.20
WRAP.                                           NO : One line per depth step
############################################
~WELL INFORMATION
#MNEM.UNIT                                    DATA : TYPE DESCRIPTION
STRT.M                                      1000.0 : Start depth
STOP.M                                      3049.9 : Stop depth
STEP.M                                         0.1 : Step
NULL.                                      -999.25 : Null Value
WELL.                                           16 : 16
X.                                        12554177 : X-coordinate of Well Head
Y.                                         8022673 : Y-coordinate of Well Head
RKB.                                          32.7 : RKB
############################################
~CURVE INFORMATION
#MNEM.UNIT                                    DATA : TYPE DESCRIPTION
DEPT.M                                             : DEPT
ГК.у.е.                                            : 
ПС.мВ                                              : 
############################################
~ASCII
# ...
2743.7  7.81908 79.505
2743.8  7.99799 81.5585
2743.9  8.36704 90.6814
2744.0  8.73785 99.1873
2744.1  9.11631 101.94
2744.2  9.47002 104.493
2744.3  9.61019 105.311
2744.4  9.74175 106.028
2744.5  9.79925 105.859
2744.6  9.84059 105.752
2744.7  9.73671 106.197
2744.8  9.63534 106.617
2744.9  9.55893 106.806
2745.0  9.46322 106.938
2745.1  9.19539 106.56
2745.2  8.94564 106.129
2745.3  8.85202 105.219
2745.4  8.77225 104.336
2745.5  8.81475 103.669
2745.6  8.86061 103.069
2745.7  8.93652 103.079
2745.8  9.02542 103.108
2745.9  9.22918 103.302
2746.0  9.41215 103.467
2746.1  9.40364 103.36
2746.2  9.38028 103.227
2746.3  9.22309 102.865
2746.4  9.03995 102.442
2746.5  8.61945 101.465
2746.6  8.25972 100.511
2746.7  8.44649 99.7591
2746.8  8.6133  99.0957
2746.9  8.59632 99.2425
2747.0  8.55757 99.3204
2747.1  8.32329 98.7742
2747.2  8.09558 98.2081
2747.3  7.92137 97.4492
2747.4  7.74545 96.5114
2747.5  7.54995 93.9454
2747.6  7.35573 91.0794
2747.7  7.17345 85.5272
2747.8  7.00049 80.2092
2747.9  6.91559 77.129
2748.0  6.86283 74.3247
2748.1  7.10112 74.0714
2748.2  7.33327 74.0323
2748.3  7.516   75.9151
2748.4  7.71355 77.8588
2748.5  8.04905 80.3968
2748.6  8.37057 82.9647
2748.7  8.56583 85.7947
2748.8  8.73094 88.5875
2748.9  8.62057 90.9766
2749.0  8.52656 93.2742
2749.1  8.58212 94.6959
2749.2  8.64321 96.0094
2749.3  8.75535 96.3834
2749.4  8.84625 96.6823
2749.5  8.74875 96.3148
2749.6  8.63852 95.8666
2749.7  8.4143  94.695
2749.8  8.18607 93.4792
2749.9  7.92738 91.8951
2750.0  7.71908 90.2906
2750.1  7.96989 88.537
2750.2  8.21367 86.7684
2750.3  8.4004  84.8225
2750.4  8.607   83.1809
2750.5  8.997   84.2299
2750.6  9.37944 85.2737
2750.7  9.69305 86.268
2750.8  9.96834 87.446
2750.9  9.89193 90.2496
2751.0  9.80222 93.0152
2751.1  9.59447 95.3776
2751.2  9.38292 97.5985
2751.3  9.13211 98.6037
2751.4  8.88495 99.5047
2751.5  8.66445 99.4917
2751.6  8.44562 99.4429
2751.7  8.24237 99.0723
2751.8  8.05685 98.644
2751.9  8.03537 97.7061
2752.0  8.0122  96.7324
2752.1  7.97415 95.4569
2752.2  7.95952 94.0907
2752.3  8.15476 91.878
2752.4  8.30585 89.5274
2752.5  8.06435 85.8814
2752.6  7.81301 82.148
2752.7  7.47392 77.6396
2752.8  7.16164 73.1883
2752.9  7.09822 69.361
2753.0  7.05797 65.7398
2753.1  7.22768 64.0577
2753.2  7.38891 62.5539
2753.3  7.47802 62.6124
2753.4  7.5491  62.8535
2753.5  7.4601  64.7385
2753.6  7.39997 66.7932
2753.7  7.59923 70.3669
2753.8  7.81339 73.9479
2753.9  8.15647 77.5086
2754.0  8.5051  81.0017
2754.1  8.89607 83.8092
2754.2  9.27969 86.5942
2754.3  9.60659 89.2459
2754.4  9.85925 91.8326
2754.5  9.45175 93.8992
2754.6  9.09011 95.8778
2754.7  9.14104 97.0629
2754.8  9.21378 98.1453
2754.9  9.48096 98.2782
2755.0  9.71094 98.3967
2755.1  9.6003  98.3837
2755.2  9.47932 98.275
2755.3  9.26256 97.3048
2755.4  9.0434  96.1461
2755.5  8.7974  93.2671
2755.6  8.5382  90.3275
2755.7  8.16117 86.8513
2755.8  7.79512 83.4221
2755.9  7.53693 80.5007
2756.0  7.31166 77.5618
2756.1  7.38825 74.5296
2756.2  7.46035 71.9248
2756.3  7.4939  73.0927
2756.4  7.54565 74.3074
2756.5  7.76215 75.9708
2756.6  7.96721 77.6782
2756.7  8.06909 79.7746
2756.8  8.17031 81.8648
2756.9  8.2632  83.8484
2757.0  8.35341 85.7522
2757.1  8.41749 86.8941
2757.2  8.47415 87.7423
2757.3  8.46564 85.9757
2757.4  8.455   84.5089
2757.5  8.425   85.6984
2757.6  8.38018 86.8773
2757.7  8.2024  87.9575
2757.8  8.01692 88.9717
2757.9  7.76673 89.3677
2758.0  7.52063 89.7556
2758.1  7.31688 90.0615
2758.2  7.12299 90.3666
2758.3  7.01285 90.6725
2758.4  6.9017  90.9385
2758.5  6.7787  90.854
2758.6  6.6718  90.7536
2758.7  6.70976 90.5099
2758.8  6.75251 90.2415
2758.9  6.83741 89.7576
2759.0  6.93437 89.2673
2759.1  7.13812 88.7301
2759.2  7.32395 88.233
2759.3  7.35349 88.0834
2759.4  7.39655 87.9626
2759.5  7.56205 88.0992
2759.6  7.73523 88.3164
2759.7  7.97693 89.2577
2759.8  8.22599 90.2303
2759.9  8.53511 91.4603
2760.0  8.83182 92.6689
2760.1  9.01004 93.6576
2760.2  9.1713  94.5696
2760.3  9.18432 94.8159
2760.4  9.1943  95.057
2760.5  9.1773  95.2564
2760.6  9.14157 95.3709
2760.7  8.93782 94.7217
2760.8  8.75275 94.0716
2760.9  8.74026 93.4289
2761.0  8.71754 92.7237
2761.1  8.6029  91.4712
2761.2  8.48643 90.2617
2761.3  8.35077 89.4087
2761.4  8.2311  88.6257
2761.5  8.2521  88.4532
2761.6  8.25188 88.2967
2761.7  8.06111 88.2837
2761.8  7.86652 88.1272
2761.9  7.6423  86.683
2762.0  7.42468 85.1877
2762.1  7.27149 83.2649
2762.2  7.12043 81.3613
2762.3  6.98477 79.5841
2762.4  6.8706  77.8905
2762.5  6.9466  76.906
2762.6  7.03497 76.0018
2762.7  7.23423 75.82
2762.8  7.42251 75.7513
2762.9  7.50741 76.7021
2763.0  7.57509 77.6804
2763.1  7.48598 78.8844
2763.2  7.403   80.09
2763.3  7.37296 81.3395
2763.4  7.34985 82.5695
2763.5  7.38835 83.6545
2763.6  7.4264  84.6896
2763.7  7.46036 85.2739
2763.8  7.51223 85.8306
2763.9  7.72397 86.1257
2764.0  7.90479 86.3907
2764.1  7.80266 86.3777
2764.2  7.74709 86.3806
2764.3  8.10803 86.5268
2764.4  8.42435 86.6886
2764.5  8.34785 86.9946
2764.6  8.29983 87.3005
2764.7  8.50757 87.6046
2764.8  8.6929  87.9148
2764.9  8.67192 88.2719
2765.0  8.653   88.5875
2765.1  8.653   88.523
2765.2  8.6496  88.2834
2765.3  8.61555 86.4677
2765.4  8.56675 84.5907
2765.5  8.38425 82.1177
2765.6  8.20133 79.66
2765.7  8.01505 77.3453
2765.8  7.85126 75.0963
2765.9  7.8937  73.4927
2766.0  7.95022 71.9708
2766.1  8.13244 71.2189
2766.2  8.2973  70.5524
2766.3  8.31032 70.636
2766.4  8.33725 70.7655
2766.5  8.48975 71.3105
2766.6  8.64232 72.1852
2766.7  8.79513 76.0175
2766.8  8.90752 79.7249
2766.9  8.65333 82.2173
2767.0  8.3866  84.5733
2767.1  8.01265 85.6466
2767.2  7.6766  86.3149
2767.3  7.67259 83.3638
2767.4  7.68635 80.4319
2767.5  7.85985 77.6014
2767.6  8.02917 74.8474
2767.7  8.16051 72.7864
2767.8  8.27094 70.9976
2767.9  8.19054 71.7017
2768.0  8.13417 72.461
2768.1  8.29587 73.7005
2768.2  8.41252 74.9487
2768.3  8.12767 76.3053
2768.4  7.84275 77.5701
2768.5  7.55025 78.0411
2768.6  7.26788 78.5169
2768.7  7.07711 79.0342
2768.8  6.91947 79.6206
2768.9  7.06379 80.8136
2769.0  7.21097 82.0794
2769.1  7.38068 83.9732
2769.2  7.5309  85.9125
2769.3  7.50987 88.3074
2769.4  7.50245 90.675
2769.5  7.61695 92.855
2769.6  7.73146 94.9673
2769.7  7.84582 96.4665
2769.8  7.96342 97.8968
2769.9  8.10724 98.6728
2770.0  8.24591 99.4416
2770.1  8.33502 100.128
2770.2  8.43072 100.8
2770.3  8.58791 101.363
2770.4  8.75445 101.895
2770.5  9.00895 102.165
2770.6  9.25667 102.439
2770.7  9.44295 102.743
2770.8  9.62036 103.025
2770.9  9.71375 103.091
2771.0  9.79289 103.166
2771.1  9.74183 103.312
2771.2  9.6922  103.459
2771.3  9.65415 103.605
2771.4  9.6344  103.751
2771.5  9.7784  103.897
2771.6  9.91606 104.048
2771.7  9.99646 104.242
2771.8  10.0558 104.441
2771.9  9.92449 104.682
2772.0  9.82342 104.923
2772.1  9.99763 105.166
2772.2  10.1433 105.376
2772.3  10.0362 105.31
2772.4  9.9209  105.244
2772.5  9.7299  105.178
2772.6  9.54478 105.111
2772.7  9.41294 105.045
2772.8  9.29445 105.008
2772.9  9.29895 105.226
2773.0  9.29064 105.445
2773.1  9.16698 105.664
2773.2  9.04624 105.882
2773.3  8.94862 106.101
2773.4  8.8971  106.319
2773.5  9.2581  106.537
2773.6  9.61364 106.756
2773.7  9.91926 106.975
2773.8  10.2222 107.169
2773.9  10.4939 107.145
2774.0  10.7245 107.095
2774.1  10.5799 106.826
2774.2  10.4266 106.558
2774.3  10.1928 106.29
2774.4  9.99955 106.033
2774.5  10.165  105.86
2774.6  10.3361 105.704
2774.7  10.5569 105.691
2774.8  10.7696 105.708
2774.9  10.9049 105.988
2775.0  11.0087 106.269
2775.1  10.826  106.55
2775.2  10.6671 106.831
2775.3  10.7182 107.112
2775.4  10.7691 107.392
2775.5  10.8201 107.673
2775.6  10.8707 107.954
2775.7  10.9176 108.235
2775.8  10.9489 108.516
2775.9  10.8386 108.797
2776.0  10.7501 109.063
2776.1  10.8607 109.198
2776.2  10.9502 109.293
2776.3  10.8521 109.041
2776.4  10.7602 108.79
2776.5  10.7222 108.537
2776.6  10.6893 108.285
2776.7  10.7017 108.033
2776.8  10.719  107.781
2776.9  10.7784 107.529
2777.0  10.8409 107.273
2777.1  10.93   106.98
