# Выгружено из ПО "Атлас - Подсчет запасов"
############################################
~VERSION INFORMATION
#MNEM.UNIT                                    DATA : TYPE DESCRIPTION
VERS.                                         1.20 : CWLS LOG ASCII STANDARD_VERSION 1.20
WRAP.                                           NO : One line per depth step
############################################
~WELL INFORMATION
#MNEM.UNIT                                    DATA : TYPE DESCRIPTION
STRT.M                                      1000.0 : Start depth
STOP.M                                      3049.9 : Stop depth
STEP.M                                         0.1 : Step
NULL.                                      -999.25 : Null Value
WELL.                                           16 : 16
X.                                        12554177 : X-coordinate of Well Head
Y.                                         8022673 : Y-coordinate of Well Head
RKB.                                          32.7 : RKB
############################################
~CURVE INFORMATION
#MNEM.UNIT                                    DATA : TYPE DESCRIPTION
DEPT.M                                             : DEPT
ГК.у.е.                                            : 
ПС.мВ                                              : 
############################################
~ASCII
# ...
2207.4  6.79785 48.8038
2207.5  6.80635 48.9623
2207.6  6.80889 49.1317
2207.7  6.75796 49.3984
2207.8  6.72261 49.6961
2207.9  6.82848 50.2654
2208.0  6.91509 50.8319
2208.1  6.82598 51.3605
2208.2  6.7494  51.8494
2208.3  6.78345 51.993
2208.4  6.8072  52.0962
2208.5  6.7392  51.8382
2208.6  6.6784  51.568
2208.7  6.6824  51.189
2208.8  6.69241 50.8192
2208.9  6.75633 50.5421
2209.0  6.82121 50.2629
2209.1  6.8933  49.9721
2209.2  6.94143 49.6913
2209.3  6.77573 49.494
2209.4  6.61255 49.317
2209.5  6.46805 49.317
2209.6  6.34566 49.3346
2209.7  6.42207 49.5104
2209.8  6.48589 49.6991
2209.9  6.43496 49.9998
2210.0  6.39451 50.2837
2210.1  6.44957 50.4109
2210.2  6.5003  50.5123
2210.3  6.51332 50.3851
2210.4  6.525   50.2879
2210.5  6.525   50.4569
2210.6  6.50458 50.6344
2210.7  6.30082 50.8881
2210.8  6.14548 51.1064
2210.9  6.42964 51.0005
2211.0  6.686   50.8976
2211.1  6.686   50.8235
2211.2  6.71108 50.7984
2211.3  6.96189 51.2119
2211.4  7.19295 51.6423
2211.5  7.25245 52.2359
2211.6  7.31877 52.8167
2211.7  7.44611 53.2821
2211.8  7.57887 53.7635
2211.9  7.75715 54.3773
2212.0  7.90739 55.0169
2212.1  7.80126 55.876
2212.2  7.68768 56.7824
2212.3  7.50445 58.1366
2212.4  7.3328  59.5088
2212.5  7.2608  61.0763
2212.6  7.17132 62.674
2212.7  6.92512 64.5397
2212.8  6.67877 66.5681
2212.9  6.43707 70.0104
2213.0  6.23302 73.7108
2213.1  6.37319 79.6591
2213.2  6.47432 85.521
2213.3  6.22752 90.7514
2213.4  6.01535 95.7426
2213.5  6.10885 98.7086
2213.6  6.18664 101.544
2213.7  6.12322 103.201
2213.8  6.05068 104.772
2213.9  5.89787 105.527
2214.0  5.79019 106.278
2214.1  6.09205 106.963
2214.2  6.42778 107.561
2214.3  7.07557 107.379
2214.4  7.76095 107.198
2214.5  8.80045 107.016
2214.6  9.71688 106.834
2214.7  9.52611 106.653
2214.8  9.36206 106.492
2214.9  9.44246 106.52
2215.0  9.49417 106.569
2215.1  9.28592 106.808
2215.2  9.11262 107.046
2215.3  9.24878 107.285
2215.4  9.3846  107.523
2215.5  9.5206  107.761
2215.6  9.62298 107.988
2215.7  9.42322 108.107
2215.8  9.25111 108.214
2215.9  9.33201 108.214
2216.0  9.39008 108.214
2216.1  9.2409  108.214
2216.2  9.09514 108.191
2216.3  8.97649 107.964
2216.4  8.8959  107.737
2216.5  9.1549  107.51
2216.6  9.40287 107.282
2216.7  9.55119 107.056
2216.8  9.65692 106.868
2216.9  9.37676 107.043
2217.0  9.13251 107.258
2217.1  9.21761 107.833
2217.2  9.2906  108.39
2217.3  9.25655 108.799
2217.4  9.21625 109.182
2217.5  9.11875 109.329
2217.6  9.01528 109.476
2217.7  8.85847 109.622
2217.8  8.72846 109.717
2217.9  8.84282 109.346
2218.0  8.98044 108.986
2218.1  9.32486 108.732
2218.2  9.65062 108.507
2218.3  9.81682 108.533
2218.4  9.9702  108.589
2218.5  10.0122 108.906
2218.6  10.0436 109.209
2218.7  9.98022 109.384
2218.8  9.91364 109.518
2218.9  9.82025 109.273
2219.0  9.73515 109.003
2219.1  9.72664 108.498
2219.2  9.70158 108.005
2219.3  9.52737 107.596
2219.4  9.35995 107.217
2219.5  9.24945 107.099
2219.6  9.18489 107.016
2219.7  9.53297 107.241
2219.8  9.84825 107.47
2219.9  9.86074 107.721
2220.0  9.86264 107.96
2220.1  9.76902 108.075
2220.2  9.65992 108.188
2220.3  9.40911 108.285
2220.4  9.19505 108.357
2220.5  9.30555 108.2
2220.6  9.38287 107.95
2220.7  9.16214 106.866
2220.8  8.95023 105.681
2220.9  8.82289 103.618
2221.0  8.71866 101.642
2221.1  8.82529 100.499
2221.2  8.93031 99.4373
2221.3  9.02343 99.0704
2221.4  9.08705 98.7551
2221.5  8.88755 98.8956
2221.6  8.69824 99.0295
2221.7  8.60086 99.1044
2221.8  8.53468 99.2528
2221.9  8.75091 100.059
2222.0  8.95746 100.971
2222.1  9.0721  102.819
2222.2  9.15758 104.58
2222.3  8.98337 105.601
2222.4  8.8304  106.717
2222.5  8.8644  108.716
2222.6  8.91457 110.633
2222.7  9.10984 111.816
2222.8  9.30512 112.904
2222.9  9.49589 113.128
2223.0  9.6642  113.296
2223.1  9.62615 112.951
2223.2  9.58729 112.562
2223.3  9.54024 111.767
2223.4  9.49545 110.987
2223.5  9.46995 110.314
2223.6  9.46192 109.669
2223.7  9.61074 109.281
2223.8  9.72853 108.918
2223.9  9.56423 108.791
2224.0  9.42151 108.63
2224.1  9.47657 108.169
2224.2  9.51118 107.688
2224.3  9.363   107.01
2224.4  9.2202  106.351
2224.5  9.1222  105.839
2224.6  9.01448 105.361
2224.7  8.81971 105.189
2224.8  8.65036 105.042
2224.9  8.71378 105.118
2225.0  8.78331 105.176
2225.1  8.90647 105.07
2225.2  9.01109 104.937
2225.3  8.95202 104.554
2225.4  8.91045 104.173
2225.5  9.02495 103.79
2225.6  9.12079 103.076
2225.7  9.04888 99.3817
2225.8  8.9861  95.2884
2225.9  9.00708 87.7012
2226.0  9.0239  80.5294
2226.1  9.00287 77.2629
2226.2  8.984   74.121
2226.3  8.984   72.0215
2226.4  8.9759  70.0117
2226.5  8.8949  68.7581
2226.6  8.80463 67.5592
2226.7  8.63134 66.8525
2226.8  8.43886 66.2029
2226.9  8.0783  66.082
2227.0  7.71906 65.9911
2227.1  7.37964 66.1718
2227.2  7.08391 66.3552
2227.3  7.17302 66.5675
2227.4  7.2657  66.7793
2227.5  7.3927  66.9918
2227.6  7.51466 67.5284
2227.7  7.59107 70.9737
2227.8  7.65404 74.4744
2227.9  7.59462 78.3886
2228.0  7.53084 82.367
2228.1  7.42921 86.8375
2228.2  7.35202 91.3506
2228.3  7.49219 96.3567
2228.4  7.6396  101.157
2228.5  7.8556  104.224
2228.6  8.06231 107.208
2228.7  8.18516 109.438
2228.8  8.31512 111.493
2228.9  8.50589 111.916
2229.0  8.67289 112.275
2229.1  8.62183 112.034
2229.2  8.58366 111.793
2229.3  8.66025 111.552
2229.4  8.7095  111.311
2229.5  8.5145  111.069
2229.6  8.31267 110.828
2229.7  8.04999 110.587
2229.8  7.78457 110.346
2229.9  7.50091 110.105
2230.0  7.17622 109.864
2230.1  6.48838 109.622
2230.2  5.90329 109.417
2230.3  6.22618 109.534
2230.4  6.5538  109.662
2230.5  6.9318  109.878
2230.6  7.32306 110.067
2230.7  7.83244 110.022
2230.8  8.3358  109.976
2230.9  8.77277 109.931
2231.0  9.18017 109.885
2231.1  9.31183 109.84
2231.2  9.44577 109.893
2231.3  9.60346 110.818
2231.4  9.7471  111.661
2231.5  9.7681  111.797
2231.6  9.77639 111.901
2231.7  9.67052 111.734
2231.8  9.58011 111.573
2231.9  9.63104 111.464
2232.0  9.68806 111.4
2232.1  9.7987  111.744
2232.2  9.8967  112.092
2232.3  9.88368 112.487
2232.4  9.86775 112.864
2232.5  9.82525 113.09
2232.6  9.79846 113.257
2232.7  9.91282 112.887
2232.8  9.99477 112.492
2232.9  9.78303 111.884
2233.0  9.59455 111.33
2233.1  9.62008 111.277
2233.2  9.6451  111.224
2233.3  9.66613 111.171
2233.4  9.6608  111.141
2233.5  9.4188  111.318
2233.6  9.20991 111.457
2233.7  9.2988  111.258
2233.8  9.37605 111.063
2233.9  9.34658 110.91
2234.0  9.34979 110.761
2234.1  9.64765 110.642
2234.2  9.90604 110.501
2234.3  9.81643 110.151
2234.4  9.72625 109.853
2234.5  9.62875 110.014
2234.6  9.54566 110.193
2234.7  9.5921  110.536
2234.8  9.60592 110.84
2234.9  9.32576 110.794
2235.0  9.09217 110.756
2235.1  9.28391 110.792
2235.2  9.44323 110.852
2235.3  9.31558 111.127
2235.4  9.19885 111.345
2235.5  9.17735 111.047
2235.6  9.16055 110.695
2235.7  9.18602 109.87
2235.8  9.18647 109.022
2235.9  8.96175 107.994
2236.0  8.74924 106.974
2236.1  8.65162 106.052
2236.2  8.5206  105.161
2236.3  8.08657 104.518
2236.4  7.64135 103.804
2236.5  7.08485 102.435
2236.6  6.51682 100.96
2236.7  5.84664 98.5482
2236.8  5.18033 96.1847
2236.9  4.56508 94.316
2237.0  3.97641 92.5728
2237.1  3.6405  92.0011
2237.2  3.4177  91.5498
2237.3  4.20466 92.1681
2237.4  4.9641  92.8754
2237.5  5.4951  94.3994
2237.6  6.02867 95.9009
2237.7  6.58399 97.1963
2237.8  7.13351 98.4102
2237.9  7.61742 98.8612
2238.0  8.0978  99.4883
2238.1  8.53584 101.691
2238.2  8.94642 103.436
2238.3  9.12063 101.113
2238.4  9.2719  98.7968
2238.5  9.2209  96.4748
2238.6  9.18907 94.1528
2238.7  9.3294  91.8361
2238.8  9.38581 89.5138
2238.9  8.68567 87.1971
2239.0  7.99488 85.1815
2239.1  7.40366 85.9264
2239.2  6.84877 87.5975
2239.3  6.60647 97.6222
2239.4  6.40005 106.652
2239.5  6.51055 106.97
2239.6  6.63208 107.296
2239.7  6.85231 107.692
2239.8  7.09355 108.098
2239.9  7.51803 108.574
2240.0  7.92142 109.051
2240.1  8.12567 109.528
2240.2  8.28177 110.004
2240.3  8.00943 110.481
2240.4  7.79005 110.933
2240.5  8.04055 111.171
2240.6  8.31366 111.386
2240.7  8.78908 111.386
2240.8  9.22736 111.31
