# Выгружено из ПО "Атлас - Подсчет запасов"
############################################
~VERSION INFORMATION
#MNEM.UNIT                                    DATA : TYPE DESCRIPTION
VERS.                                         1.20 : CWLS LOG ASCII STANDARD_VERSION 1.20
WRAP.                                           NO : One line per depth step
############################################
~WELL INFORMATION
#MNEM.UNIT                                    DATA : TYPE DESCRIPTION
STRT.M                                      1050.0 : Start depth
STOP.M                                      3143.9 : Stop depth
STEP.M                                         0.1 : Step
NULL.                                      -999.25 : Null Value
WELL.                                           17 : 17
X.                                        12549147 : X-coordinate of Well Head
Y.                                         8019171 : Y-coordinate of Well Head
RKB.                                            33 : RKB
############################################
~CURVE INFORMATION
#MNEM.UNIT                                    DATA : TYPE DESCRIPTION
DEPT.M                                             : DEPT
ГК.у.е.                                            : 
ПС.мВ                                              : 
############################################
~ASCII
# ...
2424.6  5.72445 14.9961
2424.7  5.69898 14.4283
2424.8  5.66198 13.8591
2424.9  5.52215 13.2913
2425.0  5.40621 12.771
2425.1  5.50834 12.6914
2425.2  5.6     12.6614
2425.3  5.6     13.0749
2425.4  5.60635 13.5257
2425.5  5.66985 14.3222
2425.6  5.73846 15.0984
2425.7  5.85282 15.6906
2425.8  5.94839 16.2526
2425.9  5.87248 16.5277
2426.0  5.82182 16.7538
2426.1  6.00004 16.5321
2426.2  6.16636 16.3198
2426.3  6.22994 16.1876
2426.4  6.29845 16.0978
2426.5  6.41295 16.3858
2426.6  6.49052 16.7278
2426.7  6.23633 17.5538
2426.8  6.01466 18.4008
2426.9  6.09107 19.4166
2427.0  6.15875 20.3784
2427.1  6.14623 20.8325
2427.2  6.12734 21.2271
2427.3  6.05075 21.0979
2427.4  5.9947  20.9141
2427.5  6.1217  20.2351
2427.6  6.23985 19.5244
2427.7  6.27831 18.5306
2427.8  6.31045 17.5594
2427.9  6.28498 16.8153
2428.0  6.24798 16.087
2428.1  6.10781 15.5168
2428.2  5.97689 14.9862
2428.3  5.92583 14.7985
2428.4  5.89145 14.5994
2428.5  6.00595 14.2934
2428.6  6.08352 14.0151
2428.7  5.82933 13.9867
2428.8  5.60766 13.9904
2428.9  5.68407 14.2841
2429.0  5.753   14.6244
2429.1  5.753   15.3789
2429.2  5.76191 16.2011
2429.3  5.85102 17.6524
2429.4  5.91955 19.1273
2429.5  5.80505 20.8498
2429.6  5.67907 22.6639
2429.7  5.45035 25.2967
2429.8  5.25927 28.2531
2429.9  5.41158 34.05
2430.0  5.53628 39.8496
2430.1  5.40913 45.5455
2430.2  5.28479 51.198
2430.3  5.18266 56.5975
2430.4  5.0859  61.5672
2430.5  5.0349  62.7987
2430.6  4.97498 63.9599
2430.7  4.83515 64.4872
2430.8  4.71411 64.867
2430.9  4.76504 63.9092
2431.0  4.811   62.6462
2431.1  4.811   58.6578
2431.2  4.82502 54.559
2431.3  4.96519 49.3692
2431.4  5.09165 44.1603
2431.5  5.09815 38.6539
2431.6  5.11612 33.2765
2431.7  5.23697 29.0716
2431.8  5.36382 24.9776
2431.9  5.5416  21.9807
2432.0  5.71216 19.0765
2432.1  5.81379 17.071
2432.2  5.89098 15.1303
2432.3  5.75081 13.7231
2432.4  5.64155 12.3798
2432.5  5.80705 11.5778
2432.6  5.95855 10.8047
2432.7  5.98402 10.2934
2432.8  5.99043 9.81453
2432.9  5.82513 9.64024
2433.0  5.68621 9.46998
2433.1  5.78834 9.33982
2433.2  5.88511 9.22801
2433.3  5.93617 9.27807
2433.4  5.9871  9.3332
2433.5  6.0381  9.4352
2433.6  6.09546 9.5662
2433.7  6.20982 9.95722
2433.8  6.313   10.3657
2433.9  6.313   10.921
2434.0  6.32702 11.482
2434.1  6.46719 12.0817
2434.2  6.58409 12.6897
2434.3  6.49498 13.3871
2434.4  6.4201  14.1075
2434.5  6.4711  15.0531
2434.6  6.50679 16.0252
2434.7  6.40491 17.2342
2434.8  6.33212 18.5468
2434.9  6.52289 20.7596
2435.0  6.72173 23.052
2435.1  6.98906 26.0121
2435.2  7.22389 28.965
2435.3  7.17283 31.9246
2435.4  7.1639  36.2029
2435.5  7.5329  52.4219
2435.6  7.89434 67.6016
2435.7  8.18698 73.413
2435.8  8.47393 79.0173
2435.9  8.70265 82.6214
2436.0  8.90264 86.3817
2436.1  8.83906 91.4684
2436.2  8.80368 95.9529
2436.3  9.02044 95.1414
2436.4  9.20605 94.3318
2436.5  9.11655 93.5204
2436.6  9.04877 93.0506
2436.7  9.17611 95.6504
2436.8  9.291   98.1578
2436.9  9.291   99.7718
2437.0  9.30246 101.373
2437.1  9.4171  102.825
2437.2  9.52636 104.32
2437.3  9.58994 106.236
2437.4  9.60885 107.814
2437.5  9.22735 106.397
2437.6  8.86232 104.979
2437.7  8.64609 103.565
2437.8  8.46502 102.387
2437.9  8.60485 103.366
2438.0  8.73736 104.341
2438.1  8.80093 105.259
2438.2  8.87968 106.156
2438.3  9.09644 106.878
2438.4  9.291   107.569
2438.5  9.291   107.997
2438.6  9.2872  108.402
2438.7  9.24924 108.597
2438.8  9.20223 108.787
2438.9  9.07489 108.931
2439.0  8.97277 109.061
2439.1  9.10042 109.075
2439.2  9.23538 109.08
2439.3  9.43912 109
2439.4  9.60165 108.906
2439.5  9.39815 108.69
2439.6  9.24048 108.482
2439.7  9.49467 108.357
2439.8  9.7673  108.239
2439.9  10.1993 108.187
2440.0  10.5877 108.155
2440.1  10.5752 108.307
2440.2  10.5487 108.461
2440.3  10.3955 108.641
2440.4  10.2402 108.81
2440.5  10.0622 108.879
2440.6  9.89434 108.936
2440.7  9.81793 108.881
2440.8  9.7503  108.828
2440.9  9.76329 108.789
2441.0  9.75968 108.751
2441.1  9.60649 108.725
2441.2  9.45543 108.692
2441.3  9.31977 108.597
2441.4  9.2107  108.509
2441.5  9.3377  108.473
2441.6  9.44434 108.391
2441.7  9.36793 107.899
2441.8  9.30666 107.324
2441.9  9.38307 106.02
2442.0  9.4558  104.632
2442.1  9.49385 102.513
2442.2  9.50002 100.399
2442.3  9.22017 98.28
2442.4  8.9563  95.4651
2442.5  8.8293  86.3366
2442.6  8.69848 77.574
2442.7  8.53368 72.1177
2442.8  8.36593 66.8037
2442.9  8.17566 62.9005
2443.0  7.99889 59.2359
2443.1  7.94783 57.8046
2443.2  7.91727 56.6456
2443.3  8.06995 57.9011
2443.4  8.2165  59.4766
2443.5  8.3115  63.9626
2443.6  8.4409  68.631
2443.7  8.87887 74.9258
2443.8  9.33377 81.7493
2443.9  9.93004 93.1638
2444.0  10.4426 103.33
2444.1  10.1883 102.015
2444.2  9.94093 100.572
2444.3  9.75019 97.9534
2444.4  9.53705 95.3411
2444.5  9.11755 92.7221
2444.6  8.70566 89.6507
2444.7  8.36308 82.5254
2444.8  8.04639 75.7013
2444.9  7.97048 71.7541
2445.0  7.91261 67.7973
2445.1  8.01874 63.8405
2445.2  8.11485 60.2768
2445.3  8.12336 60.1552
2445.4  8.1526  60.6767
2445.5  8.3686  66.9837
2445.6  8.59224 73.1
2445.7  8.88388 77.4891
2445.8  9.20042 81.9792
2445.9  9.73326 87.2688
2446.0  10.1618 92.3512
2446.1  9.6402  95.453
2446.2  9.15293 98.472
2446.3  8.96219 100.822
2446.4  8.7796  103.036
2446.5  8.6656  104.084
2446.6  8.59098 105.092
2446.7  8.87014 105.729
2446.8  9.15249 106.342
2446.9  9.45662 106.728
2447.0  9.72654 107.094
2447.1  9.68199 107.271
2447.2  9.62293 107.42
2447.3  9.43219 107.309
2447.4  9.25655 107.186
2447.5  9.21205 106.955
2447.6  9.17075 106.721
2447.7  9.15826 106.466
2447.8  9.147   106.233
2447.9  9.147   106.209
2448.0  9.17498 106.203
2448.1  9.45483 106.368
2448.2  9.68312 106.552
2448.3  9.45434 106.915
2448.4  9.26425 107.284
2448.5  9.41675 107.713
2448.6  9.54634 108.137
2448.7  9.46993 108.519
2448.8  9.40866 108.893
2448.9  9.48507 109.179
2449.0  9.57688 109.444
2449.1  9.80566 109.506
2449.2  10.0288 109.527
2449.3  10.207  109.188
2449.4  10.3454 108.814
2449.5  10.1294 108.126
2449.6  9.91082 107.439
2449.7  9.66962 106.756
2449.8  9.46472 106.093
2449.9  9.59156 105.61
2450.0  9.7022  105.159
2450.1  9.66415 105.013
2450.2  9.61218 104.879
2450.3  9.43396 104.864
2450.4  9.2613  104.923
2450.5  9.1343  105.645
2450.6  9.01875 106.22
2450.7  9.00626 105.478
2450.8  8.98098 104.734
2450.9  8.84115 103.992
2451.0  8.73282 103.249
2451.1  8.91104 102.505
2451.2  9.10279 101.844
2451.3  9.42068 101.916
2451.4  9.71745 102.069
2451.5  9.83195 102.957
2451.6  9.96168 103.845
2451.7  10.2279 104.731
2451.8  10.4578 105.495
2451.9  10.3565 105.14
2452.0  10.2736 104.8
2452.1  10.3592 104.615
2452.2  10.4437 104.43
2452.3  10.5203 104.25
2452.4  10.5788 104.089
2452.5  10.4768 104.093
2452.6  10.3353 104.084
2452.7  9.83994 103.959
2452.8  9.39936 103.792
2452.9  9.46278 103.266
2453.0  9.48941 102.74
2453.1  9.18354 102.23
2453.2  8.89879 101.721
2453.3  8.79666 101.21
2453.4  8.775   100.884
2453.5  9.475   102.2
2453.6  10.0865 103.516
2453.7  9.90225 104.829
2453.8  9.70992 106.001
2453.9  9.44974 105.875
2454.0  9.19713 105.604
2454.1  9.01841 104.038
2454.2  8.84784 102.475
2454.3  8.74621 100.91
2454.4  8.64605 99.3474
2454.5  8.55655 97.7809
2454.6  8.50023 96.4697
2454.7  8.74193 97.4545
2454.8  8.96255 98.4138
2454.9  8.98802 99.1205
2455.0  8.97405 99.8334
2455.1  8.6046  100.588
2455.2  8.2717  101.335
2455.3  8.25868 102.032
2455.4  8.2954  102.757
2455.5  8.7794  103.744
2455.6  9.26431 104.706
2455.7  9.75621 105.435
2455.8  10.2169 106.148
2455.9  10.3857 106.703
2456.0  10.5291 107.234
2456.1  10.44   107.534
2456.2  10.4084 107.819
2456.3  10.8925 107.968
2456.4  -999.25 108.074
2456.5  -999.25 107.808
2456.6  -999.25 107.506
2456.7  -999.25 106.888
2456.8  -999.25 106.228
2456.9  -999.25 105.201
2457.0  -999.25 104.175
2457.1  -999.25 103.189
2457.2  -999.25 102.233
2457.3  -999.25 101.525
2457.4  -999.25 100.855
2457.5  -999.25 100.501
2457.6  -999.25 100.202
2457.7  -999.25 100.393
2457.8  -999.25 100.611
2457.9  -999.25 101.059
2458.0  8.81846 101.541
2458.1  8.9331  102.318
