# Выгружено из ПО "Атлас - Подсчет запасов"
############################################
~VERSION INFORMATION
#MNEM.UNIT                                    DATA : TYPE DESCRIPTION
VERS.                                         1.20 : CWLS LOG ASCII STANDARD_VERSION 1.20
WRAP.                                           NO : One line per depth step
############################################
~WELL INFORMATION
#MNEM.UNIT                                    DATA : TYPE DESCRIPTION
STRT.M                                      1050.0 : Start depth
STOP.M                                      3143.9 : Stop depth
STEP.M                                         0.1 : Step
NULL.                                      -999.25 : Null Value
WELL.                                           17 : 17
X.                                        12549147 : X-coordinate of Well Head
Y.                                         8019171 : Y-coordinate of Well Head
RKB.                                            33 : RKB
############################################
~CURVE INFORMATION
#MNEM.UNIT                                    DATA : TYPE DESCRIPTION
DEPT.M                                             : DEPT
ГК.у.е.                                            : 
ПС.мВ                                              : 
############################################
~ASCII
# ...
2290.4  9.18265 104.517
2290.5  9.11915 105.114
2290.6  9.06966 105.701
2290.7  9.14607 106.195
2290.8  9.22476 106.677
2290.9  9.32214 107.031
2291.0  9.39723 107.346
2291.1  9.26958 107.3
2291.2  9.13457 107.222
2291.3  8.93033 106.864
2291.4  8.75845 106.477
2291.5  8.87295 105.825
2291.6  8.976   105.193
2291.7  8.976   104.733
2291.8  8.95813 104.265
2291.9  8.77985 103.735
2292.0  8.62541 103.201
2292.1  8.68949 102.638
2292.2  8.73679 102.058
2292.3  8.63466 101.31
2292.4  8.54935 100.569
2292.5  8.61285 99.8662
2292.6  8.67511 99.2498
2292.7  8.72604 99.4071
2292.8  8.74392 99.6381
2292.9  8.46376 100.527
2293.0  8.20845 101.489
2293.1  8.18292 103.088
2293.2  8.12811 104.661
2293.3  7.80922 106.043
2293.4  7.54975 107.4
2293.5  7.81725 108.564
2293.6  8.10906 109.498
2293.7  8.61844 108.364
2293.8  9.07034 107.281
2293.9  8.99393 106.688
2294.0  8.94928 106.131
2294.1  9.19208 105.926
2294.2  9.43934 105.756
2294.3  9.73269 105.908
2294.4  9.97945 106.065
2294.5  9.81395 106.28
2294.6  9.65859 106.498
2294.7  9.59467 106.744
2294.8  9.55742 106.978
2294.9  9.76118 107.085
2295.0  9.92843 107.16
2295.1  9.76273 106.948
2295.2  9.61911 106.729
2295.3  9.67017 106.441
2295.4  9.716   106.128
2295.5  9.716   105.58
2295.6  9.69047 105.05
2295.7  9.43578 104.693
2295.8  9.18938 104.301
2295.9  9.02358 103.601
2296.0  8.88551 102.927
2296.1  9.00065 102.512
2296.2  9.08358 102.053
2296.3  8.87933 101.192
2296.4  8.69345 100.37
2296.5  8.66795 99.8727
2296.6  8.61561 99.3447
2296.7  8.32247 98.5431
2296.8  8.0542  97.781
2296.9  8.01624 97.392
2297.0  7.95772 96.9905
2297.1  7.71492 96.4859
2297.2  7.51487 96.0545
2297.3  7.69359 96.2692
2297.4  7.8438  96.5139
2297.5  7.7418  97.0334
2297.6  7.63979 97.5912
2297.7  7.53791 98.4911
2297.8  7.43964 99.4021
2297.9  7.37622 100.39
2298.0  7.3624  101.4
2298.1  7.79643 102.582
2298.2  8.19491 103.738
2298.3  8.28402 104.691
2298.4  8.38825 105.621
2298.5  8.63075 106.358
2298.6  8.85025 107.056
2298.7  8.86274 107.401
2298.8  8.88421 107.713
2298.9  8.98609 107.717
2299.0  9.06714 107.677
2299.1  8.9585  107.222
2299.2  8.84173 106.742
2299.3  8.64899 106.026
2299.4  8.4633  105.336
2299.5  8.3363  104.863
2299.6  8.22966 104.419
2299.7  8.30607 104.239
2299.8  8.40048 104.061
2299.9  8.65467 103.9
2300.0  8.91329 103.737
2300.1  9.20614 103.56
2300.2  9.4728  103.382
2300.3  9.51085 103.19
2300.4  9.5552  102.983
2300.5  9.6572  102.638
2300.6  9.73243 102.292
2300.7  9.56713 101.931
2300.8  9.42311 101.524
2300.9  9.47404 100.702
2301.0  9.48561 99.9016
2301.1  9.14169 99.3074
2301.2  8.84061 98.7011
2301.3  8.9167  97.9722
2301.4  8.9812  97.2728
2301.5  8.9432  96.8203
2301.6  8.86695 96.3417
2301.7  8.44746 95.6306
2301.8  8.05118 94.9172
2301.9  7.8734  94.2011
2302.0  7.73212 93.4961
2302.1  7.92336 92.9069
2302.2  8.12809 92.3582
2302.3  8.45899 92.1605
2302.4  8.74965 91.9889
2302.5  8.68615 92.0479
2302.6  8.58695 92.1131
2302.7  8.16746 92.234
2302.8  7.77628 92.3374
2302.9  7.64944 92.282
2303.0  7.50311 92.213
2303.1  7.18422 92.0227
2303.2  6.86105 91.8307
2303.3  6.4916  91.6174
2303.4  6.14475 91.4056
2303.5  5.99225 91.201
2303.6  5.86391 91.0027
2303.7  5.9528  90.8599
2303.8  6.05087 90.6755
2303.9  6.22915 90.1217
2304.0  6.46384 89.573
2304.1  7.20224 89.0829
2304.2  7.91471 88.5246
2304.3  8.41182 87.3401
2304.4  8.83635 86.3388
2304.5  8.61985 86.9563
2304.6  8.42885 87.5786
2304.7  8.46731 88.2428
2304.8  8.47907 88.9784
2304.9  8.25035 90.3387
2305.0  8.04525 91.752
2305.1  8.05777 93.6123
2305.2  8.09578 95.4069
2305.3  8.36361 96.6559
2305.4  8.618   97.9016
2305.5  8.758   99.147
2305.6  8.884   100.319
2305.7  8.884   100.822
2305.8  8.86613 101.305
2305.9  8.68785 101.58
2306.0  8.5283  101.819
2306.1  8.54132 101.724
2306.2  8.57593 101.601
2306.3  8.80521 101.219
2306.4  9.01225 100.871
2306.5  9.02475 100.822
2306.6  9.04621 100.771
2306.7  9.14809 100.708
2306.8  9.19795 100.665
2306.9  8.77846 100.799
2307.0  8.41527 100.949
2307.1  8.56796 101.251
2307.2  8.7063  101.554
2307.3  8.71932 101.872
2307.4  8.7501  102.209
2307.5  8.9411  102.733
2307.6  9.10023 103.235
2307.7  8.97289 103.548
2307.8  8.84654 103.855
2307.9  8.73218 104.104
2308.0  8.61754 104.337
2308.1  8.5029  104.423
2308.2  8.38979 104.512
2308.3  8.28766 104.624
2308.4  8.1744  104.732
2308.5  7.9584  104.814
2308.6  7.74488 104.88
2308.7  7.55411 104.812
2308.8  7.39857 104.718
2308.9  7.56387 104.404
2309.0  7.73337 104.081
2309.1  7.93712 103.689
2309.2  8.09832 103.315
2309.3  7.88156 103.091
2309.4  7.68955 102.898
2309.5  7.71505 102.972
2309.6  7.77625 103.071
2309.7  8.15778 103.392
2309.8  8.49434 103.722
2309.9  8.41793 104.116
2310.0  8.36046 104.524
2310.1  8.4751  105.047
2310.2  8.59587 105.566
2310.3  8.77459 106.064
2310.4  8.9388  106.565
2310.5  8.9768  107.1
2310.6  9.01736 107.616
2310.7  9.08078 107.95
2310.8  9.15587 108.276
2310.9  9.33415 108.51
2311.0  9.48989 108.736
2311.1  9.43883 108.875
2311.2  9.40446 108.997
2311.3  9.5191  108.979
2311.4  9.59525 108.944
2311.5  9.32775 108.767
2311.6  9.09846 108.579
2311.7  9.21282 108.287
2311.8  9.32496 107.981
2311.9  9.41435 107.565
2312.0  9.46697 107.163
2312.1  9.18662 106.902
2312.2  8.85726 106.65
2312.3  8.07981 106.47
2312.4  7.3947  106.309
2312.5  7.5217  106.32
2312.6  7.64366 106.356
2312.7  7.72007 106.611
2312.8  7.81323 106.883
2312.9  8.05493 107.303
2313.0  8.3112  107.75
2313.1  8.69316 108.438
2313.2  9.02839 109.106
2313.3  8.9523  109.603
2313.4  8.87125 110.079
2313.5  8.74375 110.382
2313.6  8.59461 110.629
2313.7  8.25153 110.378
2313.8  7.95216 110.088
2313.9  8.05354 109.456
2314.0  8.16352 108.83
2314.1  8.34875 108.274
2314.2  8.53347 107.716
2314.3  8.7182  107.138
2314.4  8.9069  106.573
2314.5  9.1359  106.109
2314.6  9.31011 105.618
2314.7  8.992   104.885
2314.8  8.73053 104.186
2314.9  8.98522 103.822
2315.0  9.2137  103.463
2315.1  9.20068 103.166
2315.2  9.1928  102.896
2315.3  9.23085 102.866
2315.4  9.2612  102.826
2315.5  9.2232  102.7
2315.6  9.14314 102.615
2315.7  8.6857  102.902
2315.8  8.30614 103.212
2315.9  8.63674 103.719
2316.0  8.94646 104.251
2316.1  9.0611  104.994
2316.2  9.18182 105.729
2316.3  9.36004 106.404
2316.4  9.5149  107.064
2316.5  9.4639  107.6
2316.6  9.42881 108.123
2316.7  9.53668 108.546
2316.8  9.64356 108.949
2316.9  9.73895 109.17
2317.0  9.81994 109.373
2317.1  9.76938 109.418
2317.2  9.72145 109.456
2317.3  9.69592 109.44
2317.4  9.64245 109.427
2317.5  9.33695 109.438
2317.6  9.03907 109.452
2317.7  8.81035 109.49
2317.8  8.62057 109.519
2317.9  8.78587 109.465
2318.0  8.92989 109.402
2318.1  8.87883 109.263
2318.2  8.84061 109.135
2318.3  8.9167  109.095
2318.4  8.985   109.072
2318.5  8.985   109.196
2318.6  8.98375 109.312
2318.7  8.97126 109.353
2318.8  8.88356 109.396
2318.9  8.12099 109.471
2319.0  7.42659 109.526
2319.1  7.36251 109.41
2319.2  7.305   109.294
2319.3  7.305   109.178
2319.4  7.30885 108.909
2319.5  7.34735 107.263
2319.6  7.32463 105.768
2319.7  6.75233 105.62
2319.8  6.16977 105.487
2319.9  5.50908 105.498
2320.0  4.92316 105.702
2320.1  5.02479 107.646
2320.2  5.2001  109.461
2320.3  6.04113 110.159
2320.4  6.84625 110.791
2320.5  7.34875 110.853
2320.6  7.82463 110.877
2320.7  8.06034 110.571
2320.8  8.29848 110.26
2320.9  8.55267 109.919
2321.0  8.81894 109.559
2321.1  9.1884  109.03
2321.2  9.51234 108.498
2321.3  9.43575 107.927
2321.4  9.36065 107.382
2321.5  9.29715 107.051
2321.6  9.19284 106.724
2321.7  8.72242 106.42
2321.8  8.32093 106.132
2321.9  8.54965 105.993
2322.0  8.78659 105.859
2322.1  9.09246 105.773
2322.2  9.34662 105.723
2322.3  9.14288 106.008
2322.4  8.96765 106.31
2322.5  9.04415 106.771
2322.6  9.12316 107.233
2322.7  9.22454 107.706
2322.8  9.30584 108.146
2322.9  9.20446 108.285
2323.0  9.1168  108.396
2323.1  9.15485 108.251
2323.2  9.20177 108.07
2323.3  9.32942 107.573
2323.4  9.44905 107.086
2323.5  9.49955 106.681
2323.6  9.54885 106.293
2323.7  9.58731 106.064
2323.8  9.59907 105.889
2323.9  9.37035 106.194
