# Выгружено из ПО "Атлас - Подсчет запасов"
############################################
~VERSION INFORMATION
#MNEM.UNIT                                    DATA : TYPE DESCRIPTION
VERS.                                         1.20 : CWLS LOG ASCII STANDARD_VERSION 1.20
WRAP.                                           NO : One line per depth step
############################################
~WELL INFORMATION
#MNEM.UNIT                                    DATA : TYPE DESCRIPTION
STRT.M                                      1050.0 : Start depth
STOP.M                                      3143.9 : Stop depth
STEP.M                                         0.1 : Step
NULL.                                      -999.25 : Null Value
WELL.                                           17 : 17
X.                                        12549147 : X-coordinate of Well Head
Y.                                         8019171 : Y-coordinate of Well Head
RKB.                                            33 : RKB
############################################
~CURVE INFORMATION
#MNEM.UNIT                                    DATA : TYPE DESCRIPTION
DEPT.M                                             : DEPT
ГК.у.е.                                            : 
ПС.мВ                                              : 
############################################
~ASCII
1050.0  4.79396 89.3774
1050.1  4.88346 89.6209
1050.2  4.964   89.8881
1050.3  4.964   90.3694
1050.4  4.95504 90.8502
1050.5  4.86554 91.3312
1050.6  4.7901  91.8121
1050.7  4.84107 92.2928
1050.8  4.89211 92.7742
1050.9  4.94311 93.2557
1051.0  4.99155 93.7372
1051.1  5.01705 94.2182
1051.2  5.05021 94.7015
1051.3  5.15227 95.2068
1051.4  5.23759 95.7116
1051.5  5.17359 96.2166
1051.6  5.11855 96.7215
1051.7  5.14404 97.2262
1051.8  5.1683  97.7316
1051.9  5.1813  98.2366
1052.0  5.18154 98.7416
1052.1  5.06704 99.2466
1052.2  4.9716  99.7516
1052.3  5.04765 100.257
1052.4  5.11985 100.778
1052.5  5.15835 101.442
1052.6  5.17514 102.106
1052.7  4.99675 102.77
1052.8  4.82454 103.434
1052.9  4.71004 104.098
1053.0  4.61085 104.762
1053.1  4.64935 105.426
1053.2  4.69926 106.09
1053.3  4.85185 106.755
1053.4  4.9928  107.418
1053.5  5.0308  108.082
1053.6  5.0695  108.725
1053.7  5.11448 109.177
1053.8  5.16391 109.614
1053.9  5.25291 109.907
1054.0  5.34126 110.155
1054.1  5.42376 109.993
1054.2  5.48274 109.831
1054.3  5.33015 109.669
1054.4  5.17513 109.54
1054.5  4.99663 109.696
1054.6  4.83855 109.852
1054.7  4.86404 110.008
1054.8  4.87939 110.162
1054.9  4.80339 110.292
1055.0  4.73115 110.403
1055.1  4.69265 110.347
1055.2  4.64909 110.291
1055.3  4.56004 110.236
1055.4  4.49106 110.181
1055.5  4.60156 110.129
1055.6  4.71541 110.077
1055.7  4.85932 110.029
1055.8  4.9903  109.981
1055.9  5.0033  109.933
1056.0  4.99968 109.885
1056.1  4.84668 109.837
1056.2  4.71535 109.805
1056.3  4.77889 109.92
1056.4  4.836   110.034
1056.5  4.836   110.148
1056.6  4.83855 110.262
1056.7  4.86404 110.377
1056.8  4.89977 110.492
1056.9  5.02727 110.607
1057.0  5.13945 110.721
1057.1  5.11395 110.835
1057.2  5.09225 110.949
1057.3  5.10476 111.064
1057.4  5.11094 111.178
1057.5  5.06044 111.293
1057.6  5.03026 111.407
1057.7  5.18267 111.522
1057.8  5.31489 111.636
1057.9  5.26389 111.75
1058.0  5.22436 111.852
1058.1  5.28786 111.84
1058.2  5.33229 111.815
1058.3  5.20521 111.677
1058.4  5.07443 111.538
1058.5  4.90893 111.399
1058.6  4.76255 111.259
1058.7  4.78804 111.12
1058.8  4.81991 111.007
1058.9  4.90891 111.132
1059.0  4.97754 111.269
1059.1  4.86304 111.521
1059.2  4.77276 111.741
1059.3  4.90034 111.675
1059.4  5.01625 111.648
1059.5  5.02875 111.963
1059.6  5.04635 112.23
1059.7  5.10982 112.068
1059.8  5.15554 111.932
1059.9  5.04104 112.024
1060.0  4.94055 112.091
1060.1  4.96605 111.929
1060.2  4.97499 111.765
1060.3  4.83491 111.572
1060.4  4.70134 111.385
1060.5  4.62484 111.254
1060.6  4.53564 111.108
1060.7  4.33226 110.82
1060.8  4.17323 110.56
1060.9  4.41523 110.557
1061.0  4.64191 110.541
1061.1  4.73091 110.411
1061.2  4.81991 110.297
1061.3  4.90896 110.326
1061.4  5.00046 110.356
1061.5  5.11496 110.385
1061.6  5.19253 110.414
1061.7  4.93819 110.443
1061.8  4.71411 110.472
1061.9  4.76511 110.501
1062.0  4.81611 110.53
1062.1  4.86711 110.559
1062.2  4.9206  110.571
1062.3  4.99665 110.436
1062.4  5.07011 110.32
1062.5  5.12111 110.384
1062.6  5.1632  110.428
1062.7  5.12522 110.294
1062.8  5.0948  110.158
1062.9  5.1328  110.023
1063.0  5.18102 109.887
1063.1  5.32102 109.752
1063.2  5.46101 109.617
1063.3  5.60109 109.482
1063.4  5.72385 109.346
1063.5  5.69235 109.211
1063.6  5.6627  109.087
1063.7  5.64971 109.055
1063.8  5.63229 109.034
1063.9  5.57529 109.106
1064.0  5.50998 109.178
1064.1  5.36998 109.25
1064.2  5.24865 109.322
1064.3  5.29518 109.394
1064.4  5.34891 109.466
1064.5  5.46791 109.539
1064.6  5.55844 109.611
1064.7  5.39304 109.683
1064.8  5.22358 109.755
1064.9  5.01958 109.827
1065.0  4.84111 109.899
1065.1  4.89211 109.972
1065.2  4.9329  110.044
1065.3  4.88187 110.116
1065.4  4.84366 110.196
1065.5  4.92016 110.352
1065.6  4.97629 110.525
1065.7  4.84937 110.839
1065.8  4.74902 111.113
1065.9  4.88902 111.016
1066.0  5.03027 110.918
1066.1  5.18277 110.82
1066.2  5.33326 110.732
1066.3  5.46584 110.729
1066.4  5.59822 110.719
1066.5  5.73022 110.653
1066.6  5.85565 110.603
1066.7  5.92211 110.695
1066.8  5.97179 110.781
1066.9  5.86979 110.81
1067.0  5.78821 110.84
1067.1  5.89021 110.869
1067.2  6.01192 110.899
1067.3  6.3111  110.927
1067.4  6.57299 110.956
1067.5  6.50299 110.985
1067.6  6.41709 111.015
1067.7  6.18823 111.043
1067.8  6.00237 111.097
1067.9  6.20587 111.381
1068.0  6.39921 111.665
1068.1  6.50121 111.949
1068.2  6.55988 112.232
1068.3  6.22868 112.516
1068.4  5.90807 112.799
1068.5  5.67907 113.083
1068.6  5.473   113.366
1068.7  5.473   113.65
1068.8  5.46154 113.889
1068.9  5.34704 113.727
1069.0  5.24866 113.563
1069.1  5.29516 113.369
1069.2  5.34165 113.159
1069.3  5.38818 112.807
1069.4  5.43726 112.455
1069.5  5.50976 112.102
1069.6  5.55589 111.782
1069.7  5.365   111.747
1069.8  5.18279 111.718
1069.9  5.08079 111.747
1070.0  4.99666 111.774
1070.1  5.07316 111.771
1070.2  5.14325 111.765
1070.3  5.15576 111.73
1070.4  5.167   111.708
1070.5  5.167   111.801
1070.6  5.1632  111.866
1070.7  5.12522 111.672
1070.8  5.0878  111.51
1070.9  5.0558  111.635
1071.0  5.01769 111.737
1071.1  4.92469 111.639
1071.2  4.8357  111.553
1071.3  4.78266 111.582
1071.4  4.72394 111.606
1071.5  4.61344 111.571
1071.6  4.52801 111.54
1071.7  4.66792 111.537
1071.8  4.78123 111.518
1071.9  4.65373 111.356
1072.0  4.53389 111.204
1072.1  4.48289 111.138
1072.2  4.44851 110.982
1072.3  4.56358 110.025
1072.4  4.67721 109.046
1072.5  4.77921 107.866
1072.6  4.8761  106.932
1072.7  4.92707 108.201
1072.8  4.973   109.363
1072.9  4.973   109.551
1073.0  4.96915 109.682
1073.1  4.93065 109.297
1073.2  4.89855 108.887
1073.3  4.92407 108.248
1073.4  4.95977 107.61
1073.5  5.08727 106.971
1073.6  5.202   106.405
1073.7  5.202   106.498
1073.8  5.18798 106.588
1073.9  5.04798 106.649
1074.0  4.94112 106.627
1074.1  5.13212 105.861
1074.2  5.29975 104.999
1074.3  5.25722 103.278
1074.4  5.20794 101.823
1074.5  5.09744 102.743
1074.6  4.9929  103.767
1074.7  4.94193 105.735
1074.8  4.90301 107.563
1074.9  4.97301 108.101
1075.0  5.04816 108.572
1075.1  5.16966 108.442
1075.2  5.28535 108.315
1075.3  5.34889 108.217
1075.4  5.38688 108.008
1075.5  5.19588 106.796
1075.6  5.0291  105.442
1075.7  5.08007 102.801
1075.8  5.11323 100.023
1075.9  4.98573 96.0436
1076.0  4.88757 92.1475
1076.1  5.05307 88.9965
1076.2  5.21606 86.0366
1076.3  5.35664 84.7929
1076.4  5.4817  83.6174
1076.5  5.4687  83.0419
1076.6  5.46255 82.4569
1076.7  5.51802 81.7868
1076.8  5.58672 81.2814
1076.9  5.77372 82.2644
1077.0  5.92923 83.3239
1077.1  5.80173 85.0704
1077.2  5.68955 86.699
1077.3  5.71507 87.2694
1077.4  5.73545 87.7276
1077.5  5.70995 87.1841
1077.6  5.67804 86.734
1077.7  5.5886  87.1238
1077.8  5.52587 87.5278
1077.9  5.70437 88.0548
1078.0  5.84713 88.5128
1078.1  5.66863 88.3513
1078.2  5.5029  88.4285
1078.3  5.45187 90.6539
1078.4  5.41877 92.762
1078.5  5.54627 93.8405
1078.6  5.63934 94.8998
1078.7  5.42297 95.7873
1078.8  5.228   96.7555
1078.9  5.228   98.438
1079.0  5.22545 99.9868
1079.1  5.19995 100.334
1079.2  5.1706  100.437
1079.3  5.10656 98.3334
1079.4  5.07328 96.0351
1079.5  5.31578 91.9611
1079.6  5.53015 87.7346
1079.7  5.49167 82.1375
1079.8  5.44679 76.6829
1079.9  5.34479 72.5769
1080.0  5.25685 68.7289
1080.1  5.29535 67.1999
1080.2  5.34276 65.7505
1080.3  5.47034 65.015
1080.4  5.585   64.3283
1080.5  5.585   64.0718
1080.6  5.5901  63.9139
1080.7  5.64107 64.6425
1080.8  5.69336 65.3783
1080.9  5.75686 66.1703
1081.0  5.814   67.0515
1081.1  5.814   68.7345
1081.2  5.78593 70.3633
1081.3  5.50526 71.5065
1081.4  5.24409 72.6802
1081.5  5.15509 74.1407
1081.6  5.09286 75.4802
1081.7  5.27125 75.7321
1081.8  5.44732 75.8568
1081.9  5.60032 74.8358
1082.0  5.7367  73.8531
1082.1  5.7237  73.2146
1082.2  5.72306 72.6779
1082.3  5.83362 73.0566
1082.4  5.93856 73.4159
1082.5  5.99406 73.6044
1082.6  6.04015 73.7769
1082.7  6.00167 73.8053
1082.8  5.93511 73.8276
1082.9  5.61661 73.7936
1083.0  5.32489 73.9431
1083.1  5.27389 75.7421
1083.2  5.22925 77.0818
1083.3  5.24176 74.2896
1083.4  5.24023 71.4899
