# Выгружено из ПО "Атлас - Подсчет запасов"
############################################
~VERSION INFORMATION
#MNEM.UNIT                                    DATA : TYPE DESCRIPTION
VERS.                                         1.20 : CWLS LOG ASCII STANDARD_VERSION 1.20
WRAP.                                           NO : One line per depth step
############################################
~WELL INFORMATION
#MNEM.UNIT                                    DATA : TYPE DESCRIPTION
STRT.M                                      1050.0 : Start depth
STOP.M                                      3143.9 : Stop depth
STEP.M                                         0.1 : Step
NULL.                                      -999.25 : Null Value
WELL.                                           17 : 17
X.                                        12549147 : X-coordinate of Well Head
Y.                                         8019171 : Y-coordinate of Well Head
RKB.                                            33 : RKB
############################################
~CURVE INFORMATION
#MNEM.UNIT                                    DATA : TYPE DESCRIPTION
DEPT.M                                             : DEPT
ГК.у.е.                                            : 
ПС.мВ                                              : 
############################################
~ASCII
# ...
1586.4  8.25179 44.5109
1586.5  8.14979 44.0609
1586.6  8.08352 43.5281
1586.7  8.33836 42.2504
1586.8  8.5693  41.0986
1586.9  8.5823  41.0946
1587.0  8.57738 41.8471
1587.1  8.41138 49.3986
1587.2  8.27606 56.4832
1587.3  8.41664 59.3755
1587.4  8.53534 62.2805
1587.5  8.45884 65.332
1587.6  8.40401 68.3058
1587.7  8.54392 70.5815
1587.8  8.65468 72.8659
1587.9  8.50168 75.2024
1588.0  8.37677 77.5133
1588.1  8.50427 79.5933
1588.2  8.60624 81.6856
1588.3  8.47866 83.8914
1588.4  8.37847 86.1719
1588.5  8.52297 89.1469
1588.6  8.67426 92.1425
1588.7  8.88663 95.3236
1588.8  9.06398 98.4173
1588.9  8.92398 100.687
1589.0  8.79034 102.956
1589.1  8.71384 105.213
1589.2  8.66541 106.381
1589.3  8.86954 97.7463
1589.4  9.04789 89.328
1589.5  8.99689 82.7565
1589.6  8.95735 76.3603
1589.7  9.02081 71.5387
1589.8  9.06523 66.7453
1589.9  8.93773 62.2633
1590.0  8.82235 57.9468
1590.1  8.81585 55.1183
1590.2  8.81575 52.3033
1590.3  8.87329 49.6067
1590.4  8.9263  47.0325
1590.5  8.9393  45.529
1590.6  8.92418 44.0685
1590.7  8.65635 42.9952
1590.8  8.39332 41.9995
1590.9  8.17682 41.7145
1591.0  7.98836 41.5042
1591.1  8.05186 41.9652
1591.2  8.1131  42.4891
1591.3  8.15413 43.5797
1591.4  8.20171 44.9529
1591.5  8.30871 48.8774
1591.6  8.41956 52.9714
1591.7  8.56497 58.589
1591.8  8.70746 64.8285
1591.9  8.82196 76.5895
1592.0  8.93651 87.1832
1592.1  9.05151 87.2852
1592.2  9.1537  86.771
1592.3  9.14069 80.7113
1592.4  9.10222 74.9419
1592.5  8.83472 71.7144
1592.6  8.59655 68.7698
1592.7  8.62204 68.368
1592.8  8.63859 67.7962
1592.9  8.57459 65.7007
1593.0  8.51765 63.5815
1593.1  8.52415 61.249
1593.2  8.5268  58.9592
1593.3  8.49478 57.0516
1593.4  8.44177 55.1447
1593.5  8.19977 53.2242
1593.6  7.9769  51.3744
1593.7  7.92593 50.1602
1593.8  7.86849 48.893
1593.9  7.75349 47.165
1594.0  7.64109 45.4645
1594.1  7.55209 44.0115
1594.2  7.47835 42.5037
1594.3  7.54189 40.5005
1594.4  7.59645 38.5337
1594.5  7.57095 36.8732
1594.6  7.5493  35.2384
1594.7  7.56229 33.8343
1594.8  7.58802 32.5218
1594.9  7.72802 32.0503
1595.0  7.84123 31.6558
1595.1  7.71373 31.9533
1595.2  7.59009 32.4247
1595.3  7.50104 34.4614
1595.4  7.41204 36.2437
1595.5  7.32254 35.7617
1595.6  7.25221 35.2798
1595.7  7.35414 34.7986
1595.8  7.47408 34.3167
1595.9  7.75458 33.8347
1596.0  8.00575 33.922
1596.1  7.99325 39.1255
1596.2  7.9769  44.2288
1596.3  7.92587 48.4363
1596.4  7.85447 52.902
1596.5  7.59947 59.734
1596.6  7.2947  67.187
1596.7  6.54266 80.2216
1596.8  5.84202 91.9879
1596.9  5.61252 92.1964
1597.0  5.42898 91.9912
1597.1  5.65848 88.0677
1597.2  5.90202 84.1464
1597.3  6.27225 80.2405
1597.4  6.62032 76.3297
1597.5  6.77332 72.3312
1597.6  6.94672 68.2998
1597.7  7.3035  63.9735
1597.8  7.64157 59.7165
1597.9  7.80707 56.1355
1598.0  7.97007 52.628
1598.1  8.11057 49.781
1598.2  8.21274 47.1591
1598.3  7.97009 46.5602
1598.4  7.73798 46.0904
1598.5  7.59798 46.7734
1598.6  7.4758  47.2999
1598.7  7.51378 46.4205
1598.8  7.55566 46.1747
1598.9  7.63216 51.6347
1599.0  7.69975 57.1843
1599.1  7.68725 63.5398
1599.2  7.69896 68.8601
1599.3  7.9286  64.8712
1599.4  8.13625 60.8871
1599.5  8.14875 56.9031
1599.6  8.14599 53.7638
1599.7  8.00608 58.2166
1599.8  7.89146 62.1768
1599.9  8.00596 61.6553
1600.0  8.12051 60.6357
1600.1  8.23551 55.1397
1600.2  8.33135 50.0013
1600.3  8.2548  48.0747
1600.4  8.20387 46.5084
1600.5  8.38237 48.1599
1600.6  8.5468  49.8114
1600.7  8.58478 51.4634
1600.8  8.62666 53.1848
1600.9  8.70316 55.5098
1601.0  8.75798 57.7945
1601.1  8.61798 59.7175
1601.2  8.50601 61.8024
1601.3  8.64609 65.3466
1601.4  8.74522 68.2287
1601.5  8.47772 65.1997
1601.6  8.24465 62.1708
1601.7  8.32111 59.1421
1601.8  8.37593 56.1097
1601.9  8.23543 53.0807
1602.0  8.11541 50.6202
1602.1  8.17941 53.2692
1602.2  8.24591 55.7333
1602.3  8.33496 56.5368
1602.4  8.39077 57.1543
1602.5  8.14877 56.1083
1602.6  7.91569 55.0622
1602.7  7.76278 54.0153
1602.8  7.62625 52.9673
1602.9  7.63875 51.9213
1603.0  7.66277 50.8753
1603.1  7.79027 49.8293
1603.2  7.9012  48.7833
1603.3  7.86317 47.7361
1603.4  7.85258 47.5174
1603.5  8.08808 54.7329
1603.6  8.32872 61.4969
1603.7  8.61554 64.2028
1603.8  8.86509 66.9111
1603.9  8.77609 69.6086
1604.0  8.70746 71.9506
1604.1  8.82196 71.0976
1604.2  8.90204 70.2446
1604.3  8.6724  69.39
1604.4  8.46985 69.5676
1604.5  8.50835 79.0116
1604.6  8.56211 87.2865
1604.7  8.753   85.0538
1604.8  8.91864 82.8184
1604.9  8.85514 80.5854
1605.0  8.80691 79.1974
1605.1  8.89591 85.4039
1605.2  8.97345 90.6779
1605.3  8.94793 87.567
1605.4  8.91864 84.9061
1605.5  8.85514 86.2556
1605.6  8.81076 87.1642
1605.7  8.93818 84.1095
1605.8  9.03768 80.6259
1605.9  8.88468 73.3234
1606.0  8.7457  67.6444
1606.1  8.7327  76.5579
1606.2  8.73506 84.5786
1606.3  8.87564 84.5746
1606.4  8.95579 83.4458
1606.5  8.49429 72.2078
1606.6  8.05038 61.7508
1606.7  7.76456 58.3129
1606.8  7.47586 54.7018
1606.9  7.16486 49.5763
1607.0  6.89907 45.5283
1607.1  7.03957 51.1648
1607.2  7.19407 56.8013
1607.3  7.47474 62.4448
1607.4  7.73211 68.0813
1607.5  7.78311 73.7173
1607.6  7.84176 77.8912
1607.7  7.96918 68.9236
1607.8  8.07759 60.4575
1607.9  8.01359 56.6075
1608.0  7.9573  52.9907
1608.1  7.9703  51.4692
1608.2  7.98965 50.3069
1608.3  8.0662  52.3762
1608.4  8.14366 54.8323
1608.5  8.23016 60.7878
1608.6  8.32786 66.9393
1608.7  8.52624 74.853
1608.8  8.72287 82.8735
1608.9  8.90137 91.7575
1609.0  9.04032 99.7356
1609.1  8.82382 99.5721
1609.2  8.6328  98.9678
1609.3  8.67083 94.396
1609.4  8.70755 90.6479
1609.5  8.73305 94.2524
1609.6  8.756   97.8569
1609.7  8.756   101.462
1609.8  8.78789 104.404
1609.9  9.10639 101.347
1610.0  9.37643 98.3534
1610.1  9.21093 95.9204
1610.2  9.05179 94.2167
1610.3  8.94973 99.0737
1610.4  8.87587 102.566
1610.5  9.05437 93.8426
1610.6  9.20605 86.4134
1610.7  9.1166  90.6118
1610.8  9.04746 94.8154
1610.9  9.16196 99.0139
1611.0  9.265   102.851
1611.1  9.265   103.436
1611.2  9.25229 103.66
1611.3  9.12521 100.627
1611.4  9.00845 98.1804
1611.5  8.98295 100.961
1611.6  8.94979 103.661
1611.7  8.84786 105.623
1611.8  8.74709 107.5
1611.9  8.65809 108.575
1612.0  8.60859 109.572
1612.1  8.91409 109.871
1612.2  9.17244 110.143
1612.3  9.00684 110.167
1612.4  8.86185 110.165
1612.5  8.90035 109.929
1612.6  8.91204 109.645
1612.7  8.68268 108.925
1612.8  8.45562 106.928
1612.9  8.25212 93.4629
1613.0  8.09323 80.6889
1613.1  8.33523 74.1259
1613.2  8.51223 67.3343
1613.3  8.10448 58.4769
1613.4  7.71252 51.2072
1613.5  7.45802 58.1107
1613.6  7.21119 64.8322
1613.7  7.0333  69.9181
1613.8  6.85388 75.1659
1613.9  6.66288 81.8069
1614.0  6.46552 88.0235
1614.1  6.21102 90.426
1614.2  5.96414 92.6685
1614.3  5.78553 93.474
1614.4  5.63902 94.251
1614.5  5.77902 94.78
1614.6  5.9059  95.2039
1614.7  5.9149  94.6837
1614.8  5.92976 94.117
1614.9  5.99726 93.1385
1615.0  6.06055 92.0938
1615.1  6.08605 90.4532
1615.2  6.12681 88.785
1615.3  6.30492 86.8654
1615.4  6.48157 84.9123
1615.5  6.64707 82.6378
1615.6  6.79475 80.2626
1615.7  6.78226 76.9826
1615.8  6.79268 73.4591
1615.9  7.00918 67.7871
1616.0  7.22182 61.6345
1616.1  7.39982 51.1625
1616.2  7.59312 41.919
1616.3  7.92432 43.7186
1616.4  8.22711 45.4066
1616.5  8.27811 46.1116
1616.6  8.32525 46.7071
1616.7  8.33774 46.3189
1616.8  8.32732 45.9301
1616.9  8.11082 45.5416
1617.0  7.92746 45.8132
1617.1  8.04196 52.0177
1617.2  8.13354 57.2498
1617.3  8.01897 53.7376
1617.4  7.92811 50.8372
1617.5  8.04912 53.3957
1617.6  8.16415 56.2574
1617.7  8.22562 61.845
1617.8  8.29717 67.0149
1617.9  8.45867 68.3619
1618.0  8.61036 69.6199
1618.1  8.67386 70.0784
1618.2  8.73991 70.4479
1618.3  8.82896 70.0172
1618.4  8.9052  70.5435
1618.5  8.8672  79.667
1618.6  8.8368  88.6518
1618.7  8.87478 96.39
1618.8  8.89243 102.313
1618.9  8.72693 91.8211
1619.0  8.54486 81.6541
1619.1  8.21386 74.4041
1619.2  7.916   68.315
1619.3  7.916   72.6646
1619.4  7.91985 76.7541
1619.5  7.95835 78.5526
1619.6  7.97514 80.3085
1619.7  7.79675 81.6822
1619.8  7.60291 83.015
