# Выгружено из ПО "Атлас - Подсчет запасов"
############################################
~VERSION INFORMATION
#MNEM.UNIT                                    DATA : TYPE DESCRIPTION
VERS.                                         1.20 : CWLS LOG ASCII STANDARD_VERSION 1.20
WRAP.                                           NO : One line per depth step
############################################
~WELL INFORMATION
#MNEM.UNIT                                    DATA : TYPE DESCRIPTION
STRT.M                                      1050.0 : Start depth
STOP.M                                      3143.9 : Stop depth
STEP.M                                         0.1 : Step
NULL.                                      -999.25 : Null Value
WELL.                                           17 : 17
X.                                        12549147 : X-coordinate of Well Head
Y.                                         8019171 : Y-coordinate of Well Head
RKB.                                            33 : RKB
############################################
~CURVE INFORMATION
#MNEM.UNIT                                    DATA : TYPE DESCRIPTION
DEPT.M                                             : DEPT
ГК.у.е.                                            : 
ПС.мВ                                              : 
############################################
~ASCII
# ...
1988.7  7.94749 94.2293
1988.8  8.56233 95.1234
1988.9  8.82533 95.9359
1989.0  9.11807 96.7656
1989.1  9.67807 97.7501
1989.2  10.1769 98.7161
1989.3  10.1259 99.5171
1989.4  10.0647 100.329
1989.5  9.91223 101.243
1989.6  9.76735 102.129
1989.7  9.69089 102.758
1989.8  9.60798 103.395
1989.9  9.46798 104.099
1990.0  9.37639 104.707
1990.1  9.71989 104.444
1990.2  10.0099 104.18
1990.3  9.81877 103.897
1990.4  9.64445 103.592
1990.5  9.61895 103.078
1990.6  9.59095 102.587
1990.7  9.54048 102.309
1990.8  9.47077 102.056
1990.9  9.22877 102.03
1991.0  8.99443 102.037
1991.1  8.82893 102.351
1991.2  8.72838 102.685
1991.3  9.21217 103.191
1991.4  9.61516 103.739
1991.5  9.29716 104.663
1991.6  9.04157 105.555
1991.7  9.34688 106.163
1991.8  9.59141 106.735
1991.9  9.28591 106.974
1992.0  9.00845 107.176
1992.1  8.98295 107.033
1992.2  8.94804 106.874
1992.3  8.82847 106.577
1992.4  8.6824  106.28
1992.5  8.2969  105.994
1992.6  7.91968 105.692
1992.7  7.61687 105.246
1992.8  7.3019  104.782
1992.9  6.8814  104.174
1993.0  6.38425 103.59
1993.1  5.19826 103.216
1993.2  4.08382 102.859
1993.3  3.61203 102.662
1993.4  3.15861 102.496
1993.5  2.86511 102.605
1993.6  2.60485 102.724
1993.7  2.64333 102.931
1993.8  2.73222 103.131
1993.9  3.27372 103.266
1994.0  3.84911 103.392
1994.1  4.72911 103.441
1994.2  5.5969  103.469
1994.3  6.35586 103.314
1994.4  7.08651 103.15
1994.5  7.57101 102.902
1994.6  8.04272 102.655
1994.7  8.3995  102.429
1994.8  8.73762 102.149
1994.9  8.90362 101.385
1995.0  9.08489 100.613
1995.1  9.40339 99.7623
1995.2  9.67214 98.8577
1995.3  9.49353 97.4649
1995.4  9.34066 96.1678
1995.5  9.41716 95.7168
1995.6  9.47835 95.3115
1995.7  9.40189 95.3165
1995.8  9.33045 95.3736
1995.9  9.30495 95.8986
1996.0  9.28455 96.4302
1996.1  9.31005 97.0217
1996.2  9.35216 97.6156
1996.3  9.54378 98.232
1996.4  9.69302 98.8524
1996.5  9.46352 99.5154
1996.6  9.26721 100.18
1996.7  9.36914 100.86
1996.8  9.46991 101.461
1996.9  9.55891 101.355
1997.0  9.61602 100.917
1997.1  9.38652 97.501
1997.2  9.17365 94.085
1997.3  9.11011 90.6649
1997.4  9.03002 87.5592
1997.5  8.80052 87.2412
1997.6  8.58504 86.9231
1997.7  8.4956  86.6048
1997.8  8.415   86.6615
1997.9  8.415   90.092
1998.0  8.40023 93.3705
1998.1  8.25273 95.283
1998.2  8.13146 97.1287
1998.3  8.24603 98.376
1998.4  8.35791 99.6028
1998.5  8.44691 100.66
1998.6  8.5321  101.711
1998.7  8.58307 102.71
1998.8  8.57293 103.698
1998.9  8.01293 104.575
1999.0  7.46059 105.375
1999.1  6.97709 105.477
1999.2  6.48211 105.574
1999.3  5.88325 105.629
1999.4  5.24438 105.67
1999.5  4.23938 105.585
1999.6  3.30443 105.521
1999.7  2.99912 105.638
1999.8  2.77561 105.785
1999.9  3.29111 106.203
2000.0  3.88816 106.65
2000.1  5.21816 107.358
2000.2  6.48629 108.058
2000.3  7.19923 108.679
2000.4  7.90628 109.296
2000.5  8.56828 109.882
2000.6  9.20092 110.43
2000.7  9.5697  110.643
2000.8  9.89434 110.827
2000.9  9.81784 110.76
2001.0  9.77193 110.661
2001.1  10.0009 110.273
2001.2  10.1962 109.885
2001.3  10.0881 109.497
2001.4  9.97763 109.11
2001.5  9.84413 108.729
2001.6  9.69979 108.348
2001.7  9.45793 107.966
2001.8  9.23489 107.363
2001.9  9.18389 104.776
2002.0  9.13289 102.351
2002.1  9.08189 101.385
2002.2  9.01694 100.428
2002.3  8.82632 99.5524
2002.4  8.63843 98.6808
2002.5  8.47293 97.8403
2002.6  8.36217 96.7922
2002.7  8.74344 93.878
2002.8  9.0883  90.9823
2002.9  9.1013  88.2888
2003.0  9.09132 85.5286
2003.1  8.87482 82.1691
2003.2  8.6851  78.8774
2003.3  8.73613 76.1913
2003.4  8.76668 73.5372
2003.5  8.61368 71.1422
2003.6  8.4684  68.7714
2003.7  8.39244 66.6177
2003.8  8.31123 64.1254
2003.9  8.18373 58.6164
2004.0  8.04477 53.1312
2004.1  7.80277 47.8592
2004.2  7.56084 43.4561
2004.3  7.31919 46.8666
2004.4  7.12873 50.2351
2004.5  7.39573 53.2621
2004.6  7.65896 56.4609
2004.7  7.88832 61.204
2004.8  8.12939 65.91
2004.9  8.47289 70.2245
2005.0  8.77054 74.4873
2005.1  8.65604 78.2853
2005.2  8.56316 82.1774
2005.3  8.66472 86.9213
2005.4  8.7522  91.069
2005.5  8.7142  89.9105
2005.6  8.68065 88.6195
2005.7  8.68715 86.1375
2005.8  8.70637 83.6525
2005.9  8.83987 81.1705
2006.0  8.95109 78.4011
2006.1  8.86209 73.0486
2006.2  8.74122 67.963
2006.3  8.33348 65.2728
2006.4  7.93006 62.5567
2006.5  7.56106 59.5777
2006.6  7.21119 56.5134
2006.7  7.0333  52.6823
2006.8  6.88702 48.7982
2006.9  7.02702 44.4857
2007.0  7.16957 41.1146
2007.1  7.33507 46.2046
2007.2  7.48905 51.2947
2007.3  7.53958 56.3918
2007.4  7.61689 60.9843
2007.5  7.93539 61.0968
2007.6  8.16852 60.6869
2007.7  7.63434 55.5826
2007.8  7.14279 50.5254
2007.9  7.04079 45.9554
2008.0  6.9528  41.2044
2008.1  6.9908  34.8259
2008.2  7.0225  28.8102
2008.3  6.99748 26.052
2008.4  6.97245 23.4037
2008.5  6.94695 21.7127
2008.6  6.93546 20.0503
2008.7  7.04989 18.6446
2008.8  7.1511  17.2654
2008.9  7.1321  16.1409
2009.0  7.10924 15.0522
2009.1  7.05174 14.2852
2009.2  6.9962  13.5604
2009.3  6.95817 13.2147
2009.4  6.93672 12.9668
2009.5  7.06372 13.5938
2009.6  7.17675 14.2596
2009.7  7.16426 15.2745
2009.8  7.1549  16.3239
2009.9  7.1739  17.6714
2010.0  7.1929  18.9522
2010.1  7.2119  19.6332
2010.2  7.23665 20.2825
2010.3  7.3132  20.6477
2010.4  7.39602 20.9706
2010.5  7.53602 20.9166
2010.6  7.63568 20.8343
2010.7  7.37284 20.498
2010.8  7.0948  20.1662
2010.9  6.6833  19.8787
2011.0  6.30915 19.6126
2011.1  6.27065 19.5386
2011.2  6.23095 19.4856
2011.3  6.18042 19.6211
2011.4  6.15918 19.7335
2011.5  6.40068 19.6385
2011.6  6.64221 19.5265
2011.7  6.88407 19.2616
2011.8  7.1052  18.9911
2011.9  7.1372  18.6726
2012.0  7.15383 18.3971
2012.1  7.03234 18.5081
2012.2  6.91219 18.6022
2012.3  6.80413 18.5442
2012.4  6.72357 18.4765
2012.5  6.88907 18.3215
2012.6  7.02144 18.1328
2012.7  6.85604 17.6411
2012.8  6.69038 17.1511
2012.9  6.52438 16.6826
2013.0  6.37885 16.2192
2013.1  6.41735 15.8022
2013.2  6.45325 15.4072
2013.3  6.46576 15.2091
2013.4  6.48466 15.0453
2013.5  6.56116 15.1883
2013.6  6.63725 15.2586
2013.7  6.70971 14.6755
2013.8  6.78947 14.0916
2013.9  6.93397 13.5086
2014.0  7.04738 12.9256
2014.1  6.88138 12.3426
2014.2  6.7371  11.7838
2014.3  6.78813 11.4421
2014.4  6.8302  11.1251
2014.5  6.7922  11.0261
2014.6  6.73504 11.5102
2014.7  6.50568 17.2352
2014.8  6.29004 22.6969
2014.9  6.20054 25.7219
2015.0  6.09832 28.4764
2015.1  5.88182 28.8004
2015.2  5.67804 29.1245
2015.3  5.58849 29.4497
2015.4  5.52077 29.3534
2015.5  5.64827 25.4719
2015.6  5.77065 21.7341
2015.7  5.84711 19.2881
2015.8  5.92111 16.961
2015.9  5.97211 15.7325
2016.0  5.99758 14.5377
2016.1  5.79358 13.6457
2016.2  5.60109 12.7901
2016.3  5.51204 12.2607
2016.4  5.41283 11.7381
2016.5  5.22133 11.2696
2016.6  5.049   10.8103
2016.7  5.049   10.4335
2016.8  5.06817 10.0213
2016.9  5.25967 9.29531
2017.0  5.42304 8.54718
2017.1  5.33354 7.60018
2017.2  5.28747 6.65124
2017.3  5.63218 5.68365
2017.4  5.97519 4.73415
2017.5  6.30669 3.93665
2017.6  6.57183 3.12709
2017.7  6.24053 2.20915
2017.8  5.92283 1.31136
2017.9  5.73133 0.605864
2018.0  5.53347 -0.1198
2018.1  5.27847 -1.0263
2018.2  5.0439  -1.8888
2018.3  4.99287 -2.3571
2018.4  4.96362 -2.7936
2018.5  5.12962 -2.9491
2018.6  5.28535 -3.0639
2018.7  5.34881 -2.8136
2018.8  5.4073  -2.5329
2018.9  5.4203  -1.9824
2019.0  5.42179 -1.4471
2019.1  5.31979 -1.0481
2019.2  5.24586 -0.5996
2019.3  5.42447 0.293899
2019.4  5.59777 1.06586
2019.5  5.72527 0.754862
2019.6  5.84    0.443881
2019.7  5.84    0.133071
2019.8  5.86168 -0.1336
2019.9  6.07818 0.000416368
2020.0  6.27726 0.178921
2020.1  6.31976 0.757421
2020.2  6.34354 1.33599
2020.3  6.19895 1.91584
2020.4  6.08051 2.21152
2020.5  6.19551 -0.0405
2020.6  6.28749 -2.1056
2020.7  6.17256 -2.4914
2020.8  6.06264 -2.7952
2020.9  5.99914 -2.3582
2021.0  5.93049 -1.9359
2021.1  5.81549 -1.6449
2021.2  5.72221 -1.3972
2021.3  5.82427 -1.5393
2021.4  5.91089 -1.7013
2021.5  5.85989 -2.0438
2021.6  5.8102  -2.3306
2021.7  5.77222 -2.1173
2021.8  5.75842 -1.8678
2021.9  5.96242 -1.2968
2022.0  6.14345 -0.7219
2022.1  6.11795 -0.1114
