# Выгружено из ПО "Атлас - Подсчет запасов"
############################################
~VERSION INFORMATION
#MNEM.UNIT                                    DATA : TYPE DESCRIPTION
VERS.                                         1.20 : CWLS LOG ASCII STANDARD_VERSION 1.20
WRAP.                                           NO : One line per depth step
############################################
~WELL INFORMATION
#MNEM.UNIT                                    DATA : TYPE DESCRIPTION
STRT.M                                      1050.0 : Start depth
STOP.M                                      3143.9 : Stop depth
STEP.M                                         0.1 : Step
NULL.                                      -999.25 : Null Value
WELL.                                           17 : 17
X.                                        12549147 : X-coordinate of Well Head
Y.                                         8019171 : Y-coordinate of Well Head
RKB.                                            33 : RKB
############################################
~CURVE INFORMATION
#MNEM.UNIT                                    DATA : TYPE DESCRIPTION
DEPT.M                                             : DEPT
ГК.у.е.                                            : 
ПС.мВ                                              : 
############################################
~ASCII
# ...
1854.6  8.19855 108.88
1854.7  8.22404 108.782
1854.8  8.23554 108.69
1854.9  8.12104 108.653
1855.0  8.03457 108.622
1855.1  8.20007 108.637
1855.2  8.33119 108.657
1855.3  8.15308 108.719
1855.4  7.99811 108.78
1855.5  8.04911 108.841
1855.6  8.10135 108.902
1855.7  8.16481 108.964
1855.8  8.22901 109.025
1855.9  8.29901 109.087
1856.0  8.37156 109.146
1856.1  8.46706 109.187
1856.2  8.55745 109.222
1856.3  8.60198 109.207
1856.4  8.62097 109.188
1856.5  8.41097 109.125
1856.6  8.23216 109.059
1856.7  8.33359 108.957
1856.8  8.4225  108.855
1856.9  8.3975  108.753
1857.0  8.39538 108.654
1857.1  8.59888 108.575
1857.2  8.7871  108.502
1857.3  8.83813 108.489
1857.4  8.87634 108.482
1857.5  8.79984 108.527
1857.6  8.7361  108.577
1857.7  8.78707 108.674
1857.8  8.85212 108.772
1857.9  9.04312 108.869
1858.0  9.20349 108.967
1858.1  9.08849 109.065
1858.2  8.9812  109.163
1858.3  8.94317 109.26
1858.4  8.909   109.358
1858.5  8.909   109.455
1858.6  8.9128  109.55
1858.7  8.95078 109.621
1858.8  8.99651 109.688
1858.9  9.11151 109.727
1859.0  9.20098 109.764
1859.1  9.06098 109.769
1859.2  8.92394 109.769
1859.3  8.81338 109.73
1859.4  8.72631 109.702
1859.5  8.84931 109.775
1859.6  8.93834 109.855
1859.7  8.72197 109.999
1859.8  8.51939 110.146
1859.9  8.44339 110.322
1860.0  8.375   110.476
1860.1  8.375   110.437
1860.2  8.38646 110.384
1860.3  8.50103 110.218
1860.4  8.59254 110.058
1860.5  8.47804 109.956
1860.6  8.3699  109.854
1860.7  8.31893 109.747
1860.8  8.27425 109.638
1860.9  8.28675 109.508
1861.0  8.29289 109.369
1861.1  8.24189 109.147
1861.2  8.18454 108.944
1861.3  8.06997 108.902
1861.4  7.94282 108.87
1861.5  7.70132 108.921
1861.6  7.47379 108.979
1861.7  7.37186 109.103
1861.8  7.29277 109.229
1861.9  7.42027 109.365
1862.0  7.54516 109.496
1862.1  7.64666 109.576
1862.2  7.74185 109.653
1862.3  7.78038 109.706
1862.4  7.82902 109.739
1862.5  7.96902 109.591
1862.6  8.07969 109.449
1862.7  7.92678 109.373
1862.8  7.80302 109.305
1862.9  7.94302 109.304
1863.0  8.0703  109.319
1863.1  8.0833  109.467
1863.2  8.08099 109.614
1863.3  7.94091 109.741
1863.4  7.83152 109.863
1863.5  7.99652 109.94
1863.6  8.12849 110.013
1863.7  7.96359 110.047
1863.8  7.83918 110.086
1863.9  8.08068 110.181
1864.0  8.29034 110.275
1864.1  8.21384 110.369
1864.2  8.1425  110.462
1864.3  8.11748 110.556
1864.4  8.07588 110.641
1864.5  7.88488 110.649
1864.6  7.72571 110.644
1864.7  7.85263 110.519
1864.8  7.95554 110.369
1864.9  7.84104 109.985
1865.0  7.75332 109.583
1865.1  7.90632 109.014
1865.2  8.04655 108.433
1865.3  8.07207 107.742
1865.4  8.07713 107.089
1865.5  7.89863 106.774
1865.6  7.74821 106.514
1865.7  7.85014 106.744
1865.8  7.9407  107
1865.9  7.9277  107.483
1866.0  7.91475 107.946
1866.1  7.90225 108.236
1866.2  7.90626 108.492
1866.3  8.05885 108.444
1866.4  8.19855 108.378
1866.5  8.22405 108.16
1866.6  8.26231 107.961
1866.7  8.41522 107.94
1866.8  8.54023 107.914
1866.9  8.41273 107.846
1867.0  8.28654 107.774
1867.1  8.17204 107.659
1867.2  8.06645 107.539
1867.3  8.04093 107.37
1867.4  8.03077 107.195
1867.5  8.15827 106.962
1867.6  8.27045 106.731
1867.7  8.24496 106.525
1867.8  8.20288 106.336
1867.9  8.01188 106.308
1868.0  7.84636 106.327
1868.1  7.90986 106.778
1868.2  7.9683  107.23
1868.3  7.98131 107.696
1868.4  8.01082 108.153
1868.5  8.18882 108.538
1868.6  8.33754 108.878
1868.7  8.22311 108.814
1868.8  8.12    108.749
1868.9  8.12    108.671
1869.0  8.11875 108.595
1869.1  8.10625 108.536
1869.2  8.07884 108.479
1869.3  7.91724 108.443
1869.4  7.76394 108.41
1869.5  7.68344 108.395
1869.6  7.61991 108.381
1869.7  7.70885 108.374
1869.8  7.79751 108.342
1869.9  7.88251 108.08
1870.0  7.96195 107.75
1870.1  7.99145 106.805
1870.2  8.03966 105.753
1870.3  8.2563  103.738
1870.4  8.44079 101.624
1870.5  8.33879 98.608
1870.6  8.26486 95.5021
1870.7  8.44325 91.588
1870.8  8.6027  87.0804
1870.9  8.5897  77.2859
1871.0  8.54741 68.6945
1871.1  8.24191 70.9165
1871.2  7.91737 73.1384
1871.3  7.42107 75.3622
1871.4  6.99537 77.2328
1871.5  7.19887 75.9523
1871.6  7.37815 74.6717
1871.7  7.33967 73.3905
1871.8  7.3025  72.8609
1871.9  7.2775  79.1024
1872.0  7.25625 85.148
1872.1  7.26875 89.433
1872.2  7.30927 93.6289
1872.3  7.60195 97.028
1872.4  7.90069 100.301
1872.5  8.25719 102.473
1872.6  8.61367 104.516
1872.7  8.96995 105.399
1872.8  9.29611 106.235
1872.9  9.34711 106.646
1873.0  9.39936 107.04
1873.1  9.46286 107.287
1873.2  9.50724 107.535
1873.3  9.37966 107.788
1873.4  9.26755 108.028
1873.5  9.29305 108.146
1873.6  9.31095 108.263
1873.7  9.26048 108.359
1873.8  9.2137  108.452
1873.9  9.2007  108.509
1874.0  9.19666 108.554
1874.1  9.27316 108.489
1874.2  9.3407  108.422
1874.3  9.32769 108.331
1874.4  9.30328 108.238
1874.5  9.17628 108.132
1874.6  9.07091 108.021
1874.7  9.15985 107.868
1874.8  9.23489 107.712
1874.9  9.18389 107.524
1875.0  9.12273 107.327
1875.1  8.97023 107.054
1875.2  8.81009 106.785
1875.3  8.58095 106.554
1875.4  8.40303 106.336
1875.5  8.68303 106.223
1875.6  8.92735 106.131
1875.7  8.85089 106.223
1875.8  8.79091 106.34
1875.9  8.87991 106.677
1876.0  8.91414 107.021
1876.1  8.45614 107.423
1876.2  8.03254 107.829
1876.3  7.91797 108.274
1876.4  7.83027 108.704
1876.5  7.98277 108.997
1876.6  8.13021 109.286
1876.7  8.23214 109.544
1876.8  8.32145 109.78
1876.9  8.29595 109.819
1877.0  8.26789 109.85
1877.1  8.21689 109.806
1877.2  8.17225 109.752
1877.3  8.18476 109.617
1877.4  8.17182 109.479
1877.5  7.93032 109.314
1877.6  7.7206  109.148
1877.7  7.79656 108.984
1877.8  7.85354 108.818
1877.9  7.73904 108.653
1878.0  7.66278 108.487
1878.1  7.93028 108.322
1878.2  8.171   108.171
1878.3  8.171   108.144
1878.4  8.14552 108.133
1878.5  7.89102 108.259
1878.6  7.65435 108.403
1878.7  7.57789 108.705
1878.8  7.49879 109.013
1878.9  7.39679 109.369
1879.0  7.31651 109.715
1879.1  7.43151 109.969
1879.2  7.55281 110.204
1879.3  7.73092 110.26
1879.4  7.90757 110.292
1879.5  8.07307 110.117
1879.6  8.20544 109.926
1879.7  8.04004 109.591
1879.8  7.88334 109.249
1879.9  7.80684 108.852
1880.0  7.74055 108.457
1880.1  7.76605 108.083
1880.2  7.78305 107.71
1880.3  7.72351 107.336
1880.4  7.66574 106.993
1880.5  7.62324 106.922
1880.6  7.5867  106.889
1880.7  7.60369 107.188
1880.8  7.61479 107.51
1880.9  7.57279 108.034
1881.0  7.54071 108.561
1881.1  7.59771 109.113
1881.2  7.66236 109.627
1881.3  7.79594 109.809
1881.4  7.92496 109.97
1881.5  8.01446 109.936
1881.6  8.08735 109.893
1881.7  8.01089 109.767
1881.8  7.95346 109.639
1881.9  8.06796 109.493
1882.0  8.16845 109.346
1882.1  8.14295 109.199
1882.2  8.10089 109.051
1882.3  7.90977 108.905
1882.4  7.74821 108.758
1882.5  7.85021 108.611
1882.6  7.9407  108.463
1882.7  7.92771 108.317
1882.8  7.92877 108.17
1882.9  8.05626 108.023
1883.0  8.1748  107.875
1883.1  8.2128  107.729
1883.2  8.25591 107.582
1883.3  8.34496 107.435
1883.4  8.43011 107.287
1883.5  8.48111 107.14
1883.6  8.5181  106.993
1883.7  8.42915 106.846
1883.8  8.3503  106.699
1883.9  8.3633  106.552
1884.0  8.3788  106.405
1884.1  8.4168  106.258
1884.2  8.46121 106.111
1884.3  8.56327 105.964
1884.4  8.66391 105.816
1884.5  8.75291 105.658
1884.6  8.82024 105.498
1884.7  8.69282 105.317
1884.8  8.5742  105.141
1884.9  8.5362  105.007
1885.0  8.52368 104.877
1885.1  8.74018 104.787
1885.2  8.93625 104.715
1885.3  8.94876 104.8
1885.4  8.97277 104.901
1885.5  9.10027 105.144
1885.6  9.20224 105.391
1885.7  9.07482 105.679
1885.8  8.95234 105.966
1885.9  8.87584 106.244
1886.0  8.79809 106.506
1886.1  8.70909 106.615
1886.2  8.64431 106.717
1886.3  8.7974  106.75
1886.4  8.92349 106.775
1886.5  8.80849 106.74
1886.6  8.69995 106.7
1886.7  8.64948 106.611
1886.8  8.61291 106.522
1886.9  8.70191 106.438
1887.0  8.75777 106.359
1887.1  8.51577 106.327
1887.2  8.30055 106.301
1887.3  8.32607 106.331
1887.4  8.33879 106.366
1887.5  8.23679 106.451
1887.6  8.1463  106.537
1887.7  8.15929 106.635
1887.8  8.171   106.733
1887.9  8.171   106.83
1888.0  8.15823 106.928
1888.1  8.03073 107.025
