# Выгружено из ПО "Атлас - Подсчет запасов"
############################################
~VERSION INFORMATION
#MNEM.UNIT                                    DATA : TYPE DESCRIPTION
VERS.                                         1.20 : CWLS LOG ASCII STANDARD_VERSION 1.20
WRAP.                                           NO : One line per depth step
############################################
~WELL INFORMATION
#MNEM.UNIT                                    DATA : TYPE DESCRIPTION
STRT.M                                      1050.0 : Start depth
STOP.M                                      3143.9 : Stop depth
STEP.M                                         0.1 : Step
NULL.                                      -999.25 : Null Value
WELL.                                           17 : 17
X.                                        12549147 : X-coordinate of Well Head
Y.                                         8019171 : Y-coordinate of Well Head
RKB.                                            33 : RKB
############################################
~CURVE INFORMATION
#MNEM.UNIT                                    DATA : TYPE DESCRIPTION
DEPT.M                                             : DEPT
ГК.у.е.                                            : 
ПС.мВ                                              : 
############################################
~ASCII
# ...
3095.3  -999.25 108.958
3095.4  -999.25 108.945
3095.5  -999.25 108.931
3095.6  -999.25 108.917
3095.7  -999.25 108.903
3095.8  -999.25 108.89
3095.9  -999.25 108.876
3096.0  -999.25 108.862
3096.1  -999.25 108.848
3096.2  -999.25 108.835
3096.3  -999.25 108.821
3096.4  -999.25 108.807
3096.5  -999.25 108.793
3096.6  -999.25 108.78
3096.7  -999.25 108.766
3096.8  -999.25 108.752
3096.9  -999.25 108.739
3097.0  -999.25 108.726
3097.1  -999.25 108.712
3097.2  -999.25 108.698
3097.3  -999.25 108.684
3097.4  -999.25 108.67
3097.5  -999.25 108.656
3097.6  -999.25 108.643
3097.7  -999.25 108.629
3097.8  -999.25 108.615
3097.9  -999.25 108.601
3098.0  -999.25 108.591
3098.1  -999.25 108.614
3098.2  -999.25 108.636
3098.3  -999.25 108.659
3098.4  -999.25 108.682
3098.5  -999.25 108.704
3098.6  -999.25 108.726
3098.7  -999.25 108.749
3098.8  -999.25 108.772
3098.9  -999.25 108.795
3099.0  -999.25 108.817
3099.1  -999.25 108.84
3099.2  -999.25 108.862
3099.3  -999.25 108.885
3099.4  -999.25 108.907
3099.5  -999.25 108.93
3099.6  -999.25 108.952
3099.7  -999.25 108.975
3099.8  -999.25 108.998
3099.9  -999.25 109.021
3100.0  -999.25 109.043
3100.1  -999.25 109.066
3100.2  -999.25 109.097
3100.3  -999.25 109.212
3100.4  -999.25 109.331
3100.5  -999.25 109.487
3100.6  -999.25 109.643
3100.7  -999.25 109.798
3100.8  -999.25 109.932
3100.9  -999.25 109.868
3101.0  -999.25 109.812
3101.1  -999.25 109.845
3101.2  -999.25 109.878
3101.3  -999.25 109.91
3101.4  -999.25 109.942
3101.5  -999.25 109.975
3101.6  -999.25 110.008
3101.7  -999.25 110.04
3101.8  -999.25 110.057
3101.9  -999.25 109.942
3102.0  -999.25 109.849
3102.1  -999.25 109.959
3102.2  -999.25 110.049
3102.3  -999.25 109.955
3102.4  -999.25 109.857
3102.5  -999.25 109.719
3102.6  -999.25 109.594
3102.7  -999.25 109.591
3102.8  -999.25 109.595
3102.9  -999.25 109.66
3103.0  -999.25 109.707
3103.1  -999.25 109.591
3103.2  -999.25 109.475
3103.3  -999.25 109.359
3103.4  -999.25 109.261
3103.5  -999.25 109.326
3103.6  -999.25 109.373
3103.7  -999.25 109.258
3103.8  -999.25 109.135
3103.9  -999.25 108.951
3104.0  -999.25 108.785
3104.1  -999.25 108.782
3104.2  -999.25 108.79
3104.3  -999.25 108.901
3104.4  -999.25 108.986
3104.5  -999.25 108.847
3104.6  -999.25 108.718
3104.7  -999.25 108.681
3104.8  -999.25 108.643
3104.9  -999.25 108.605
3105.0  -999.25 108.566
3105.1  -999.25 108.529
3105.2  -999.25 108.491
3105.3  -999.25 108.453
3105.4  -999.25 108.414
3105.5  -999.25 108.376
3105.6  -999.25 108.338
3105.7  -999.25 108.3
3105.8  -999.25 108.262
3105.9  -999.25 108.224
3106.0  -999.25 108.186
3106.1  -999.25 108.148
3106.2  -999.25 108.11
3106.3  -999.25 108.072
3106.4  -999.25 108.043
3106.5  -999.25 108.094
3106.6  -999.25 108.144
3106.7  -999.25 108.193
3106.8  -999.25 108.243
3106.9  -999.25 108.293
3107.0  -999.25 108.344
3107.1  -999.25 108.394
3107.2  -999.25 108.444
3107.3  -999.25 108.494
3107.4  -999.25 108.544
3107.5  -999.25 108.594
3107.6  -999.25 108.644
3107.7  -999.25 108.694
3107.8  -999.25 108.744
3107.9  -999.25 108.794
3108.0  -999.25 108.845
3108.1  -999.25 108.895
3108.2  -999.25 108.944
3108.3  -999.25 108.987
3108.4  -999.25 109.02
3108.5  -999.25 108.972
3108.6  -999.25 108.938
3108.7  -999.25 109.026
3108.8  -999.25 109.098
3108.9  -999.25 109.027
3109.0  -999.25 108.979
3109.1  -999.25 109.134
3109.2  -999.25 109.271
3109.3  -999.25 109.246
3109.4  -999.25 109.209
3109.5  -999.25 109.06
3109.6  -999.25 108.927
3109.7  -999.25 108.948
3109.8  -999.25 108.969
3109.9  -999.25 108.99
3110.0  -999.25 109.011
3110.1  -999.25 109.033
3110.2  -999.25 109.054
3110.3  -999.25 109.075
3110.4  -999.25 109.093
3110.5  -999.25 109.079
3110.6  -999.25 109.076
3110.7  -999.25 109.164
3110.8  -999.25 109.243
3110.9  -999.25 109.24
3111.0  -999.25 109.228
3111.1  -999.25 109.134
3111.2  -999.25 109.052
3111.3  -999.25 109.072
3111.4  -999.25 109.092
3111.5  -999.25 109.112
3111.6  -999.25 109.132
3111.7  -999.25 109.151
3111.8  -999.25 109.151
3111.9  -999.25 108.967
3112.0  -999.25 108.794
3112.1  -999.25 108.723
3112.2  -999.25 108.663
3112.3  -999.25 108.706
3112.4  -999.25 108.751
3112.5  -999.25 108.816
3112.6  -999.25 108.861
3112.7  -999.25 108.722
3112.8  -999.25 108.591
3112.9  -999.25 108.543
3113.0  -999.25 108.508
3113.1  -999.25 108.589
3113.2  -999.25 108.656
3113.3  -999.25 108.594
3113.4  -999.25 108.532
3113.5  -999.25 108.469
3113.6  -999.25 108.406
3113.7  -999.25 108.344
3113.8  -999.25 108.282
3113.9  -999.25 108.219
3114.0  -999.25 108.157
3114.1  -999.25 108.094
3114.2  -999.25 108.032
3114.3  -999.25 107.969
3114.4  -999.25 107.907
3114.5  -999.25 107.844
3114.6  -999.25 107.784
3114.7  -999.25 107.741
3114.8  -999.25 107.7
3114.9  -999.25 107.676
3115.0  -999.25 107.657
3115.1  -999.25 107.686
3115.2  -999.25 107.712
3115.3  -999.25 107.709
3115.4  -999.25 107.706
3115.5  -999.25 107.703
3115.6  -999.25 107.701
3115.7  -999.25 107.698
3115.8  -999.25 107.695
3115.9  -999.25 107.692
3116.0  -999.25 107.689
3116.1  -999.25 107.686
3116.2  -999.25 107.684
3116.3  -999.25 107.681
3116.4  -999.25 107.678
3116.5  -999.25 107.675
3116.6  -999.25 107.673
3116.7  -999.25 107.67
3116.8  -999.25 107.667
3116.9  -999.25 107.664
3117.0  -999.25 107.662
3117.1  -999.25 107.659
3117.2  -999.25 107.656
3117.3  -999.25 107.653
3117.4  -999.25 107.65
3117.5  -999.25 107.647
3117.6  -999.25 107.645
3117.7  -999.25 107.642
3117.8  -999.25 107.639
3117.9  -999.25 107.636
3118.0  -999.25 107.634
3118.1  -999.25 107.631
3118.2  -999.25 107.628
3118.3  -999.25 107.625
3118.4  -999.25 107.623
3118.5  -999.25 107.62
3118.6  -999.25 107.616
3118.7  -999.25 107.604
3118.8  -999.25 107.593
3118.9  -999.25 107.58
3119.0  -999.25 107.568
3119.1  -999.25 107.555
3119.2  -999.25 107.543
3119.3  -999.25 107.531
3119.4  -999.25 107.519
3119.5  -999.25 107.507
3119.6  -999.25 107.495
3119.7  -999.25 107.483
3119.8  -999.25 107.471
3119.9  -999.25 107.458
3120.0  -999.25 107.446
3120.1  -999.25 107.434
3120.2  -999.25 107.423
3120.3  -999.25 107.41
3120.4  -999.25 107.398
3120.5  -999.25 107.385
3120.6  -999.25 107.373
3120.7  -999.25 107.361
3120.8  -999.25 107.35
3120.9  -999.25 107.337
3121.0  -999.25 107.325
3121.1  -999.25 107.313
3121.2  -999.25 107.301
3121.3  -999.25 107.288
3121.4  -999.25 107.276
3121.5  -999.25 107.264
3121.6  -999.25 107.253
3121.7  -999.25 107.24
3121.8  -999.25 107.228
3121.9  -999.25 107.216
3122.0  -999.25 107.2
3122.1  -999.25 107.152
3122.2  -999.25 107.099
3122.3  -999.25 107.005
3122.4  -999.25 106.928
3122.5  -999.25 106.993
3122.6  -999.25 107.047
3122.7  -999.25 106.999
3122.8  -999.25 106.952
3122.9  -999.25 106.928
3123.0  -999.25 106.912
3123.1  -999.25 106.977
3123.2  -999.25 107.042
3123.3  -999.25 107.107
3123.4  -999.25 107.163
3123.5  -999.25 107.138
3123.6  -999.25 107.126
3123.7  -999.25 107.237
3123.8  -999.25 107.334
3123.9  -999.25 107.309
3124.0  -999.25 107.286
3124.1  -999.25 107.283
3124.2  -999.25 107.273
3124.3  -999.25 107.202
3124.4  -999.25 107.135
3124.5  -999.25 107.11
3124.6  -999.25 107.096
3124.7  -999.25 107.184
3124.8  -999.25 107.259
3124.9  -999.25 107.211
3125.0  -999.25 107.16
3125.1  -999.25 107.089
3125.2  -999.25 107.029
3125.3  -999.25 107.072
3125.4  -999.25 107.117
3125.5  -999.25 107.183
3125.6  -999.25 107.234
3125.7  -999.25 107.152
3125.8  -999.25 107.077
3125.9  -999.25 107.054
3126.0  -999.25 107.032
3126.1  -999.25 107.009
3126.2  -999.25 106.987
3126.3  -999.25 106.964
3126.4  -999.25 106.941
3126.5  -999.25 106.918
3126.6  -999.25 106.896
3126.7  -999.25 106.873
3126.8  -999.25 106.851
3126.9  -999.25 106.828
3127.0  -999.25 106.806
3127.1  -999.25 106.783
3127.2  -999.25 106.77
3127.3  -999.25 106.848
3127.4  -999.25 106.913
3127.5  -999.25 106.865
3127.6  -999.25 106.824
3127.7  -999.25 106.843
3127.8  -999.25 106.854
3127.9  -999.25 106.784
3128.0  -999.25 106.72
3128.1  -999.25 106.717
3128.2  -999.25 106.714
3128.3  -999.25 106.711
3128.4  -999.25 106.709
3128.5  -999.25 106.706
3128.6  -999.25 106.703
3128.7  -999.25 106.7
