# Выгружено из ПО "Атлас - Подсчет запасов"
############################################
~VERSION INFORMATION
#MNEM.UNIT                                    DATA : TYPE DESCRIPTION
VERS.                                         1.20 : CWLS LOG ASCII STANDARD_VERSION 1.20
WRAP.                                           NO : One line per depth step
############################################
~WELL INFORMATION
#MNEM.UNIT                                    DATA : TYPE DESCRIPTION
STRT.M                                      1050.0 : Start depth
STOP.M                                      3143.9 : Stop depth
STEP.M                                         0.1 : Step
NULL.                                      -999.25 : Null Value
WELL.                                           17 : 17
X.                                        12549147 : X-coordinate of Well Head
Y.                                         8019171 : Y-coordinate of Well Head
RKB.                                            33 : RKB
############################################
~CURVE INFORMATION
#MNEM.UNIT                                    DATA : TYPE DESCRIPTION
DEPT.M                                             : DEPT
ГК.у.е.                                            : 
ПС.мВ                                              : 
############################################
~ASCII
# ...
2693.0  9.0761  -999.25
2693.1  9.05707 -999.25
2693.2  9.03299 -999.25
2693.3  8.96291 -999.25
2693.4  8.89615 -999.25
2693.5  8.85765 -999.25
2693.6  8.7809  -999.25
2693.7  8.36091 -999.25
2693.8  7.95772 -999.25
2693.9  7.71552 -999.25
2694.0  7.49064 -999.25
2694.1  7.42706 -999.25
2694.2  7.3317  -999.25
2694.3  6.94874 -999.25
2694.4  6.605   -999.25
2694.5  6.605   -999.25
2694.6  6.59349 -999.25
2694.7  6.47863 -999.25
2694.8  6.40308 -999.25
2694.9  6.68324 -999.25
2695.0  6.94111 -999.25
2695.1  6.99217 -999.25
2695.2  7.02654 -999.25
2695.3  6.9119  -999.25
2695.4  6.80645 -999.25
2695.5  6.78095 -999.25
2695.6  6.76311 -999.25
2695.7  6.81404 -999.25
2695.8  6.85234 -999.25
2695.9  6.77593 -999.25
2696.0  6.7108  -999.25
2696.1  6.74885 -999.25
2696.2  6.77789 -999.25
2696.3  6.72683 -999.25
2696.4  6.6702  -999.25
2696.5  6.5622  -999.25
2696.6  6.45028 -999.25
2696.7  6.30346 -999.25
2696.8  6.21105 -999.25
2696.9  6.61056 -999.25
2697.0  6.98772 -999.25
2697.1  7.15492 -999.25
2697.2  7.32623 -999.25
2697.3  7.53848 -999.25
2697.4  7.75365 -999.25
2697.5  8.00015 -999.25
2697.6  8.23602 -999.25
2697.7  8.37585 -999.25
2697.8  8.53639 -999.25
2697.9  8.87947 -999.25
2698.0  9.20046 -999.25
2698.1  9.3151  -999.25
2698.2  9.42185 -999.25
2698.3  9.4604  -999.25
2698.4  9.509   -999.25
2698.5  9.649   -999.25
2698.6  9.7737  -999.25
2698.7  9.76071 -999.25
2698.8  9.75666 -999.25
2698.9  9.83307 -999.25
2699.0  9.90455 -999.25
2699.1  9.93008 -999.25
2699.2  9.95045 -999.25
2699.3  9.92492 -999.25
2699.4  9.888   -999.25
2699.5  9.748   -999.25
2699.6  9.62711 -999.25
2699.7  9.67804 -999.25
2699.8  9.69852 -999.25
2699.9  9.44433 -999.25
2700.0  9.23793 -999.25
2700.1  9.46721 -999.25
2700.2  9.62074 -999.25
2700.3  9.0981  -999.25
2700.4  8.6392  -999.25
2700.5  8.7412  -999.25
2700.6  8.81898 -999.25
2700.7  8.67915 -999.25
2700.8  8.553   -999.25
2700.9  8.553   -999.25
2701.0  8.54154 -999.25
2701.1  8.4269  -999.25
2701.2  8.30743 -999.25
2701.3  8.14173 -999.25
2701.4  7.9841  -999.25
2701.5  7.8951  -999.25
2701.6  7.82006 -999.25
2701.7  7.87049 -999.25
2701.8  7.90454 -999.25
2701.9  7.79018 -999.25
2702.0  7.68189 -999.25
2702.1  7.63083 -999.25
2702.2  7.56593 -999.25
2702.3  7.37519 -999.25
2702.4  7.2116  -999.25
2702.5  7.2876  -999.25
2702.6  7.38403 -999.25
2702.7  7.66369 -999.25
2702.8  7.90839 -999.25
2702.9  7.83248 -999.25
2703.0  7.77416 -999.25
2703.1  7.87579 -999.25
2703.2  7.98742 -999.25
2703.3  8.19167 -999.25
2703.4  8.35205 -999.25
2703.5  8.12255 -999.25
2703.6  7.92746 -999.25
2703.7  8.04182 -999.25
2703.8  8.12593 -999.25
2703.9  7.93566 -999.25
2704.0  7.77546 -999.25
2704.1  7.8901  -999.25
2704.2  7.99936 -999.25
2704.3  8.06293 -999.25
2704.4  8.15435 -999.25
2704.5  8.49785 -999.25
2704.6  8.79298 -999.25
2704.7  8.65315 -999.25
2704.8  8.49386 -999.25
2704.9  8.16326 -999.25
2705.0  7.90325 -999.25
2705.1  8.28571 -999.25
2705.2  8.67235 -999.25
2705.3  9.10588 -999.25
2705.4  9.49625 -999.25
2705.5  9.50875 -999.25
2705.6  9.53146 -999.25
2705.7  9.64582 -999.25
2705.8  9.73754 -999.25
2705.9  9.62318 -999.25
2706.0  9.54548 -999.25
2706.1  9.80029 -999.25
2706.2  10.0405 -999.25
2706.3  10.1551 -999.25
2706.4  10.2657 -999.25
2706.5  10.3422 -999.25
2706.6  10.4072 -999.25
2706.7  10.3692 -999.25
2706.8  10.3337 -999.25
2706.9  10.3207 -999.25
2707.0  10.2831 -999.25
2707.1  10.0243 -999.25
2707.2  9.80221 -999.25
2707.3  9.90434 -999.25
2707.4  9.98325 -999.25
2707.5  9.85575 -999.25
2707.6  9.76653 -999.25
2707.7  10.0212 -999.25
2707.8  10.2727 -999.25
2707.9  10.4895 -999.25
2708.0  10.6773 -999.25
2708.1  10.6007 -999.25
2708.2  10.5128 -999.25
2708.3  10.3211 -999.25
2708.4  10.1694 -999.25
2708.5  10.3734 -999.25
2708.6  10.5723 -999.25
2708.7  10.7251 -999.25
2708.8  10.8502 -999.25
2708.9  10.7229 -999.25
2709.0  10.5901 -999.25
2709.1  10.4114 -999.25
2709.2  10.2727 109.685
2709.3  10.49   109.725
2709.4  10.699  109.764
2709.5  10.839  109.804
2709.6  10.9701 109.844
2709.7  11.021  109.883
2709.8  11.0798 109.922
2709.9  11.2071 109.962
2710.0  11.3284 110.002
2710.1  11.3925 110.042
2710.2  11.4436 110.081
2710.3  11.3795 110.12
2710.4  11.3258 110.159
2710.5  11.3644 110.199
2710.6  11.4181 110.244
2710.7  11.6089 110.336
2710.8  11.7631 110.427
2710.9  11.5848 110.518
2711.0  11.4457 110.609
2711.1  11.663  110.701
2711.2  11.8682 110.793
2711.3  11.9703 110.885
2711.4  12.0454 110.945
2711.5  11.8794 110.729
2711.6  11.7453 110.523
2711.7  11.8981 110.408
2711.8  12.0367 110.253
2711.9  12.0431 109.752
2712.0  12.0292 109.188
2712.1  11.8315 108.072
2712.2  11.6387 107.072
2712.3  11.4855 107.093
2712.4  11.3084 107.118
2712.5  10.9129 107.192
2712.6  10.4817 107.288
2712.7  9.73063 107.573
2712.8  9.0517  107.881
2712.9  9.03871 108.378
2713.0  9.03596 108.854
2713.1  9.12557 109.129
2713.2  9.22387 109.405
2713.3  9.40259 109.68
2713.4  9.56045 109.952
2713.5  9.53495 110.196
2713.6  9.53753 110.424
2713.7  9.79222 110.508
2713.8  10.0399 110.554
2713.9  10.2182 110.258
2714.0  10.3803 109.92
2714.1  10.3928 109.225
2714.2  10.3861 108.597
2714.3  10.2074 108.561
2714.4  10.0407 108.537
2714.5  9.97715 108.626
2714.6  9.94678 108.729
2714.7  10.214  108.954
2714.8  10.4614 109.164
2714.9  10.5253 109.23
2715.0  10.597  109.325
2715.1  10.7372 109.687
2715.2  10.8528 110.028
2715.3  10.7507 110.185
2715.4  10.6705 110.325
2715.5  10.7855 110.299
2715.6  10.9081 110.273
2715.7  11.0989 110.237
2715.8  11.2684 110.191
2715.9  11.243  110.054
2716.0  11.2251 109.89
2716.1  11.2762 109.49
2716.2  11.3667 109.122
2716.3  11.8137 109.029
2716.4  12.1704 108.911
2716.5  11.7239 108.568
2716.6  11.3092 108.219
2716.7  11.1819 107.808
2716.8  11.0696 107.438
2716.9  11.095  107.436
2717.0  11.095  107.447
2717.1  10.8652 107.582
2717.2  10.5773 107.71
2717.3  9.7603  107.776
2717.4  9.00025 107.858
2717.5  8.73275 108.084
2717.6  8.50857 108.286
2717.7  8.67387 108.284
2717.8  8.8243  108.271
2717.9  8.83729 108.156
2718.0  8.84004 108.022
2718.1  8.75043 107.725
2718.2  8.65598 107.435
2718.3  8.51581 107.205
2718.4  8.41805 106.986
2718.5  8.69855 106.853
2718.6  8.98164 106.728
2718.7  9.28726 106.67
2718.8  9.563   106.612
2718.9  9.563   106.561
2719.0  9.58342 106.511
2719.1  9.78767 106.468
2719.2  9.96845 106.426
2719.3  9.94292 106.383
2719.4  9.89365 106.341
2719.5  9.63015 106.297
2719.6  9.40571 106.254
2719.7  9.53256 106.211
2719.8  9.65341 106.169
2719.9  9.71733 106.126
2720.0  9.8132  106.084
2720.1  10.1952 106.041
2720.2  10.5342 105.998
2720.3  10.4961 105.955
2720.4  10.4454 105.88
2720.5  10.28   105.514
2720.6  10.1208 105.138
2720.7  10.0189 104.66
2720.8  9.93846 104.171
2720.9  10.0528 103.602
2721.0  10.1662 103.049
2721.1  10.2683 102.661
2721.2  10.3472 102.278
2721.3  10.2196 101.935
2721.4  10.0681 101.604
2721.5  9.6991  101.375
2721.6  9.29947 101.147
2721.7  8.62579 100.937
2721.8  8.00654 100.745
2721.9  7.89218 100.713
2722.0  7.79536 100.681
2722.1  7.85894 100.648
2722.2  7.90328 100.621
2722.3  7.77613 100.645
2722.4  7.66835 100.7
2722.5  7.73185 101.038
2722.6  7.789   101.375
2722.7  7.789   101.691
2722.8  7.77498 102.009
2722.9  7.63515 102.325
2723.0  7.509   102.643
2723.1  7.509   102.961
2723.2  7.52302 103.278
2723.3  7.66319 103.596
2723.4  7.7661  103.913
2723.5  7.5371  104.23
2723.6  7.34311 104.548
2723.7  7.46397 104.865
2723.8  7.59232 105.183
2723.9  7.78509 105.499
2724.0  8.00401 105.817
2724.1  8.45405 106.135
2724.2  8.92298 106.452
2724.3  9.57277 106.77
2724.4  10.1459 107.066
2724.5  10.0443 107.171
2724.6  9.93513 107.277
2724.7  9.75685 107.382
2724.8  9.62153 107.489
2724.9  9.87622 107.594
2725.0  10.1175 107.678
2725.1  10.2321 107.563
2725.2  10.3528 107.448
2725.3  10.531  107.333
2725.4  10.6796 107.204
2725.5  10.5651 106.959
2725.6  10.4735 106.739
2725.7  10.5878 106.739
2725.8  10.6655 106.736
2725.9  10.4113 106.71
2726.0  10.1884 106.682
2726.1  10.2519 106.629
2726.2  10.323  106.576
2726.3  10.4632 106.523
