# Выгружено из ПО "Атлас - Подсчет запасов"
############################################
~VERSION INFORMATION
#MNEM.UNIT                                    DATA : TYPE DESCRIPTION
VERS.                                         1.20 : CWLS LOG ASCII STANDARD_VERSION 1.20
WRAP.                                           NO : One line per depth step
############################################
~WELL INFORMATION
#MNEM.UNIT                                    DATA : TYPE DESCRIPTION
STRT.M                                      1050.0 : Start depth
STOP.M                                      3143.9 : Stop depth
STEP.M                                         0.1 : Step
NULL.                                      -999.25 : Null Value
WELL.                                           17 : 17
X.                                        12549147 : X-coordinate of Well Head
Y.                                         8019171 : Y-coordinate of Well Head
RKB.                                            33 : RKB
############################################
~CURVE INFORMATION
#MNEM.UNIT                                    DATA : TYPE DESCRIPTION
DEPT.M                                             : DEPT
ГК.у.е.                                            : 
ПС.мВ                                              : 
############################################
~ASCII
# ...
2827.0  -999.25 99.1627
2827.1  -999.25 99.1792
2827.2  -999.25 99.223
2827.3  -999.25 99.5128
2827.4  -999.25 99.8019
2827.5  -999.25 100.091
2827.6  -999.25 100.38
2827.7  -999.25 100.669
2827.8  -999.25 100.948
2827.9  -999.25 101.123
2828.0  -999.25 101.29
2828.1  -999.25 101.375
2828.2  -999.25 101.466
2828.3  -999.25 101.619
2828.4  -999.25 101.753
2828.5  -999.25 101.724
2828.6  -999.25 101.677
2828.7  -999.25 101.467
2828.8  -999.25 101.267
2828.9  -999.25 101.171
2829.0  -999.25 101.058
2829.1  -999.25 100.802
2829.2  -999.25 100.541
2829.3  -999.25 100.239
2829.4  -999.25 99.9311
2829.5  -999.25 99.5615
2829.6  -999.25 99.201
2829.7  -999.25 98.9219
2829.8  -999.25 98.6329
2829.9  -999.25 98.2623
2830.0  -999.25 97.9092
2830.1  -999.25 97.7209
2830.2  -999.25 97.5149
2830.3  -999.25 97.144
2830.4  -999.25 96.8126
2830.5  -999.25 96.8291
2830.6  -999.25 96.8457
2830.7  -999.25 96.8621
2830.8  -999.25 96.8787
2830.9  -999.25 96.8951
2831.0  -999.25 96.9117
2831.1  -999.25 96.9287
2831.2  -999.25 96.9457
2831.3  -999.25 96.9622
2831.4  -999.25 96.9946
2831.5  -999.25 97.1706
2831.6  -999.25 97.3307
2831.7  -999.25 97.3471
2831.8  -999.25 97.3637
2831.9  -999.25 97.3801
2832.0  -999.25 97.3967
2832.1  -999.25 97.4132
2832.2  -999.25 97.4297
2832.3  -999.25 97.4467
2832.4  -999.25 97.4636
2832.5  -999.25 97.4801
2832.6  -999.25 97.4913
2832.7  -999.25 97.4543
2832.8  -999.25 97.412
2832.9  -999.25 97.3226
2833.0  -999.25 97.233
2833.1  -999.25 97.1429
2833.2  -999.25 97.0648
2833.3  -999.25 97.0923
2833.4  -999.25 97.1314
2833.5  -999.25 97.2759
2833.6  -999.25 97.4204
2833.7  -999.25 97.5642
2833.8  -999.25 97.7143
2833.9  -999.25 97.9165
2834.0  -999.25 98.1193
2834.1  -999.25 98.322
2834.2  -999.25 98.5243
2834.3  -999.25 98.7276
2834.4  -999.25 98.9303
2834.5  -999.25 99.1328
2834.6  -999.25 99.3353
2834.7  -999.25 99.5375
2834.8  -999.25 99.7403
2834.9  -999.25 99.9425
2835.0  -999.25 100.143
2835.1  -999.25 100.319
2835.2  -999.25 100.479
2835.3  -999.25 100.495
2835.4  -999.25 100.512
2835.5  -999.25 100.529
2835.6  -999.25 100.546
2835.7  -999.25 100.562
2835.8  -999.25 100.581
2835.9  -999.25 100.62
2836.0  -999.25 100.648
2836.1  -999.25 100.573
2836.2  -999.25 100.503
2836.3  -999.25 100.474
2836.4  -999.25 100.443
2836.5  -999.25 100.391
2836.6  -999.25 100.319
2836.7  -999.25 100.063
2836.8  -999.25 99.7834
2836.9  -999.25 99.299
2837.0  -999.25 98.8318
2837.1  -999.25 98.5294
2837.2  -999.25 98.2277
2837.3  -999.25 97.9248
2837.4  -999.25 97.6292
2837.5  -999.25 97.3906
2837.6  -999.25 97.1585
2837.7  -999.25 96.9842
2837.8  -999.25 96.8095
2837.9  -999.25 96.6347
2838.0  -999.25 96.4851
2838.1  -999.25 96.5657
2838.2  -999.25 96.646
2838.3  -999.25 96.7261
2838.4  -999.25 96.8131
2838.5  -999.25 96.9646
2838.6  -999.25 97.1232
2838.7  -999.25 97.3444
2838.8  -999.25 97.5662
2838.9  -999.25 97.7874
2839.0  -999.25 98.0092
2839.1  -999.25 98.2309
2839.2  -999.25 98.4522
2839.3  -999.25 98.674
2839.4  -999.25 98.8952
2839.5  -999.25 99.1172
2839.6  -999.25 99.3392
2839.7  -999.25 99.5604
2839.8  -999.25 99.7806
2839.9  -999.25 99.9864
2840.0  -999.25 100.191
2840.1  -999.25 100.382
2840.2  -999.25 100.572
2840.3  -999.25 100.763
2840.4  -999.25 100.953
2840.5  -999.25 101.144
2840.6  -999.25 101.334
2840.7  -999.25 101.524
2840.8  -999.25 101.715
2840.9  -999.25 101.905
2841.0  -999.25 102.083
2841.1  -999.25 102.146
2841.2  -999.25 102.215
2841.3  -999.25 102.345
2841.4  -999.25 102.477
2841.5  -999.25 102.631
2841.6  -999.25 102.775
2841.7  -999.25 102.837
2841.8  -999.25 102.902
2841.9  -999.25 102.986
2842.0  -999.25 103.056
2842.1  -999.25 102.981
2842.2  -999.25 102.904
2842.3  -999.25 102.807
2842.4  -999.25 102.714
2842.5  -999.25 102.662
2842.6  -999.25 102.611
2842.7  -999.25 102.559
2842.8  -999.25 102.502
2842.9  -999.25 102.405
2843.0  -999.25 102.291
2843.1  -999.25 102.035
2843.2  -999.25 101.788
2843.3  -999.25 101.622
2843.4  -999.25 101.47
2843.5  -999.25 101.441
2843.6  -999.25 101.419
2843.7  -999.25 101.458
2843.8  -999.25 101.484
2843.9  -999.25 101.387
2844.0  -999.25 101.28
2844.1  -999.25 101.092
2844.2  -999.25 100.934
2844.3  -999.25 101.041
2844.4  -999.25 101.137
2844.5  -999.25 101.131
2844.6  -999.25 101.103
2844.7  -999.25 100.869
2844.8  -999.25 100.646
2844.9  -999.25 100.526
2845.0  -999.25 100.423
2845.1  -999.25 100.485
2845.2  -999.25 100.563
2845.3  -999.25 100.785
2845.4  -999.25 100.982
2845.5  -999.25 100.953
2845.6  -999.25 100.929
2845.7  -999.25 100.945
2845.8  -999.25 100.962
2845.9  -999.25 100.978
2846.0  -999.25 100.995
2846.1  -999.25 101.011
2846.2  -999.25 101.028
2846.3  -999.25 101.045
2846.4  -999.25 101.068
2846.5  -999.25 101.154
2846.6  -999.25 101.209
2846.7  -999.25 101
2846.8  -999.25 100.81
2846.9  -999.25 100.804
2847.0  -999.25 100.786
2847.1  -999.25 100.666
2847.2  -999.25 100.556
2847.3  -999.25 100.528
2847.4  -999.25 100.497
2847.5  -999.25 100.445
2847.6  -999.25 100.388
2847.7  -999.25 100.291
2847.8  -999.25 100.187
2847.9  -999.25 100.023
2848.0  -999.25 99.8552
2848.1  -999.25 99.6669
2848.2  -999.25 99.4792
2848.3  -999.25 99.2909
2848.4  -999.25 99.1124
2848.5  -999.25 99.0159
2848.6  -999.25 98.8828
2848.7  -999.25 98.4224
2848.8  -999.25 98.0087
2848.9  -999.25 98.0251
2849.0  -999.25 98.0417
2849.1  -999.25 98.0582
2849.2  -999.25 98.0747
2849.3  -999.25 98.0912
2849.4  -999.25 98.112
2849.5  -999.25 98.1714
2849.6  -999.25 98.2309
2849.7  -999.25 98.2898
2849.8  -999.25 98.3489
2849.9  -999.25 98.4078
2850.0  -999.25 98.4669
2850.1  -999.25 98.526
2850.2  -999.25 98.5849
2850.3  -999.25 98.6434
2850.4  -999.25 98.7019
2850.5  -999.25 98.7609
2850.6  -999.25 98.82
2850.7  -999.25 98.8794
2850.8  -999.25 98.9277
2850.9  -999.25 98.8748
2851.0  -999.25 98.8264
2851.1  -999.25 98.8198
2851.2  -999.25 98.8066
2851.3  -999.25 98.7325
2851.4  -999.25 98.6517
2851.5  -999.25 98.5087
2851.6  -999.25 98.3681
2851.7  -999.25 98.2492
2851.8  -999.25 98.1323
2851.9  -999.25 98.0354
2852.0  -999.25 97.9246
2852.1  -999.25 97.6908
2852.2  -999.25 97.4463
2852.3  -999.25 97.0988
2852.4  -999.25 96.7728
2852.5  -999.25 96.6302
2852.6  -999.25 96.465
2852.7  -999.25 96.0954
2852.8  -999.25 95.7228
2852.9  -999.25 95.3312
2853.0  -999.25 94.9547
2853.1  -999.25 94.7214
2853.2  -999.25 94.4658
2853.3  -999.25 94.0043
2853.4  -999.25 93.5462
2853.5  -999.25 93.1087
2853.6  -999.25 92.6871
2853.7  -999.25 92.4084
2853.8  -999.25 92.1269
2853.9  -999.25 91.8262
2854.0  -999.25 91.5225
2854.1  -999.25 91.1976
2854.2  -999.25 90.8917
2854.3  -999.25 90.7491
2854.4  -999.25 90.5932
2854.5  -999.25 90.3147
2854.6  -999.25 90.0997
2854.7  -999.25 90.4563
2854.8  -999.25 90.7888
2854.9  -999.25 90.8967
2855.0  -999.25 90.9797
2855.1  -999.25 90.8371
2855.2  -999.25 90.6879
2855.3  -999.25 90.4766
2855.4  -999.25 90.2932
2855.5  -999.25 90.3552
2855.6  -999.25 90.4354
2855.7  -999.25 90.6791
2855.8  -999.25 90.9166
2855.9  -999.25 91.0919
2856.0  -999.25 91.2812
2856.1  -999.25 91.5936
2856.2  -999.25 91.9052
2856.3  -999.25 92.2176
2856.4  -999.25 92.5269
2856.5  -999.25 92.8159
2856.6  -999.25 93.1186
2856.7  -999.25 93.5436
2856.8  -999.25 93.9719
2856.9  -999.25 94.4199
2857.0  -999.25 94.8575
2857.1  -999.25 95.1929
2857.2  -999.25 95.5422
2857.3  -999.25 96.0238
2857.4  -999.25 96.4779
2857.5  -999.25 96.6969
2857.6  -999.25 96.9159
2857.7  -999.25 97.1347
2857.8  -999.25 97.3539
2857.9  -999.25 97.5727
2858.0  -999.25 97.7919
2858.1  -999.25 98.0106
2858.2  -999.25 98.229
2858.3  -999.25 98.4487
2858.4  -999.25 98.6609
2858.5  -999.25 98.8099
2858.6  -999.25 98.9483
2858.7  -999.25 98.9912
2858.8  -999.25 99.039
2858.9  -999.25 99.1289
2859.0  -999.25 99.219
2859.1  -999.25 99.3091
2859.2  -999.25 99.3991
2859.3  -999.25 99.4897
2859.4  -999.25 99.5799
2859.5  -999.25 99.6694
2859.6  -999.25 99.759
2859.7  -999.25 99.8489
2859.8  -999.25 99.939
2859.9  -999.25 100.029
2860.0  -999.25 100.117
2860.1  -999.25 100.182
2860.2  -999.25 100.245
2860.3  -999.25 100.287
2860.4  -999.25 100.328
