# Выгружено из ПО "Атлас - Подсчет запасов"
############################################
~VERSION INFORMATION
#MNEM.UNIT                                    DATA : TYPE DESCRIPTION
VERS.                                         1.20 : CWLS LOG ASCII STANDARD_VERSION 1.20
WRAP.                                           NO : One line per depth step
############################################
~WELL INFORMATION
#MNEM.UNIT                                    DATA : TYPE DESCRIPTION
STRT.M                                      1050.0 : Start depth
STOP.M                                      3143.9 : Stop depth
STEP.M                                         0.1 : Step
NULL.                                      -999.25 : Null Value
WELL.                                           17 : 17
X.                                        12549147 : X-coordinate of Well Head
Y.                                         8019171 : Y-coordinate of Well Head
RKB.                                            33 : RKB
############################################
~CURVE INFORMATION
#MNEM.UNIT                                    DATA : TYPE DESCRIPTION
DEPT.M                                             : DEPT
ГК.у.е.                                            : 
ПС.мВ                                              : 
############################################
~ASCII
# ...
1720.5  9.20786 87.8833
1720.6  9.24974 80.3897
1720.7  9.09733 82.7243
1720.8  8.95875 85.0617
1720.9  8.94625 87.3962
1721.0  8.92989 89.7308
1721.1  8.87889 92.0658
1721.2  8.8368  94.4007
1721.3  8.87483 96.7376
1721.4  8.87586 98.9336
1721.5  8.54486 99.8881
1721.6  8.25085 100.705
1721.7  8.28933 100.28
1721.8  8.33036 97.1156
1721.9  8.39386 69.3251
1722.0  8.43318 43.3717
1722.1  8.25518 33.9302
1722.2  8.08349 25.1599
1722.3  7.96842 22.4187
1722.4  7.84337 19.7839
1722.5  7.62737 18.0749
1722.6  7.4279  16.4257
1722.7  7.37693 15.3144
1722.8  7.33225 14.2512
1722.9  7.34475 13.6342
1723.0  7.32541 13.0602
1723.1  7.01991 12.8722
1723.2  6.7425  12.7834
1723.3  6.71748 13.5879
1723.4  6.70837 14.471
1723.5  6.84187 16.0695
1723.6  6.97025 17.716
1723.7  7.0527  19.7932
1723.8  7.14102 21.9422
1723.9  7.28102 24.7112
1724.0  7.40189 27.4431
1724.1  7.35089 29.8416
1724.2  7.32541 32.2099
1724.3  7.52954 34.3092
1724.4  7.7512  36.0578
1724.5  8.1327  34.6773
1724.6  8.50402 33.2968
1724.7  8.78385 31.9167
1724.8  9.04111 30.5348
1724.9  9.09211 29.1548
1725.0  9.15077 29.4585
1725.1  9.27826 44.895
1725.2  9.38154 59.6311
1725.3  9.26697 68.0823
1725.4  9.17036 76.0332
1725.5  9.23386 79.5812
1725.6  9.2961  83.0394
1725.7  9.34707 85.6903
1725.8  9.393   88.348
1725.9  9.393   91.0345
1726.0  9.39811 93.6191
1726.1  9.44911 95.2881
1726.2  9.4975  96.9448
1726.3  9.52252 98.4927
1726.4  9.54755 99.7883
1726.5  9.57305 98.8328
1726.6  9.60495 97.8773
1726.7  9.6944  96.9214
1726.8  9.77625 96.1962
1726.9  9.78875 97.5562
1727.0  9.79234 98.8823
1727.1  9.71584 99.9043
1727.2  9.63684 100.947
1727.3  9.53528 102.178
1727.4  9.43379 103.334
1727.5  9.33179 103.835
1727.6  9.24255 104.313
1727.7  9.26804 104.592
1727.8  9.27823 104.836
1727.9  9.15073 104.768
1728.0  9.02964 104.688
1728.1  8.96614 104.503
1728.2  8.89629 104.341
1728.3  8.76921 104.387
1728.4  8.68048 104.432
1728.5  8.93498 104.477
1728.6  9.14999 104.522
1728.7  9.01008 104.567
1728.8  8.8878  104.624
1728.9  8.9258  104.788
1729.0  8.97277 104.964
1729.1  9.10027 105.247
1729.2  9.2099  105.529
1729.3  9.15887 105.812
1729.4  9.10915 106.094
1729.5  9.07065 106.377
1729.6  9.03985 106.66
1729.7  9.07833 106.943
1729.8  9.11425 107.227
1729.9  9.12675 107.513
1730.0  9.14311 107.778
1730.1  9.19411 107.861
1730.2  9.21834 107.924
1730.3  9.0017  107.802
1730.4  8.81466 107.673
1730.5  8.89116 107.469
1730.6  8.93198 107.254
1730.7  8.65215 106.941
1730.8  8.39109 106.635
1730.9  8.30209 106.384
1731.0  8.22711 106.151
1731.1  8.27811 106.072
1731.2  8.33926 106.006
1731.3  8.49185 106.065
1731.4  8.62645 106.138
1731.5  8.60095 106.337
1731.6  8.578   106.55
1731.7  8.578   106.888
1731.8  8.57675 107.224
1731.9  8.56425 107.542
1732.0  8.56572 107.86
1732.1  8.69272 108.178
1732.2  8.81085 108.496
1732.3  8.84938 108.815
1732.4  8.85466 109.107
1732.5  8.56166 109.17
1732.6  8.2929  109.233
1732.7  8.24193 109.297
1732.8  8.18584 109.341
1732.9  8.08434 109.214
1733.0  7.99425 109.067
1733.1  8.00675 108.749
1733.2  8.04602 108.43
1733.3  8.32619 108.111
1733.4  8.59838 107.239
1733.5  8.80188 101.401
1733.6  8.9914  95.5635
1733.7  9.05536 89.7261
1733.8  9.08111 83.8815
1733.9  8.76261 78.0435
1734.0  8.46584 73.2503
1734.1  8.36434 77.8473
1734.2  8.273   82.1791
1734.3  8.273   84.1298
1734.4  8.273   86.1631
1734.5  8.273   88.9611
1734.6  8.27555 91.8345
1734.7  8.30104 95.3853
1734.8  8.33672 98.4702
1734.9  8.46372 97.3232
1735.0  8.56654 95.8383
1735.1  8.45204 91.3168
1735.2  8.34009 87.6079
1735.3  8.25104 91.2071
1735.4  8.17225 93.5811
1735.5  8.18475 84.9821
1735.6  8.2011  77.601
1735.7  8.25207 81.1668
1735.8  8.30055 84.737
1735.9  8.32605 88.3025
1736.0  8.33628 91.3788
1736.1  8.20928 90.0583
1736.2  8.03767 88.7211
1736.3  7.46432 87.2317
1736.4  6.94264 86.2808
1736.5  6.87914 90.1538
1736.6  6.81054 94.0269
1736.7  6.69611 97.901
1736.8  6.60572 101.591
1736.9  6.73272 103.581
1737.0  6.87098 104.026
1737.1  7.11048 90.5969
1737.2  7.36317 77.7122
1737.3  7.7349  69.7138
1737.4  8.0703  61.6102
1737.5  8.0833  52.4737
1737.6  8.11281 43.5199
1737.7  8.2907  36.2079
1737.8  8.46347 29.2425
1737.9  8.58797 25.482
1738.0  8.71937 22.1102
1738.1  8.91287 22.2322
1738.2  9.0883  22.7458
1738.3  9.10131 26.7838
1738.4  9.12316 30.7906
1738.5  9.22466 34.5616
1738.6  9.32621 38.0516
1738.7  9.42814 39.0165
1738.8  9.53277 39.5854
1738.9  9.66027 36.5834
1739.0  9.73931 33.4213
1739.1  9.38281 28.8203
1739.2  9.05179 24.2023
1739.3  8.94973 19.4248
1739.4  8.82741 15.115
1739.5  8.52191 14.955
1739.6  8.25085 15.3636
1739.7  8.28933 20.8833
1739.8  8.3278  26.218
1739.9  8.3658  29.824
1740.0  8.42803 33.4271
1740.1  8.70803 37.0036
1740.2  8.94474 40.6921
1740.3  8.79215 45.393
1740.4  8.63202 50.3784
1740.5  8.40252 57.9734
1740.6  8.2024  64.8292
1740.7  8.26637 65.0411
1740.8  8.31254 65.0992
1740.9  8.19804 63.7727
1741.0  8.0937  62.292
1741.1  8.0807  59.4255
1741.2  8.069   56.5591
1741.3  8.069   53.6898
1741.4  8.09448 51.4842
1741.5  8.34898 55.2117
1741.6  8.5729  58.9206
1741.7  8.52193 62.4625
1741.8  8.49768 66.0286
1741.9  8.71418 69.7696
1742.0  8.89243 73.5158
1742.1  8.72693 77.3093
1742.2  8.59586 80.9757
1742.3  8.77447 83.5027
1742.4  8.9337  86.0387
1742.5  8.9207  88.6827
1742.6  8.9128  91.2794
1742.7  8.95078 93.4511
1742.8  8.9863  95.5634
1742.9  8.9993  97.1154
1743.0  9.01736 98.2774
1743.1  9.08086 95.9339
1743.2  9.09983 93.5904
1743.3  8.71809 91.2439
1743.4  8.37245 88.9004
1743.5  8.34695 86.5569
1743.6  8.32715 84.5801
1743.7  8.35863 85.8998
1743.8  8.3889  87.3109
1743.9  8.4079  89.5274
1744.0  8.40848 91.7515
1744.1  8.24348 94.044
1744.2  8.08099 96.3254
1744.3  7.94091 98.5092
1744.4  7.82006 100.644
1744.5  7.87056 102.359
1744.6  7.93001 104.03
1744.7  8.06992 105.305
1744.8  8.20496 106.527
1744.9  8.29446 107.252
1745.0  8.38391 107.908
1745.1  8.47291 107.94
1745.2  8.51858 107.93
1745.3  8.17437 107.549
1745.4  7.85739 107.148
1745.5  7.78139 106.556
1745.6  7.72446 105.971
1745.7  7.83889 105.442
1745.8  7.94966 104.959
1745.9  8.02616 104.888
1746.0  8.08989 104.861
1746.1  8.03889 105.222
1746.2  8.01211 105.604
1746.3  8.20323 106.179
1746.4  8.36799 106.725
1746.5  8.29799 107.023
1746.6  8.22289 107.297
1746.7  8.10197 107.343
1746.8  7.97643 107.367
1746.9  7.81093 107.199
1747.0  7.6596  107.032
1747.1  7.6356  106.879
1747.2  7.62711 106.755
1747.3  7.75819 106.889
1747.4  7.88912 107.04
1747.5  8.02012 107.353
1747.6  8.14856 107.665
1747.7  8.25399 107.973
1747.8  8.35791 108.273
1747.9  8.44691 108.506
1748.0  8.51939 108.717
1748.1  8.44339 108.722
1748.2  8.38856 108.716
1748.3  8.52414 108.621
1748.4  8.64895 108.511
1748.5  8.67845 108.27
1748.6  8.67953 108.03
1748.7  8.42519 107.794
1748.8  8.19345 107.543
1748.9  8.16795 107.158
1749.0  8.13484 106.723
1749.1  8.03334 105.833
1749.2  7.9439  104.598
1749.3  7.96291 100.243
1749.4  8.00613 95.2033
1749.5  8.26713 83.9498
1749.6  8.51346 73.8017
1749.7  8.62789 73.5894
1749.8  8.75012 73.9283
1749.9  8.94112 79.2248
1750.0  9.12827 84.1334
1750.1  9.28077 85.5559
1750.2  9.41165 87.0828
1750.3  9.34811 89.5514
1750.4  9.30757 92.0571
1750.5  9.47307 94.9251
1750.6  9.60799 97.7539
1750.7  9.46808 100.23
1750.8  9.35216 102.649
1750.9  9.45366 104.512
1751.0  9.53228 106.287
1751.1  9.40528 107.266
1751.2  9.26809 108.202
1751.3  9.03895 108.755
1751.4  8.85338 109.204
1751.5  9.05688 108.727
1751.6  9.22344 108.301
1751.7  9.05804 108.327
1751.8  8.91666 108.403
1751.9  8.99316 108.933
1752.0  9.05689 109.462
1752.1  9.00589 109.991
1752.2  8.9562  110.486
1752.3  8.91817 110.671
1752.4  8.87759 110.821
1752.5  8.81359 110.662
1752.6  8.7573  110.503
1752.7  8.77029 110.344
1752.8  8.78711 110.184
1752.9  8.83811 110.026
1753.0  8.89802 109.867
1753.1  9.03802 109.708
1753.2  9.14999 109.548
1753.3  9.00991 109.388
1753.4  8.89546 109.229
1753.5  9.00996 109.07
1753.6  9.1079  108.95
1753.7  9.05693 109.175
1753.8  9.03523 109.385
1753.9  9.27723 109.443
