# Выгружено из ПО "Атлас - Подсчет запасов"
############################################
~VERSION INFORMATION
#MNEM.UNIT                                    DATA : TYPE DESCRIPTION
VERS.                                         1.20 : CWLS LOG ASCII STANDARD_VERSION 1.20
WRAP.                                           NO : One line per depth step
############################################
~WELL INFORMATION
#MNEM.UNIT                                    DATA : TYPE DESCRIPTION
STRT.M                                      1050.0 : Start depth
STOP.M                                      3143.9 : Stop depth
STEP.M                                         0.1 : Step
NULL.                                      -999.25 : Null Value
WELL.                                           17 : 17
X.                                        12549147 : X-coordinate of Well Head
Y.                                         8019171 : Y-coordinate of Well Head
RKB.                                            33 : RKB
############################################
~CURVE INFORMATION
#MNEM.UNIT                                    DATA : TYPE DESCRIPTION
DEPT.M                                             : DEPT
ГК.у.е.                                            : 
ПС.мВ                                              : 
############################################
~ASCII
# ...
1184.1  4.80691 34.1507
1184.2  4.8934  35.713
1184.3  4.95744 38.1925
1184.4  5.01115 40.615
1184.5  4.97265 42.5525
1184.6  4.94946 44.3197
1184.7  5.06389 44.556
1184.8  5.15939 44.7925
1184.9  5.08339 45.0275
1185.0  5.03027 45.2888
1185.1  5.18277 45.7863
1185.2  5.3162  46.3338
1185.3  5.27817 47.3314
1185.4  5.23123 48.3278
1185.5  5.10373 49.3243
1185.6  4.9839  50.3208
1185.7  4.93293 51.3177
1185.8  4.87298 52.3049
1185.9  4.73298 53.1924
1186.0  4.62742 53.9557
1186.1  4.83142 53.6032
1186.2  5.00099 53.2125
1186.3  4.86091 52.4776
1186.4  4.75152 51.7499
1186.5  4.91652 51.0794
1186.6  5.05995 50.6667
1186.7  5.00948 52.5716
1186.8  4.99964 55.1635
1186.9  5.35564 63.9075
1187.0  5.6773  72.6006
1187.1  5.6903  80.8361
1187.2  5.68414 88.7973
1187.3  5.50553 94.3001
1187.4  5.32848 99.3635
1187.5  5.16348 100.538
1187.6  4.98948 101.571
1187.7  4.73464 101.346
1187.8  4.51011 101.183
1187.9  4.56111 101.578
1188.0  4.60445 101.176
1188.1  4.57895 93.6199
1188.2  4.5611  85.9031
1188.3  4.61213 76.7346
1188.4  4.6593  67.0543
1188.5  4.6723  52.6748
1188.6  4.69416 39.4324
1188.7  4.79559 36.4097
1188.8  4.89721 33.6507
1188.9  4.99921 33.2982
1189.0  5.10372 33.089
1189.1  5.23072 34.168
1189.2  5.3425  35.2437
1189.3  5.31748 36.2909
1189.4  5.30391 37.2986
1189.5  5.39291 37.9641
1189.6  5.47385 38.5372
1189.7  5.48235 38.2799
1189.8  5.50061 38.0096
1189.9  5.60661 37.6256
1190.0  5.68969 37.2288
1190.1  5.56668 36.7173
1190.2  5.44664 36.279
1190.3  5.35309 36.4991
1190.4  5.25628 36.7827
1190.5  5.12928 37.6387
1190.6  4.99589 38.5774
1190.7  4.805   40.2594
1190.8  4.62915 41.918
1190.9  4.59065 43.3465
1191.0  4.55855 44.4979
1191.1  4.58405 43.1589
1191.2  4.61721 41.7915
1191.3  4.71927 40.166
1191.4  4.79954 38.8512
1191.5  4.68504 40.3117
1191.6  4.57565 41.7308
1191.7  4.51218 42.7771
1191.8  4.4575  43.5191
1191.9  4.4825  41.5126
1192.0  4.48848 39.4997
1192.1  4.32348 37.4292
1192.2  4.1826  35.3939
1192.3  4.25865 33.6728
1192.4  4.34677 32.0844
1192.5  4.54427 31.6684
1192.6  4.7223  31.3224
1192.7  4.7253  31.6057
1192.8  4.7299  31.8798
1192.9  4.7489  32.0678
1193.0  4.76315 32.2558
1193.1  4.73465 32.4438
1193.2  4.7103  32.634
1193.3  4.72331 32.8436
1193.4  4.72223 33.053
1193.5  4.59473 33.2625
1193.6  4.48125 33.4719
1193.7  4.49374 33.6808
1193.8  4.505   33.9218
1193.9  4.505   34.4493
1194.0  4.51011 34.9768
1194.1  4.56111 35.5038
1194.2  4.6121  36.0308
1194.3  4.66313 36.5592
1194.4  4.69879 37.0623
1194.5  4.59679 37.3453
1194.6  4.49484 37.6189
1194.7  4.39341 37.8072
1194.8  4.3007  37.9353
1194.9  4.2877  37.5193
1195.0  4.28621 37.0269
1195.1  4.38821 35.8469
1195.2  4.48465 34.8198
1195.3  4.53118 35.1675
1195.4  4.58491 35.5339
1195.5  4.70391 36.0719
1195.6  4.81225 36.5462
1195.7  4.82474 36.4483
1195.8  4.82328 36.3279
1195.9  4.69628 36.0074
1196.0  4.58711 35.6964
1196.1  4.63811 35.4704
1196.2  4.68905 35.2508
1196.3  4.73958 35.0892
1196.4  4.77674 34.966
1196.5  4.69424 35.1855
1196.6  4.61044 35.4783
1196.7  4.515   36.4297
1196.8  4.43921 37.4077
1196.9  4.54121 38.6137
1197.0  4.62023 39.6287
1197.1  4.49273 38.9262
1197.2  4.3793  38.1378
1197.3  4.39231 36.5759
1197.4  4.40655 35.0316
1197.5  4.43205 33.6291
1197.6  4.46646 32.3635
1197.7  4.58089 32.3291
1197.8  4.67889 32.4633
1197.9  4.62789 34.1143
1198.0  4.60493 35.8609
1198.1  4.83393 38.4664
1198.2  5.04635 40.9954
1198.3  5.10989 42.839
1198.4  5.20249 44.3715
1198.5  5.55699 43.128
1198.6  5.90357 41.8814
1198.7  6.1789  40.6072
1198.8  6.45463 39.2899
1198.9  6.73063 37.6014
1199.0  6.98896 36.0913
1199.1  7.08846 36.1843
1199.2  7.18375 36.3537
1199.3  7.24129 37.2102
1199.4  7.29746 37.9853
1199.5  7.34196 38.0378
1199.6  7.3807  38.1087
1199.7  7.36771 38.345
1199.8  7.36366 38.7703
1199.9  7.44016 40.8903
1200.0  7.48863 43.0589
1200.1  7.28513 45.6644
1200.2  7.1058  47.84
1200.3  7.14383 46.1505
1200.4  7.17545 44.565
1200.5  7.14995 43.896
1200.6  7.13591 43.3033
1200.7  7.22485 43.3957
1200.8  7.305   43.5391
1200.9  7.305   44.1391
1201.0  7.28593 44.5676
1201.1  7.09543 43.4546
1201.2  6.90359 42.2909
1201.3  6.69946 40.6694
1201.4  6.49693 39.1196
1201.5  6.30643 38.1966
1201.6  6.14005 37.334
1201.7  6.19052 37.0142
1201.8  6.22584 -999.25
1201.9  6.12434 -999.25
1202.0  6.04827 -999.25
1202.1  6.20077 -999.25
1202.2  6.32399 -999.25
1202.3  6.18391 -999.25
1202.4  6.07202 -999.25
1202.5  6.21202 -999.25
1202.6  6.32529 -999.25
1202.7  6.19837 -999.25
1202.8  6.08015 -999.25
1202.9  6.04165 -999.25
1203.0  6.00575 41.0808
1203.1  5.99325 40.3793
1203.2  5.98665 39.6777
1203.3  6.03318 38.9748
1203.4  6.08691 38.4594
1203.5  6.20591 39.6219
1203.6  6.30915 40.7844
1203.7  6.27067 41.9467
1203.8  6.23985 43.1103
1203.9  6.27835 44.2723
1204.0  6.29768 45.2405
1204.1  6.14468 44.4665
1204.2  5.99684 43.6925
1204.3  5.89528 42.917
1204.4  5.77977 42.1425
1204.5  5.53777 41.3685
1204.6  5.33146 40.8146
1204.7  5.44589 42.2387
1204.8  5.55666 43.714
1204.9  5.63316 45.6315
1205.0  5.73384 47.5488
1205.1  6.05184 49.4648
1205.2  6.34821 51.3602
1205.3  6.45027 53.0717
1205.4  6.56873 54.6257
1205.5  6.83573 54.7822
1205.6  7.10021 54.7376
1205.7  7.34207 52.8863
1205.8  7.55109 51.1204
1205.9  7.46209 50.1454
1206.0  7.35266 49.1637
1206.1  7.05966 48.1222
1206.2  6.7884  47.171
1206.3  6.71235 47.0315
1206.4  6.65672 46.8049
1206.5  6.78372 45.7949
1206.6  6.898   44.9865
1206.7  6.898   45.9904
1206.8  6.91077 46.9695
1206.9  7.03827 47.714
1207.0  7.1517  48.4031
1207.1  7.1387  48.5941
1207.2  7.1321  48.7956
1207.3  7.18313 49.0918
1207.4  7.2303  49.3577
1207.5  7.2433  49.3553
1207.6  7.24224 49.3724
1207.7  7.11482 49.5663
1207.8  6.97963 49.8451
1207.9  6.77612 50.8846
1208.0  6.58659 51.9079
1208.1  6.52259 52.7859
1208.2  6.46375 53.6003
1208.3  6.45124 53.8429
1208.4  6.47569 54.1122
1208.5  6.83219 54.6237
1208.6  7.1568  55.0252
1208.7  7.19478 54.4375
1208.8  7.21879 53.8626
1208.9  7.11679 53.4091
1209.0  7.02375 52.9001
1209.1  7.01125 51.8926
1209.2  6.99745 50.8411
1209.3  6.97193 49.3917
1209.4  6.9452  47.9797
1209.5  6.9072  46.8877
1209.6  6.89016 45.5759
1209.7  7.06156 42.2889
1209.8  7.19497 39.2211
1209.9  6.98497 38.1636
1210.0  6.80877 37.3291
1210.1  6.93627 38.4986
1210.2  7.06881 39.6401
1210.3  7.24692 40.5311
1210.4  7.38663 41.367
1210.5  7.18313 41.717
1210.6  6.99745 41.9634
1210.7  6.97196 41.2783
1210.8  6.93879 40.4551
1210.9  6.83679 38.3991
1211.0  6.745   36.3604
1211.1  6.745   34.4764
1211.2  6.71828 32.6939
1211.3  6.45112 31.8234
1211.4  6.21611 31.0168
1211.5  6.26711 30.7753
1211.6  6.30915 30.5139
1211.7  6.27067 30.0731
1211.8  6.23985 29.726
1211.9  6.27835 30.2255
1212.0  6.3168  30.703
1212.1  6.3548  30.9825
1212.2  6.41066 31.2589
1212.3  6.6273  31.5075
1212.4  6.81309 31.7727
1212.5  6.72409 32.1892
1212.6  6.65291 32.745
1212.7  6.74185 34.5529
1212.8  6.82646 36.282
1212.9  6.87096 37.281
1213.0  6.91546 38.2309
1213.1  6.95996 38.7394
1213.2  7.0051  39.2314
1213.3  7.05613 39.5751
1213.4  7.10325 39.8802
1213.5  7.11575 39.8427
1213.6  7.14356 39.9321
1213.7  7.30896 41.1613
1213.8  7.46436 42.3922
1213.9  7.52786 43.6227
1214.0  7.58885 44.8685
1214.1  7.62735 46.2515
1214.2  7.66455 47.6324
1214.3  7.69007 48.9968
1214.4  7.7168  50.3605
1214.5  7.7548  51.734
1214.6  7.75973 53.0553
1214.7  7.46741 53.9067
1214.8  7.18102 54.8033
1214.9  6.95152 56.0948
1215.0  6.73864 56.5842
1215.1  6.67514 49.8647
1215.2  6.63456 43.5591
1215.3  6.80016 40.97
1215.4  6.92227 38.4556
1215.5  6.65527 36.5836
1215.6  6.41625 35.0113
1215.7  6.42874 36.1331
1215.8  6.44511 37.2633
1215.9  6.49611 38.4553
1216.0  6.54836 39.9083
1216.1  6.61186 43.7068
1216.2  6.68301 47.0687
1216.3  6.82309 46.5059
1216.4  6.9452  46.0624
1216.5  6.9072  46.6859
1216.6  6.88571 47.2719
1216.7  7.01263 47.5202
1216.8  7.12765 47.947
1216.9  7.13415 49.9745
1217.0  7.12919 51.4765
1217.1  7.02119 48.2555
1217.2  6.92525 45.1981
1217.3  6.93776 43.6086
1217.4  6.93754 41.6645
1217.5  6.82304 36.516
