# Выгружено из ПО "Атлас - Подсчет запасов"
############################################
~VERSION INFORMATION
#MNEM.UNIT                                    DATA : TYPE DESCRIPTION
VERS.                                         1.20 : CWLS LOG ASCII STANDARD_VERSION 1.20
WRAP.                                           NO : One line per depth step
############################################
~WELL INFORMATION
#MNEM.UNIT                                    DATA : TYPE DESCRIPTION
STRT.M                                      1050.0 : Start depth
STOP.M                                      3143.9 : Stop depth
STEP.M                                         0.1 : Step
NULL.                                      -999.25 : Null Value
WELL.                                           17 : 17
X.                                        12549147 : X-coordinate of Well Head
Y.                                         8019171 : Y-coordinate of Well Head
RKB.                                            33 : RKB
############################################
~CURVE INFORMATION
#MNEM.UNIT                                    DATA : TYPE DESCRIPTION
DEPT.M                                             : DEPT
ГК.у.е.                                            : 
ПС.мВ                                              : 
############################################
~ASCII
# ...
2156.2  8.65832 103.83
2156.3  8.44156 102.065
2156.4  8.23685 100.455
2156.5  8.13535 100.2
2156.6  8.06818 99.9455
2156.7  8.30938 99.6908
2156.8  8.55378 99.2866
2156.9  8.82096 97.5473
2157.0  9.06325 95.9021
2157.1  9.07577 95.1426
2157.2  9.07173 94.4641
2157.3  8.91904 94.4946
2157.4  8.7909  94.5161
2157.5  8.8799  94.4566
2157.6  8.95109 94.4616
2157.7  8.8622  95.0459
2157.8  8.79216 95.6887
2157.9  8.89354 96.8433
2158.0  8.95952 98.0154
2158.1  8.70471 99.3195
2158.2  8.49257 100.624
2158.3  8.65827 101.959
2158.4  8.80575 103.244
2158.5  8.79325 104.113
2158.6  8.80408 104.965
2158.7  9.02431 105.652
2158.8  9.25699 106.297
2158.9  9.59608 106.542
2159.0  9.8988  106.761
2159.1  9.86676 106.732
2159.2  9.83485 106.703
2159.3  9.80331 106.67
2159.4  9.7457  106.615
2159.5  9.4527  106.36
2159.6  9.17498 106.115
2159.7  9.03515 105.955
2159.8  8.90009 105.782
2159.9  8.8112  105.499
2160.0  8.71823 105.234
2160.1  8.59058 105.139
2160.2  8.5155  105.072
2160.3  8.91048 105.261
2160.4  9.29175 105.454
2160.5  9.55925 105.685
2160.6  9.80255 105.911
2160.7  9.82802 106.105
2160.8  9.86487 106.268
2160.9  10.0032 106.146
2161.0  10.1369 106.03
2161.1  10.226  105.964
2161.2  10.2845 105.911
2161.3  10.0692 105.979
2161.4  9.84545 106.085
2161.5  9.53995 106.537
2161.6  9.26886 107
2161.7  9.30731 107.564
2161.8  9.33054 108.121
2161.9  9.21618 108.599
2162.0  9.11615 109.053
2162.1  9.14769 109.286
2162.2  9.16393 109.479
2162.3  9.04329 109.334
2162.4  8.9108  109.156
2162.5  8.6688  108.688
2162.6  8.43954 108.217
2162.7  8.32518 107.724
2162.8  8.21815 107.248
2162.9  8.17969 106.948
2163.0  8.145   106.677
2163.1  8.145   106.666
2163.2  8.17814 106.662
2163.3  8.50955 106.712
2163.4  8.83755 106.762
2163.5  9.14305 106.813
2163.6  9.43332 106.863
2163.7  9.58613 106.913
2163.8  9.71354 106.954
2163.9  9.60917 106.911
2164.0  9.51906 106.859
2164.1  9.5596  106.734
2164.2  9.57307 106.596
2164.3  9.34379 106.338
2164.4  9.1329  106.061
2164.5  9.0819  105.615
2164.6  9.02584 105.164
2164.7  8.92446 104.662
2164.8  8.85212 104.152
2164.9  9.04289 103.571
2165.0  9.2137  103.009
2165.1  9.20068 102.627
2165.2  9.18389 102.272
2165.3  9.13283 102.138
2165.4  9.0692  102.049
2165.5  8.8912  102.354
2165.6  8.73611 102.689
2165.7  8.78704 103.298
2165.8  8.81513 103.93
2165.9  8.63685 104.752
2166.0  8.48366 105.518
2166.1  8.56025 105.772
2166.2  8.65448 105.957
2166.3  8.90929 105.535
2166.4  9.1062  105.086
2166.5  8.7882  104.378
2166.6  8.47907 103.686
2166.7  8.25035 103.134
2166.8  8.03504 102.601
2166.9  7.94565 102.243
2167.0  7.9058  101.922
2167.1  8.3138  101.945
2167.2  8.67875 101.975
2167.3  8.66623 102.06
2167.4  8.62445 102.205
2167.5  8.31895 102.881
2167.6  8.01211 103.555
2167.7  7.694   104.208
2167.8  7.43503 104.845
2167.9  7.71469 105.332
2168.0  7.97211 105.802
2168.1  8.02317 106.116
2168.2  8.09703 106.403
2168.3  8.37738 106.465
2168.4  8.6341  106.519
2168.5  8.6851  106.496
2168.6  8.73611 106.479
2168.7  8.78704 106.506
2168.8  8.85463 106.548
2168.9  9.07036 106.721
2169.0  9.25484 106.969
2169.1  9.15321 107.897
2169.2  9.03011 108.724
2169.3  8.71122 108.656
2169.4  8.43585 108.588
2169.5  8.54435 108.52
2169.6  8.62543 108.268
2169.7  8.46013 106.374
2169.8  8.30144 104.476
2169.9  8.20605 102.583
2170.0  8.05757 100.431
2170.1  7.43331 95.996
2170.2  6.85007 91.7868
2170.3  6.62079 89.5045
2170.4  6.4875  87.1779
2170.5  7.2125  84.3969
2170.6  7.92748 81.6422
2170.7  8.55071 79.1308
2170.8  9.13718 76.3463
2170.9  9.37838 71.1716
2171.0  9.53738 66.3928
2171.1  8.95116 65.291
2171.2  8.41228 63.7701
2171.3  8.28513 58.4511
2171.4  8.1672  52.8969
2171.5  8.1292  45.0965
2171.6  8.095   37.6187
2171.7  8.095   33.0573
2171.8  8.08734 28.7021
2171.9  8.01093 26.309
2172.0  7.95602 23.6439
2172.1  8.09619 18.5827
2172.2  8.28698 13.9775
2172.3  8.93677 13.3522
2172.4  9.55945 12.7921
2172.5  9.95395 12.8031
2172.6  10.1803 13.5459
2172.7  8.89636 20.8575
2172.8  7.72784 27.6539
2172.9  7.62646 29.6485
2173.0  7.52349 31.648
2173.1  7.40835 33.6479
2173.2  7.3012  37.3289
2173.3  7.26315 56.1879
2173.4  7.229   73.718
2173.5  7.229   79.7486
2173.6  7.25258 85.6805
2173.7  7.48779 90.7134
2173.8  7.72783 95.2551
2173.9  8.00549 95.2661
2174.0  8.28233 94.8538
2174.1  8.54565 90.6316
2174.2  8.79982 85.9731
2174.3  8.97804 77.284
2174.4  9.152   69.0043
2174.5  9.292   64.1979
2174.6  9.4142  59.5171
2174.7  9.37624 55.9769
2174.8  9.31777 52.5135
2174.9  9.07607 49.8248
2175.0  8.81725 47.3604
2175.1  8.40975 46.9739
2175.2  8.01086 46.5883
2175.3  7.67946 46.2013
2175.4  7.382   46.9229
2175.5  7.382   57.6114
2175.6  7.40368 68.0563
2175.7  7.61991 76.2887
2175.8  7.83663 83.9823
2175.9  8.05236 86.6385
2176.0  8.25466 89.3012
2176.1  8.33125 91.9635
2176.2  8.42037 94.6193
2176.3  8.62412 97.282
2176.4  8.80065 99.5967
2176.5  8.73715 98.8442
2176.6  8.70293 98.0918
2176.7  8.93165 97.3412
2176.8  9.12654 96.8599
2176.9  9.01218 98.814
2177.0  8.90389 100.752
2177.1  8.85283 102.499
2177.2  8.80189 104.266
2177.3  8.75083 106.258
2177.4  8.70885 107.915
2177.5  8.74735 106.618
2177.6  8.76923 105.311
2177.7  8.64189 103.913
2177.8  8.54357 102.522
2177.9  8.70887 101.237
2178.0  8.87587 99.8916
2178.1  9.05459 98.0379
2178.2  9.22261 96.5341
2178.3  9.2987  98.135
2178.4  9.3479  99.7321
2178.5  9.1569  101.333
2178.6  8.95191 102.609
2178.7  8.62181 100.964
2178.8  8.33161 99.3738
2178.9  8.40752 98.3241
2179.0  8.45943 97.1841
2179.1  8.29373 95.2547
2179.2  8.15396 93.0272
2179.3  8.24357 88.0692
2179.4  8.3069  82.8533
2179.5  8.1359  75.1963
2179.6  7.9437  67.7996
2179.7  7.56167 62.7583
2179.8  7.13976 57.7472
2179.9  6.3692  53.1303
2180.0  5.66189 48.5936
2180.1  5.54074 44.8796
2180.2  5.41668 41.1279
2180.3  5.26349 36.9473
2180.4  5.1502  32.904
2180.5  5.3922  29.994
2180.6  5.65085 27.1707
2180.7  6.05835 25.1327
2180.8  6.4656  23.1665
2180.9  6.86062 21.8946
2181.0  7.2189  20.6339
2181.1  7.23793 19.5025
2181.2  7.24924 18.4551
2181.3  7.19167 18.1362
2181.4  7.1413  17.8521
2181.5  7.1543  17.8736
2181.6  7.16215 18.0577
2181.7  7.12369 19.7007
2181.8  7.09411 21.4328
2181.9  7.14504 23.9248
2182.0  7.16802 26.4941
2182.1  6.93824 29.705
2182.2  6.70136 33.0192
2182.3  6.39499 37.3415
2182.4  6.12    41.23
2182.5  6.12    41.3205
2182.6  6.11745 41.411
2182.7  6.09198 41.5009
2182.8  6.07666 40.8928
2182.9  6.15307 34.0172
2183.0  6.22585 27.5231
2183.1  6.2644  24.6146
2183.2  6.32283 21.8135
2183.3  6.56112 19.9081
2183.4  6.8009  18.0673
2183.5  7.0599  16.7603
2183.6  7.2556  15.4406
2183.7  6.88256 14.0104
2183.8  6.53704 12.7052
2183.9  6.44765 12.5579
2184.0  6.38657 12.6102
2184.1  6.58231 14.4619
2184.2  6.74203 16.3092
2184.3  6.58234 18.1615
2184.4  6.4388  22.0658
2184.5  6.4368  44.4832
2184.6  6.45628 65.6209
2184.7  6.66852 75.2167
2184.8  6.93785 84.424
2184.9  7.7144  89.9103
2185.0  8.4592  95.2142
2185.1  8.90124 98.756
2185.2  9.31737 102.28
2185.3  9.51111 105.73
2185.4  9.7044  108.818
2185.5  9.8984  108.737
2185.6  10.0551 108.652
2185.7  9.87685 108.53
2185.8  9.71345 108.404
2185.9  9.68798 108.244
2186.0  9.68798 108.098
2186.1  9.91776 108.09
2186.2  10.1189 108.08
2186.3  10.0678 108.046
2186.4  10.0169 107.971
2186.5  9.9659  107.526
2186.6  9.89827 107.047
2186.7  9.68154 106.266
2186.8  9.48475 105.398
2186.9  9.47226 103.775
2187.0  9.45334 102.204
2187.1  9.37675 101.129
2187.2  9.29013 100.007
2187.3  9.11141 98.4365
2187.4  8.94715 96.8918
2187.5  8.90865 95.5392
2187.6  8.87275 94.5396
2187.7  8.86026 96.7105
2187.8  8.81326 98.8568
2187.9  8.45669 100.731
2188.0  8.12734 102.521
2188.1  8.05075 103.523
2188.2  7.97304 104.476
2188.3  7.88343 105.013
2188.4  7.834   105.528
2188.5  8.144   105.843
2188.6  8.46475 106.151
2188.7  8.88124 106.389
2188.8  9.25445 106.621
2188.9  9.22898 106.804
2189.0  9.16515 106.956
2189.1  8.75665 106.833
2189.2  8.41043 106.668
2189.3  8.61467 106.119
2189.4  8.8273  105.515
2189.5  9.1203  104.408
2189.6  9.36998 103.154
