# Выгружено из ПО "Атлас - Подсчет запасов"
############################################
~VERSION INFORMATION
#MNEM.UNIT                                    DATA : TYPE DESCRIPTION
VERS.                                         1.20 : CWLS LOG ASCII STANDARD_VERSION 1.20
WRAP.                                           NO : One line per depth step
############################################
~WELL INFORMATION
#MNEM.UNIT                                    DATA : TYPE DESCRIPTION
STRT.M                                      1050.0 : Start depth
STOP.M                                      3143.9 : Stop depth
STEP.M                                         0.1 : Step
NULL.                                      -999.25 : Null Value
WELL.                                           17 : 17
X.                                        12549147 : X-coordinate of Well Head
Y.                                         8019171 : Y-coordinate of Well Head
RKB.                                            33 : RKB
############################################
~CURVE INFORMATION
#MNEM.UNIT                                    DATA : TYPE DESCRIPTION
DEPT.M                                             : DEPT
ГК.у.е.                                            : 
ПС.мВ                                              : 
############################################
~ASCII
# ...
1452.3  8.39377 81.6054
1452.4  8.24288 82.2618
1452.5  8.45138 84.8563
1452.6  8.66697 87.4786
1452.7  8.9463  90.3508
1452.8  9.17507 92.971
1452.9  8.94607 93.291
1453.0  8.74641 92.7387
1453.1  8.81041 84.3457
1453.2  8.868   76.2183
1453.3  8.868   70.4713
1453.4  8.90234 65.8043
1453.5  9.24534 70.7808
1453.6  9.54635 75.6623
1453.7  9.46989 79.6903
1453.8  9.401   83.637
1453.9  9.401   86.8035
1454.0  9.39975 90.1375
1454.1  9.38725 94.9765
1454.2  9.34418 99.1087
1454.3  9.02599 96.8859
1454.4  8.75482 94.4428
1454.5  8.90282 89.9963
1454.6  9.0322  86.1545
1454.7  8.99422 87.7475
1454.8  8.97402 89.3315
1454.9  9.11402 90.815
1455.0  9.2362  91.6836
1455.1  9.1982  87.0251
1455.2  9.1716  83.1259
1455.3  9.24765 86.0552
1455.4  9.30073 88.981
1455.5  9.14823 91.907
1455.6  9.00975 94.2811
1455.7  8.99726 91.6957
1455.8  8.98089 89.573
1455.9  8.92989 91.6405
1456.0  8.85977 92.9869
1456.1  8.61777 87.8524
1456.2  8.41656 83.1155
1456.3  8.58216 81.9508
1456.4  8.74797 81.0192
1456.5  8.91747 82.1702
1456.6  9.0747  83.4075
1456.7  9.12167 85.4203
1456.8  9.13852 87.4104
1456.9  8.88402 89.1719
1457.0  8.6588  91.2062
1457.1  8.6968  95.6921
1457.2  8.74756 99.0454
1457.3  8.91316 92.2098
1457.4  9.08368 85.3824
1457.5  9.30018 78.5544
1457.6  9.50391 72.9031
1457.7  9.59285 77.8275
1457.8  9.68316 82.1699
1457.9  9.78466 81.2199
1458.0  9.88366 80.2698
1458.1  9.96016 79.3193
1458.2  10.0163 79.4182
1458.3  9.88921 88.9605
1458.4  9.775   97.4896
1458.5  9.775   97.0161
1458.6  9.79151 96.5425
1458.7  9.95641 96.0683
1458.8  10.0999 95.9913
1458.9  10.0494 99.4898
1459.0  10.0193 102.535
1459.1  10.1718 101.506
1459.2  10.295  100.435
1459.3  10.1549 98.9807
1459.4  10.0226 97.7808
1459.5  9.95914 98.8473
1459.6  9.88924 98.8622
1459.7  9.76182 89.4254
1459.8  9.64445 81.1582
1459.9  9.61895 83.5172
1460.0  9.61002 85.8761
1460.1  9.75002 88.2346
1460.2  9.89001 90.4435
1460.3  10.0301 91.308
1460.4  10.1076 92.0215
1460.5  9.62409 91.387
1460.6  9.16098 91.135
1460.7  8.88115 94.3211
1460.8  8.64937 97.3516
1460.9  8.85287 98.9461
1461.0  9.03475 99.8712
1461.1  9.02225 94.7797
1461.2  9.03391 89.6882
1461.3  9.26305 84.5906
1461.4  9.48177 80.7427
1461.5  9.60927 88.0707
1461.6  9.71504 94.3146
1461.7  9.6256  90.8147
1461.8  9.53228 87.3106
1461.9  9.40528 83.8111
1462.0  9.27763 81.2466
1462.1  9.14413 87.0856
1462.2  9.017   91.7244
1462.3  8.94695 85.5687
1462.4  8.89546 80.253
1462.5  9.00996 82.4205
1462.6  9.10409 84.5881
1462.7  9.01515 86.7563
1462.8  8.94646 88.5537
1462.9  9.06096 86.9922
1463.0  9.18818 85.4818
1463.1  9.42968 84.4313
1463.2  9.64445 83.4714
1463.3  9.61893 83.3259
1463.4  9.59985 83.2977
1463.5  9.63835 84.3237
1463.6  9.673   85.3558
1463.7  9.673   86.4421
1463.8  9.69338 87.4304
1463.9  9.89688 87.5239
1464.0  10.0596 87.6038
1464.1  9.85612 87.5623
1464.2  9.65259 87.5154
1464.3  9.44846 87.4199
1464.4  9.2625  87.422
1464.5  9.2375  88.301
1464.6  9.17803 88.782
1464.7  8.80875 85.6859
1464.8  8.48877 82.6447
1464.9  8.61627 80.1347
1465.0  8.75773 77.7035
1465.1  9.02473 75.981
1465.2  9.24464 74.6916
1465.3  9.04101 77.2977
1465.4  8.87332 79.9006
1465.5  9.02632 82.5031
1465.6  9.14869 84.609
1465.7  8.99578 82.2514
1465.8  8.84018 80.2866
1465.9  8.66218 81.8811
1466.0  8.502   83.4756
1466.1  8.502   85.0701
1466.2  8.47653 85.8604
1466.3  8.22188 79.4139
1466.4  7.97643 73.2715
1466.5  7.81093 69.791
1466.6  7.662   66.2095
1466.7  7.662   61.7203
1466.8  7.69003 57.3584
1466.9  7.97003 54.1959
1467.0  8.24238 50.7677
1467.1  8.44588 44.9517
1467.2  8.6303  40.4096
1467.3  8.64331 47.3258
1467.4  8.66391 53.9248
1467.5  8.75291 57.7483
1467.6  8.81769 61.6615
1467.7  8.66478 66.3812
1467.8  8.51298 71.0962
1467.9  8.37298 75.7127
1468.0  8.24064 79.8832
1468.1  8.17714 80.0452
1468.2  8.13911 79.9264
1468.3  8.33023 77.2808
1468.4  8.49945 74.6385
1468.5  8.47395 71.9965
1468.6  8.47136 69.3545
1468.7  8.67474 66.7132
1468.8  8.85164 64.0684
1468.9  8.78814 61.4259
1469.0  8.74832 59.8186
1469.1  8.92132 67.5151
1469.2  9.09431 74.7609
1469.3  9.26742 77.9598
1469.4  9.41259 81.6861
1469.5  9.30859 90.1866
1469.6  9.22005 97.9104
1469.7  9.27052 98.654
1469.8  9.29262 98.8137
1469.9  9.05912 93.7167
1470.0  8.85155 88.7651
1470.1  8.87705 85.1206
1470.2  8.89745 81.4821
1470.3  8.87193 77.8934
1470.4  8.82727 74.1268
1470.5  8.61027 68.7218
1470.6  8.4201  64.1605
1470.7  8.47107 67.1816
1470.8  8.48381 70.2065
1470.9  8.15231 73.2275
1471.0  7.83488 76.2485
1471.1  7.64388 79.27
1471.2  7.47965 81.9098
1471.3  7.5562  81.1173
1471.4  7.63902 79.2714
1471.5  7.77902 67.9494
1471.6  7.87693 57.2331
1471.7  7.5966  51.9603
1471.8  7.32358 46.6794
1471.9  7.11958 41.3894
1472.0  6.90411 36.572
1472.1  6.58561 36.0025
1472.2  6.28369 35.433
1472.3  6.1306  34.8632
1472.4  5.95596 34.7373
1472.5  5.58595 38.5958
1472.6  5.22748 42.5039
1472.7  4.97264 46.8578
1472.8  4.76217 51.3103
1472.9  4.95367 56.5973
1473.0  5.19363 61.8467
1473.1  5.86913 66.7582
1473.2  6.5625  71.8013
1473.3  7.41752 78.0341
1473.4  8.18215 83.6124
1473.5  8.14365 83.3769
1473.6  8.11285 81.9269
1473.7  8.15133 69.5615
1473.8  8.19877 57.9279
1473.9  8.32627 53.0229
1474.0  8.42653 48.3731
1474.1  8.28203 46.0171
1474.2  8.14605 43.7956
1474.3  8.08651 42.782
1474.4  8.033   41.7999
1474.5  8.033   41.0894
1474.6  8.03555 40.362
1474.7  8.06104 39.483
1474.8  8.06483 38.6491
1474.9  7.87333 38.23
1475.0  7.68058 37.8919
1475.1  7.47658 38.2804
1475.2  7.30831 38.6968
1475.3  7.4614  39.3652
1475.4  7.599   40.0233
1475.5  7.599   40.5953
1475.6  7.59135 41.0705
1475.7  7.51489 40.6757
1475.8  7.39369 40.2806
1475.9  6.87119 39.8866
1476.0  6.41502 40.1466
1476.1  6.55502 46.2851
1476.2  6.68355 52.1659
1476.3  6.70907 55.7351
1476.4  6.75498 59.2168
1476.5  6.98448 61.9513
1476.6  7.20631 64.7424
1476.7  7.35922 68.0418
1476.8  7.50977 70.7272
1476.9  7.63727 67.8527
1477.0  7.76607 64.9578
1477.1  7.90657 61.8793
1477.2  8.0266  58.3858
1477.3  7.96256 51.1539
1477.4  7.91266 44.7417
1477.5  7.98916 45.6177
1477.6  8.05675 46.4938
1477.7  8.04426 47.3708
1477.8  8.05393 48.2488
1477.9  8.26293 49.1253
1478.0  8.45941 50.0017
1478.1  8.54341 50.8777
1478.2  8.64452 51.5582
1478.3  8.89967 50.48
1478.4  9.11879 49.4031
1478.5  9.01679 48.3251
1478.6  8.89693 47.4731
1478.7  8.6166  48.6524
1478.8  8.34488 50.0589
1478.9  8.15388 53.4934
1479.0  7.97304 56.9278
1479.1  7.88354 60.3618
1479.2  7.80555 62.7374
1479.3  7.83107 55.5916
1479.4  7.83232 48.9194
1479.5  7.61582 46.4269
1479.6  7.40314 43.9836
1479.7  7.22475 41.9823
1479.8  7.07546 40.0119
1479.9  7.18996 38.3429
1480.0  7.30622 36.7441
1480.1  7.43822 35.7766
1480.2  7.57826 34.8749
1480.3  7.79089 34.5642
1480.4  7.98325 34.3426
1480.5  7.99575 34.9176
1480.6  8.02106 35.5637
1480.7  8.16147 36.8489
1480.8  8.28925 38.1788
1480.9  8.30175 39.8943
1481.0  8.3526  41.6362
1481.1  8.7481  43.6157
1481.2  9.09505 45.6212
1481.3  9.00549 47.8631
1481.4  8.91354 50.1809
1481.5  8.79904 53.2064
1481.6  8.70621 56.3759
1481.7  8.80814 60.8397
1481.8  8.89359 65.5462
1481.9  8.82959 72.3802
1482.0  8.73115 79.7837
1482.1  8.32315 92.3057
1482.2  7.9509  103.542
1482.3  7.89987 103.227
1482.4  7.83613 102.912
1482.5  7.65763 102.597
1482.6  7.51996 102.373
1482.7  7.74932 102.963
1482.8  8.01472 103.644
1482.9  8.60122 105.138
1483.0  9.12264 106.493
1483.1  9.05914 106.605
1483.2  9.00645 105.546
1483.3  9.05098 93.9492
1483.4  9.08654 82.3751
1483.5  9.04204 70.8806
1483.6  9.00965 60.4895
1483.7  9.08611 60.0153
1483.8  9.14349 59.5978
1483.9  9.02849 59.6958
1484.0  8.91609 59.8842
1484.1  8.82709 60.8847
1484.2  8.77121 61.8532
1484.3  9.01336 62.5351
1484.4  9.21058 63.4338
1484.5  9.00657 66.2883
1484.6  8.8243  69.2224
1484.7  8.83729 72.8717
1484.8  8.85025 76.6122
1484.9  8.86275 81.1287
1485.0  8.8306  85.563
1485.1  8.3971  89.2585
1485.2  7.99044 92.8007
1485.3  7.82484 94.9681
1485.4  7.64661 97.1036
1485.5  7.35311 98.9771
1485.6  7.11582 100.815
1485.7  7.38365 102.337
