# Выгружено из ПО "Атлас - Подсчет запасов"
############################################
~VERSION INFORMATION
#MNEM.UNIT                                    DATA : TYPE DESCRIPTION
VERS.                                         1.20 : CWLS LOG ASCII STANDARD_VERSION 1.20
WRAP.                                           NO : One line per depth step
############################################
~WELL INFORMATION
#MNEM.UNIT                                    DATA : TYPE DESCRIPTION
STRT.M                                      1050.0 : Start depth
STOP.M                                      3143.9 : Stop depth
STEP.M                                         0.1 : Step
NULL.                                      -999.25 : Null Value
WELL.                                           17 : 17
X.                                        12549147 : X-coordinate of Well Head
Y.                                         8019171 : Y-coordinate of Well Head
RKB.                                            33 : RKB
############################################
~CURVE INFORMATION
#MNEM.UNIT                                    DATA : TYPE DESCRIPTION
DEPT.M                                             : DEPT
ГК.у.е.                                            : 
ПС.мВ                                              : 
############################################
~ASCII
# ...
2558.8  8.72428 101.986
2558.9  8.94651 101.949
2559.0  9.19661 101.919
2559.1  9.69272 101.951
2559.2  10.1037 101.965
2559.3  9.76024 101.826
2559.4  9.44565 101.684
2559.5  9.38215 101.519
2559.6  9.33772 101.368
2559.7  9.46456 101.343
2559.8  9.58536 101.33
2559.9  9.64878 101.417
2560.0  9.63096 101.502
2560.1  8.88054 101.57
2560.2  8.15864 101.626
2560.3  7.67505 101.568
2560.4  7.2461  101.52
2560.5  7.2971  101.572
2560.6  7.35316 101.632
2560.7  7.45454 101.757
2560.8  7.55366 101.889
2560.9  7.63007 102.066
2561.0  7.699   102.243
2561.1  7.699   102.415
2561.2  7.67357 102.584
2561.3  7.41926 102.726
2561.4  7.1529  102.878
2561.5  6.7719  103.125
2561.6  6.2649  103.375
2561.7  4.6279  103.657
2561.8  3.10009 103.947
2561.9  2.59221 104.303
2562.0  2.10476 104.655
2562.1  1.81241 104.957
2562.2  1.55    105.248
2562.3  1.55    105.443
2562.4  1.5881  105.618
2562.5  1.9691  105.61
2562.6  2.34634 105.598
2562.7  2.68892 105.556
2562.8  3.04891 105.517
2562.9  3.55679 105.5
2563.0  4.0557  105.484
2563.1  4.4627  105.489
2563.2  5.00226 105.496
2563.3  6.74489 105.524
2563.4  8.37375 105.542
2563.5  9.02125 105.469
2563.6  9.67399 105.405
2563.7  10.3721 105.425
2563.8  10.9969 105.459
2563.9  10.946  105.616
2564.0  10.8911 105.776
2564.1  10.802  105.964
2564.2  10.7271 106.144
2564.3  10.7782 106.251
2564.4  10.8097 106.347
2564.5  10.6667 106.339
2564.6  10.5316 106.334
2564.7  10.4682 106.36
2564.8  10.3804 106.38
2564.9  10.0753 106.354
2565.0  9.78473 106.31
2565.1  9.63204 106.11
2565.2  9.46697 105.906
2565.3  9.18662 105.66
2565.4  8.8968  105.408
2565.5  8.5148  105.105
2565.6  8.20028 104.812
2565.7  8.49243 104.617
2565.8  8.77002 104.421
2565.9  8.90985 104.231
2566.0  9.06914 104.065
2566.1  9.40055 104.113
2566.2  9.74005 104.171
2566.3  10.1606 104.308
2566.4  10.5062 104.449
2566.5  10.1882 104.623
2566.6  9.91472 104.795
2566.7  10.0416 104.95
2566.8  10.156  105.116
2566.9  10.156  105.364
2567.0  10.142  105.613
2567.1  10.0018 105.864
2567.2  9.87345 106.107
2567.3  9.84792 106.282
2567.4  9.8225  106.455
2567.5  9.7975  106.626
2567.6  9.72909 106.786
2567.7  9.27115 106.84
2567.8  8.88478 106.879
2567.9  9.15196 106.769
2568.0  9.38279 106.647
2568.1  9.28066 106.425
2568.2  9.189   106.216
2568.3  9.189   106.115
2568.4  9.20935 106.02
2568.5  9.41285 105.973
2568.6  9.58454 105.935
2568.7  9.47018 105.974
2568.8  9.35809 106.003
2568.9  9.2692  105.945
2569.0  9.17543 105.886
2569.1  9.03977 105.825
2569.2  8.9201  105.76
2569.3  8.94113 105.645
2569.4  8.94345 105.526
2569.5  8.77795 105.353
2569.6  8.64302 105.185
2569.7  8.78285 105.06
2569.8  8.88863 104.943
2569.9  8.68537 104.899
2570.0  8.48413 104.88
2570.1  8.30541 105.105
2570.2  8.15396 105.318
2570.3  8.24357 105.433
2570.4  8.35455 105.548
2570.5  8.66005 105.677
2570.6  8.90056 105.783
2570.7  8.55698 105.677
2570.8  8.22282 105.573
2570.9  7.98162 105.491
2571.0  7.72831 105.399
2571.1  7.37137 105.217
2571.2  7.04464 105.027
2571.3  6.98106 104.763
2571.4  6.94055 104.501
2571.5  7.10605 104.255
2571.6  7.23968 104.018
2571.7  7.08687 103.871
2571.8  6.91971 103.739
2571.9  6.62757 103.743
2572.0  6.34102 103.745
2572.1  6.11124 103.718
2572.2  5.91852 103.695
2572.3  6.05368 103.7
2572.4  6.174   103.718
2572.5  6.164   103.855
2572.6  6.154   104.01
2572.7  6.14401 104.323
2572.8  6.16048 104.639
2572.9  6.41467 104.973
2573.0  6.67073 105.296
2573.1  6.93806 105.507
2573.2  7.20603 105.725
2573.3  7.48638 106.005
2573.4  7.822   106.281
2573.5  8.662   106.534
2573.6  9.45239 106.798
2573.7  9.79547 107.154
2573.8  10.0974 107.502
2573.9  10.0215 107.764
2574.0  9.98864 108.033
2574.1  10.3451 108.362
2574.2  10.651  108.665
2574.3  10.5108 108.746
2574.4  10.3532 108.817
2574.5  10.0352 108.798
2574.6  9.78469 108.768
2574.7  10.1408 108.651
2574.8  10.4251 108.551
2574.9  10.0565 108.599
2575.0  9.71504 108.64
2575.1  9.62543 108.624
2575.2  9.5064  108.598
2575.3  9.12043 108.481
2575.4  8.7375  108.364
2575.5  8.3725  108.241
2575.6  8.0427  108.136
2575.7  8.02971 108.193
2575.8  8.018   108.264
2575.9  8.018   108.459
2576.0  8.02691 108.648
2576.1  8.11602 108.793
2576.2  8.18454 108.919
2576.3  8.0699  108.894
2576.4  7.99885 108.878
2576.5  8.31735 108.951
2576.6  8.63073 109.02
2576.7  8.89741 109.053
2576.8  9.11973 109.076
2576.9  8.93745 109.021
2577.0  8.7301  108.981
2577.1  8.30107 109.078
2577.2  7.89693 109.126
2577.3  7.70619 108.732
2577.4  7.5159  108.34
2577.5  7.3249  107.946
2577.6  7.13643 107.553
2577.7  6.97113 107.16
2577.8  6.81945 106.767
2577.9  6.79398 106.374
2578.0  6.74807 105.929
2578.1  6.51879 105.016
2578.2  6.32702 104.118
2578.3  6.46719 103.339
2578.4  6.5852  102.57
2578.5  6.5072  101.88
2578.6  6.42143 101.199
2578.7  6.26612 100.603
2578.8  6.12925 100.064
2578.9  6.16171 100.05
2579.0  6.21558 100.067
2579.1  6.46138 100.353
2579.2  6.67564 100.645
2579.3  6.61206 100.998
2579.4  6.5296  101.338
2579.5  6.2756  101.571
2579.6  6.05591 101.778
2579.7  6.1448  101.747
2579.8  6.18811 101.748
2579.9  5.82006 102.037
2580.0  5.46768 102.235
2580.1  5.26443 101.603
2580.2  5.09341 100.972
2580.3  5.20755 100.339
2580.4  5.35955 99.7721
2580.5  5.85505 99.7826
2580.6  6.34045 99.8426
2580.7  6.73397 100.347
2580.8  7.11318 100.851
2580.9  7.35438 101.337
2581.0  7.59743 101.831
2581.1  7.85174 102.387
2581.2  8.15379 102.937
2581.3  8.89169 103.439
2581.4  9.5311  103.958
2581.5  9.3021  104.636
2581.6  9.08839 105.294
2581.7  9.01248 105.77
2581.8  8.93254 106.256
2581.9  8.81818 106.812
2582.0  8.70739 107.328
2582.1  8.6313  107.467
2582.2  8.57316 107.59
2582.3  8.67479 107.584
2582.4  8.8168  107.573
2582.5  9.3248  107.51
2582.6  9.81889 107.448
2582.7  10.1869 107.386
2582.8  10.5254 107.328
2582.9  10.5888 107.304
2583.0  10.6434 107.272
2583.1  10.6179 107.179
2583.2  10.5467 107.102
2583.3  10.0636 107.16
2583.4  9.69605 107.233
2583.5  10.3566 107.428
2583.6  10.923  107.621
2583.7  10.6439 107.793
2583.8  10.4136 107.953
2583.9  10.6294 107.998
2584.0  10.8266 108.032
2584.1  10.8521 107.959
2584.2  10.862  107.901
2584.3  10.7318 107.977
2584.4  10.6124 108.047
2584.5  10.587  108.062
2584.6  10.5423 108.067
2584.7  10.3261 107.991
2584.8  10.1221 107.892
2584.9  10.0332 107.588
2585.0  9.91731 107.269
2585.1  9.56037 106.824
2585.2  9.21452 106.39
2585.3  8.95971 106.04
2585.4  8.74245 105.693
2585.5  8.85695 105.359
2585.6  8.94088 105.044
2585.7  8.75011 104.9
2585.8  8.5793  104.778
2585.9  8.59229 104.852
2586.0  8.66512 104.924
2586.1  9.27637 104.978
2586.2  9.85178 105.03
2586.3  10.1196 105.065
2586.4  10.3447 105.098
2586.5  10.1923 105.111
2586.6  10.0626 105.132
2586.7  10.1385 105.236
2586.8  10.2019 105.334
2586.9  10.151  105.387
2587.0  10.1101 105.433
2587.1  10.1612 105.408
2587.2  10.1841 105.392
2587.3  9.95479 105.452
2587.4  9.7363  105.513
2587.5  9.6093  105.583
2587.6  9.48734 105.644
2587.7  9.41093 105.627
2587.8  9.34325 105.604
2587.9  9.35574 105.526
2588.0  9.33771 105.455
2588.1  9.04486 105.458
2588.2  8.77564 105.463
2588.3  8.71206 105.493
2588.4  8.65245 105.512
2588.5  8.62695 105.436
2588.6  8.58488 105.359
2588.7  8.39411 105.275
2588.8  8.20288 105.185
2588.9  8.01211 105.039
2589.0  7.82218 104.889
2589.1  7.64396 104.71
2589.2  7.48906 104.55
2589.3  7.53962 104.554
2589.4  7.5812  104.557
2589.5  7.5432  104.56
2589.6  7.55105 104.563
2589.7  7.97054 104.566
2589.8  8.35921 104.569
2589.9  8.46109 104.573
2590.0  8.62369 104.576
2590.1  9.33055 104.579
2590.2  9.9682  104.598
2590.3  10.0002 104.753
2590.4  10.0417 104.882
2590.5  10.1693 104.786
2590.6  10.2866 104.69
2590.7  10.312  104.586
2590.8  10.3159 104.471
2590.9  10.1251 104.248
2591.0  9.92877 104.035
2591.1  9.68647 103.904
2591.2  9.48557 103.789
2591.3  9.65127 103.822
2591.4  9.78475 103.853
2591.5  9.63225 103.858
2591.6  9.44784 103.863
2591.7  8.97742 103.865
2591.8  8.55045 103.868
2591.9  8.52498 103.879
2592.0  8.44463 103.915
2592.1  7.87093 104.176
2592.2  7.28466 104.45
2592.3  6.57129 104.852
