# Выгружено из ПО "Атлас - Подсчет запасов"
############################################
~VERSION INFORMATION
#MNEM.UNIT                                    DATA : TYPE DESCRIPTION
VERS.                                         1.20 : CWLS LOG ASCII STANDARD_VERSION 1.20
WRAP.                                           NO : One line per depth step
############################################
~WELL INFORMATION
#MNEM.UNIT                                    DATA : TYPE DESCRIPTION
STRT.M                                      1050.0 : Start depth
STOP.M                                      3143.9 : Stop depth
STEP.M                                         0.1 : Step
NULL.                                      -999.25 : Null Value
WELL.                                           17 : 17
X.                                        12549147 : X-coordinate of Well Head
Y.                                         8019171 : Y-coordinate of Well Head
RKB.                                            33 : RKB
############################################
~CURVE INFORMATION
#MNEM.UNIT                                    DATA : TYPE DESCRIPTION
DEPT.M                                             : DEPT
ГК.у.е.                                            : 
ПС.мВ                                              : 
############################################
~ASCII
# ...
2961.2  -999.25 105.59
2961.3  -999.25 105.585
2961.4  -999.25 105.578
2961.5  -999.25 105.563
2961.6  -999.25 105.552
2961.7  -999.25 105.583
2961.8  -999.25 105.614
2961.9  -999.25 105.645
2962.0  -999.25 105.676
2962.1  -999.25 105.707
2962.2  -999.25 105.738
2962.3  -999.25 105.769
2962.4  -999.25 105.799
2962.5  -999.25 105.83
2962.6  -999.25 105.861
2962.7  -999.25 105.893
2962.8  -999.25 105.924
2962.9  -999.25 105.955
2963.0  -999.25 105.986
2963.1  -999.25 106.017
2963.2  -999.25 106.048
2963.3  -999.25 106.079
2963.4  -999.25 106.11
2963.5  -999.25 106.141
2963.6  -999.25 106.172
2963.7  -999.25 106.203
2963.8  -999.25 106.234
2963.9  -999.25 106.265
2964.0  -999.25 106.299
2964.1  -999.25 106.363
2964.2  -999.25 106.43
2964.3  -999.25 106.526
2964.4  -999.25 106.616
2964.5  -999.25 106.644
2964.6  -999.25 106.672
2964.7  -999.25 106.7
2964.8  -999.25 106.739
2964.9  -999.25 106.864
2965.0  -999.25 106.974
2965.1  -999.25 106.948
2965.2  -999.25 106.922
2965.3  -999.25 106.896
2965.4  -999.25 106.869
2965.5  -999.25 106.843
2965.6  -999.25 106.817
2965.7  -999.25 106.791
2965.8  -999.25 106.768
2965.9  -999.25 106.778
2966.0  -999.25 106.792
2966.1  -999.25 106.838
2966.2  -999.25 106.884
2966.3  -999.25 106.929
2966.4  -999.25 106.975
2966.5  -999.25 107.021
2966.6  -999.25 107.067
2966.7  -999.25 107.113
2966.8  -999.25 107.159
2966.9  -999.25 107.205
2967.0  -999.25 107.251
2967.1  -999.25 107.297
2967.2  -999.25 107.341
2967.3  -999.25 107.367
2967.4  -999.25 107.392
2967.5  -999.25 107.397
2967.6  -999.25 107.403
2967.7  -999.25 107.408
2967.8  -999.25 107.414
2967.9  -999.25 107.419
2968.0  -999.25 107.425
2968.1  -999.25 107.43
2968.2  -999.25 107.436
2968.3  -999.25 107.441
2968.4  -999.25 107.447
2968.5  -999.25 107.452
2968.6  -999.25 107.458
2968.7  -999.25 107.463
2968.8  -999.25 107.469
2968.9  -999.25 107.474
2969.0  -999.25 107.48
2969.1  -999.25 107.485
2969.2  -999.25 107.486
2969.3  -999.25 107.445
2969.4  -999.25 107.389
2969.5  -999.25 107.19
2969.6  -999.25 107.015
2969.7  -999.25 107.067
2969.8  -999.25 107.059
2969.9  -999.25 106.518
2970.0  -999.25 106.003
2970.1  -999.25 105.735
2970.2  -999.25 105.48
2970.3  -999.25 105.325
2970.4  -999.25 105.158
2970.5  -999.25 104.867
2970.6  -999.25 104.588
2970.7  -999.25 104.411
2970.8  -999.25 104.227
2970.9  -999.25 103.983
2971.0  -999.25 103.756
2971.1  -999.25 103.693
2971.2  -999.25 103.611
2971.3  -999.25 103.366
2971.4  -999.25 103.15
2971.5  -999.25 103.187
2971.6  -999.25 103.225
2971.7  -999.25 103.262
2971.8  -999.25 103.3
2971.9  -999.25 103.338
2972.0  -999.25 103.376
2972.1  -999.25 103.413
2972.2  -999.25 103.45
2972.3  -999.25 103.487
2972.4  -999.25 103.547
2972.5  -999.25 103.808
2972.6  -999.25 104.069
2972.7  -999.25 104.329
2972.8  -999.25 104.585
2972.9  -999.25 104.798
2973.0  -999.25 105.006
2973.1  -999.25 105.171
2973.2  -999.25 105.328
2973.3  -999.25 105.413
2973.4  -999.25 105.49
2973.5  -999.25 105.495
2973.6  -999.25 105.471
2973.7  -999.25 105.181
2973.8  -999.25 104.899
2973.9  -999.25 104.7
2974.0  -999.25 104.521
2974.1  -999.25 104.526
2974.2  -999.25 104.55
2974.3  -999.25 104.738
2974.4  -999.25 104.887
2974.5  -999.25 104.688
2974.6  -999.25 104.519
2974.7  -999.25 104.629
2974.8  -999.25 104.742
2974.9  -999.25 104.867
2975.0  -999.25 104.993
2975.1  -999.25 105.118
2975.2  -999.25 105.243
2975.3  -999.25 105.368
2975.4  -999.25 105.498
2975.5  -999.25 105.677
2975.6  -999.25 105.852
2975.7  -999.25 105.994
2975.8  -999.25 106.107
2975.9  -999.25 105.953
2976.0  -999.25 105.803
2976.1  -999.25 105.688
2976.2  -999.25 105.58
2976.3  -999.25 105.528
2976.4  -999.25 105.462
2976.5  -999.25 105.267
2976.6  -999.25 105.073
2976.7  -999.25 104.888
2976.8  -999.25 104.716
2976.9  -999.25 104.668
2977.0  -999.25 104.62
2977.1  -999.25 104.573
2977.2  -999.25 104.525
2977.3  -999.25 104.478
2977.4  -999.25 104.443
2977.5  -999.25 104.529
2977.6  -999.25 104.614
2977.7  -999.25 104.699
2977.8  -999.25 104.785
2977.9  -999.25 104.869
2978.0  -999.25 104.955
2978.1  -999.25 105.04
2978.2  -999.25 105.126
2978.3  -999.25 105.211
2978.4  -999.25 105.296
2978.5  -999.25 105.381
2978.6  -999.25 105.464
2978.7  -999.25 105.522
2978.8  -999.25 105.581
2978.9  -999.25 105.639
2979.0  -999.25 105.698
2979.1  -999.25 105.756
2979.2  -999.25 105.778
2979.3  -999.25 105.464
2979.4  -999.25 105.165
2979.5  -999.25 104.988
2979.6  -999.25 104.804
2979.7  -999.25 104.56
2979.8  -999.25 104.314
2979.9  -999.25 104.07
2980.0  -999.25 103.843
2980.1  -999.25 103.78
2980.2  -999.25 103.696
2980.3  -999.25 103.428
2980.4  -999.25 103.206
2980.5  -999.25 103.394
2980.6  -999.25 103.582
2980.7  -999.25 103.77
2980.8  -999.25 103.958
2980.9  -999.25 104.145
2981.0  -999.25 104.356
2981.1  -999.25 104.772
2981.2  -999.25 105.165
2981.3  -999.25 105.353
2981.4  -999.25 105.535
2981.5  -999.25 105.678
2981.6  -999.25 105.827
2981.7  -999.25 106.037
2981.8  -999.25 106.234
2981.9  -999.25 106.308
2982.0  -999.25 106.365
2982.1  -999.25 106.28
2982.2  -999.25 106.217
2982.3  -999.25 106.359
2982.4  -999.25 106.483
2982.5  -999.25 106.443
2982.6  -999.25 106.403
2982.7  -999.25 106.363
2982.8  -999.25 106.325
2982.9  -999.25 106.308
2983.0  -999.25 106.28
2983.1  -999.25 106.148
2983.2  -999.25 106.037
2983.3  -999.25 106.111
2983.4  -999.25 106.176
2983.5  -999.25 106.159
2983.6  -999.25 106.139
2983.7  -999.25 106.099
2983.8  -999.25 106.061
2983.9  -999.25 106.044
2984.0  -999.25 106.03
2984.1  -999.25 106.035
2984.2  -999.25 106.043
2984.3  -999.25 106.071
2984.4  -999.25 106.097
2984.5  -999.25 106.102
2984.6  -999.25 106.114
2984.7  -999.25 106.188
2984.8  -999.25 106.244
2984.9  -999.25 106.136
2985.0  -999.25 106.029
2985.1  -999.25 105.944
2985.2  -999.25 105.881
2985.3  -999.25 106.023
2985.4  -999.25 106.152
2985.5  -999.25 106.157
2985.6  -999.25 106.163
2985.7  -999.25 106.169
2985.8  -999.25 106.175
2985.9  -999.25 106.18
2986.0  -999.25 106.186
2986.1  -999.25 106.191
2986.2  -999.25 106.197
2986.3  -999.25 106.202
2986.4  -999.25 106.208
2986.5  -999.25 106.213
2986.6  -999.25 106.214
2986.7  -999.25 106.174
2986.8  -999.25 106.129
2986.9  -999.25 106.044
2987.0  -999.25 105.958
2987.1  -999.25 105.873
2987.2  -999.25 105.787
2987.3  -999.25 105.702
2987.4  -999.25 105.639
2987.5  -999.25 105.781
2987.6  -999.25 105.9
2987.7  -999.25 105.815
2987.8  -999.25 105.729
2987.9  -999.25 105.644
2988.0  -999.25 105.574
2988.1  -999.25 105.648
2988.2  -999.25 105.717
2988.3  -999.25 105.745
2988.4  -999.25 105.767
2988.5  -999.25 105.727
2988.6  -999.25 105.692
2988.7  -999.25 105.697
2988.8  -999.25 105.719
2988.9  -999.25 105.883
2989.0  -999.25 106.039
2989.1  -999.25 106.113
2989.2  -999.25 106.164
2989.3  -999.25 106.009
2989.4  -999.25 105.869
2989.5  -999.25 105.852
2989.6  -999.25 105.844
2989.7  -999.25 105.918
2989.8  -999.25 105.969
2989.9  -999.25 105.815
2990.0  -999.25 105.657
2990.1  -999.25 105.457
2990.2  -999.25 105.249
2990.3  -999.25 104.958
2990.4  -999.25 104.67
2990.5  -999.25 104.403
2990.6  -999.25 104.147
2990.7  -999.25 103.993
2990.8  -999.25 103.829
2990.9  -999.25 103.585
2991.0  -999.25 103.344
2991.1  -999.25 103.144
2991.2  -999.25 102.983
2991.3  -999.25 103.166
2991.4  -999.25 103.348
2991.5  -999.25 103.531
2991.6  -999.25 103.713
2991.7  -999.25 103.896
2991.8  -999.25 104.079
2991.9  -999.25 104.262
2992.0  -999.25 104.435
2992.1  -999.25 104.53
2992.2  -999.25 104.594
2992.3  -999.25 104.394
2992.4  -999.25 104.163
2992.5  -999.25 103.645
2992.6  -999.25 103.153
2992.7  -999.25 102.909
2992.8  -999.25 102.695
2992.9  -999.25 102.769
2993.0  -999.25 102.827
2993.1  -999.25 102.742
2993.2  -999.25 102.65
2993.3  -999.25 102.495
2993.4  -999.25 102.358
2993.5  -999.25 102.363
2993.6  -999.25 102.391
2993.7  -999.25 102.624
2993.8  -999.25 102.871
2993.9  -999.25 103.241
2994.0  -999.25 103.627
2994.1  -999.25 104.157
2994.2  -999.25 104.679
2994.3  -999.25 105.141
2994.4  -999.25 105.603
2994.5  -999.25 106.087
2994.6  -999.25 106.526
