# Выгружено из ПО "Атлас - Подсчет запасов"
############################################
~VERSION INFORMATION
#MNEM.UNIT                                    DATA : TYPE DESCRIPTION
VERS.                                         1.20 : CWLS LOG ASCII STANDARD_VERSION 1.20
WRAP.                                           NO : One line per depth step
############################################
~WELL INFORMATION
#MNEM.UNIT                                    DATA : TYPE DESCRIPTION
STRT.M                                      1050.0 : Start depth
STOP.M                                      3143.9 : Stop depth
STEP.M                                         0.1 : Step
NULL.                                      -999.25 : Null Value
WELL.                                           17 : 17
X.                                        12549147 : X-coordinate of Well Head
Y.                                         8019171 : Y-coordinate of Well Head
RKB.                                            33 : RKB
############################################
~CURVE INFORMATION
#MNEM.UNIT                                    DATA : TYPE DESCRIPTION
DEPT.M                                             : DEPT
ГК.у.е.                                            : 
ПС.мВ                                              : 
############################################
~ASCII
# ...
1318.1  8.74273 60.4793
1318.2  8.55294 57.8426
1318.3  8.43237 54.9489
1318.4  8.30868 52.0579
1318.5  8.15568 49.1609
1318.6  8.00019 46.3349
1318.7  7.8223  44.1462
1318.8  7.65945 42
1318.9  7.63395 40.2625
1319.0  7.6148  38.5569
1319.1  7.6528  37.1374
1319.2  7.67684 35.7474
1319.3  7.57528 34.6212
1319.4  7.48525 33.5516
1319.5  7.49775 32.9786
1319.6  7.51791 32.4639
1319.7  7.60685 32.4729
1319.8  7.6887  32.4957
1319.9  7.7057  32.6422
1320.0  7.7244  32.759
1320.1  7.7584  32.6095
1320.2  7.77244 32.4862
1320.3  7.60684 32.5983
1320.4  7.458   32.6414
1320.5  7.458   32.0664
1320.6  7.43764 31.4915
1320.7  7.23426 30.9174
1320.8  7.07393 31.3332
1320.9  7.30293 40.6542
1321.0  7.5523  49.5404
1321.1  7.9848  54.5184
1321.2  8.39056 59.4179
1321.3  8.55616 63.6164
1321.4  8.69994 67.6319
1321.5  8.64944 70.0484
1321.6  8.61291 72.5459
1321.7  8.70185 75.7715
1321.8  8.7807  78.1049
1321.9  8.7677  72.3815
1322.0  8.74198 67.2626
1322.1  8.60198 67.5781
1322.2  8.48746 68.992
1322.3  8.60203 80.2919
1322.4  8.67952 91.0954
1322.5  8.42502 97.5619
1322.6  8.21641 103.406
1322.7  8.42029 103.658
1322.8  8.57977 103.517
1322.9  8.33777 99.8488
1323.0  8.09577 96.1765
1323.1  7.85377 92.466
1323.2  7.63985 88.3506
1323.3  7.67838 80.5869
1323.4  7.73403 73.1604
1323.5  7.94403 68.6794
1323.6  8.15656 63.9693
1323.7  8.39192 57.2004
1323.8  8.60655 50.6596
1323.9  8.63205 46.2506
1324.0  8.64859 42.2403
1324.1  8.58459 41.8144
1324.2  8.47097 42.2593
1324.3  7.91062 50.5418
1324.4  7.407   59.1488
1324.5  7.407   70.7628
1324.6  7.44012 82.196
1324.7  7.77092 92.0046
1324.8  8.07696 100.843
1324.9  8.15646 100.84
1325.0  8.2312  99.9886
1325.1  8.2632  91.5146
1325.2  8.27829 83.3034
1325.3  8.14121 77.4479
1325.4  8.02691 71.8658
1325.5  8.11591 68.6778
1325.6  8.20496 65.5633
1325.7  8.2944  63.1098
1325.8  8.35968 60.5265
1325.9  8.20668 56.806
1326.0  8.08812 53.7592
1326.1  8.27912 56.7672
1326.2  8.4561  59.6573
1326.3  8.50713 61.4904
1326.4  8.553   63.4856
1326.5  8.553   66.9571
1326.6  8.52879 70.5958
1326.7  8.28693 75.7377
1326.8  8.05373 80.8544
1326.9  7.90123 85.6829
1327.0  7.74868 90.393
1327.1  7.59568 94.039
1327.2  7.46435 97.561
1327.3  7.52789 99.971
1327.4  7.59777 102.258
1327.5  7.72527 103.471
1327.6  7.82854 104.642
1327.7  7.71411 105.444
1327.8  7.63838 106.219
1327.9  7.91188 106.743
1328.0  8.17267 107.161
1328.1  8.31917 106.629
1328.2  8.4548  105.801
1328.3  8.49283 102.312
1328.4  8.54357 98.6776
1328.5  8.70907 93.7001
1328.6  8.85165 88.6307
1328.7  8.78819 82.7348
1328.8  8.73611 77.087
1328.9  8.78711 73.7415
1329.0  8.80877 70.2034
1329.1  8.56677 64.9339
1329.2  8.3452  60.1492
1329.3  8.30717 59.7215
1329.4  8.23856 60.1759
1329.5  7.89456 68.5544
1329.6  7.56719 76.6076
1329.7  7.3893  81.7369
1329.8  7.23536 86.6002
1329.9  7.29886 89.0092
1330.0  7.37512 91.5536
1330.1  7.56612 95.3151
1330.2  7.76857 98.6997
1330.3  8.07425 98.6967
1330.4  8.34775 97.3271
1330.5  8.33525 83.6746
1330.6  8.3278  70.7151
1330.7  8.36578 63.9842
1330.8  8.36941 58.1101
1330.9  8.06391 60.0186
1331.0  7.78645 61.4737
1331.1  7.76095 58.8542
1331.2  7.73675 56.2846
1331.3  7.72424 54.1603
1331.4  7.71936 51.9904
1331.5  7.78286 49.3879
1331.6  7.83875 46.7537
1331.7  7.82626 43.834
1331.8  7.8133  41.0274
1331.9  7.7963  39.2734
1332.0  7.78651 37.5849
1332.1  7.84151 36.4849
1332.2  7.89035 35.4306
1332.3  7.88385 34.7862
1332.4  7.88691 34.2141
1332.5  7.97591 34.2851
1332.6  8.049   34.4765
1332.7  7.97904 35.7497
1332.8  7.92366 37.268
1332.9  8.00016 40.9729
1333.0  8.08682 44.9958
1333.1  8.26482 51.8753
1333.2  8.4301  59.282
1333.3  8.48113 71.4419
1333.4  8.49261 82.3708
1333.5  8.14911 82.3682
1333.6  7.85146 81.9641
1333.7  7.96589 77.9495
1333.8  8.08177 73.7213
1333.9  8.20927 67.6213
1334.0  8.30358 63.0183
1334.1  8.09958 71.8708
1334.2  7.916   80.3838
1334.3  7.916   85.8516
1334.4  7.90454 91.5079
1334.5  7.79004 98.9179
1334.6  7.68065 105.681
1334.7  7.61718 106.634
1334.8  7.57021 107.588
1334.9  7.67221 108.541
1335.0  7.78437 109.398
1335.1  7.98787 109.395
1335.2  8.17735 109.383
1335.3  8.24089 109.297
1335.4  8.31712 109.156
1335.5  8.50812 108.515
1335.6  8.687   107.819
1335.7  8.75696 106.626
1335.8  8.8219  104.746
1335.9  8.8409  96.7111
1336.0  8.85034 87.7752
1336.1  8.77384 70.7382
1336.2  8.7025  55.3113
1336.3  8.67748 54.3548
1336.4  8.66136 53.5678
1336.5  8.72486 54.2953
1336.6  8.78325 55.1915
1336.7  8.79574 57.6035
1336.8  8.80765 60.0185
1336.9  8.81415 62.431
1337.0  8.82511 64.501
1337.1  8.87611 63.492
1337.2  8.93156 62.483
1337.3  9.02711 61.4729
1337.4  9.10409 60.464
1337.5  9.01509 59.455
1337.6  8.94771 59.0483
1337.7  9.07463 64.0547
1337.8  9.18775 68.8737
1337.9  9.17525 71.9467
1338.0  9.164   75.0837
1338.1  9.164   78.7962
1338.2  9.15124 82.816
1338.3  9.02366 89.6056
1338.4  8.90009 95.31
1338.5  8.81109 91.3345
1338.6  8.71569 86.9604
1338.7  8.56278 79.0043
1338.8  8.41228 71.3075
1338.9  8.28528 66.0385
1339.0  8.16209 60.8306
1339.1  8.07309 56.1726
1339.2  8.00446 51.8531
1339.3  8.11903 50.5738
1339.4  8.23346 49.4273
1339.5  8.34796 49.4603
1339.6  8.43574 49.5946
1339.7  8.28333 50.6395
1339.8  8.15361 51.6369
1339.9  8.22961 52.1954
1340.0  8.30186 52.822
1340.1  8.34035 54.06
1340.2  8.39406 55.5046
1340.3  8.58468 58.8101
1340.4  8.76111 62.2778
1340.5  8.81211 67.2398
1340.6  8.87711 72.2397
1340.7  9.068   77.5799
1340.8  9.21962 82.7566
1340.9  9.01612 86.3981
1341.0  8.84316 89.9414
1341.1  8.94466 92.6019
1341.2  9.02199 94.7117
1341.3  8.88191 91.869
1341.4  8.78148 89.0208
1341.5  9.03598 86.0923
1341.6  9.26055 82.9364
1341.7  9.21607 77.7371
1341.8  9.1741  73.3973
1341.9  9.1551  76.8458
1342.0  9.12784 80.1044
1342.1  9.02634 81.6569
1342.2  8.935   83.1353
1342.3  8.935   83.9483
1342.4  8.92223 84.6781
1342.5  8.79473 84.6696
1342.6  8.65709 84.619
1342.7  8.42823 84.1898
1342.8  8.23346 83.701
1342.9  8.34796 82.682
1343.0  8.47268 81.552
1343.1  8.68918 79.425
1343.2  8.86744 77.2477
1343.3  8.70184 74.6151
1343.4  8.55045 71.9021
1343.5  8.52495 68.4376
1343.6  8.48289 65.0375
1343.7  8.292   62.2163
1343.8  8.11109 59.4123
1343.9  8.02209 56.7983
1344.0  7.97003 54.2254
1344.1  8.25003 52.0219
1344.2  8.48544 49.9316
1344.3  8.31984 48.858
1344.4  8.19268 47.8193
1344.5  8.40918 47.0833
1344.6  8.60145 46.5571
1344.7  8.57596 47.9168
1344.8  8.56702 49.4405
1344.9  8.70702 52.422
1345.0  8.86359 55.4785
1345.1  9.16909 59.209
1345.2  9.40067 63.1494
1345.3  8.96741 68.9829
1345.4  8.55888 74.1939
1345.5  8.36788 73.8734
1345.6  8.20496 73.1606
1345.7  8.2944  68.9222
1345.8  8.39152 64.5778
1345.9  8.55652 59.3323
1346.0  8.73944 53.986
1346.1  9.08344 47.7335
1346.2  9.41081 42.3308
1346.3  9.58892 44.5687
1346.4  9.71716 46.7461
1346.5  9.39916 48.4046
1346.6  9.10024 50.0449
1346.7  8.97282 51.5225
1346.8  8.85034 52.929
1346.9  8.77384 53.678
1347.0  8.71141 54.2436
1347.1  8.77541 53.1611
1347.2  8.8245  52.0785
1347.3  8.73944 50.9939
1347.4  8.62435 50.4696
1347.5  8.23835 54.9696
1347.6  7.8961  59.2359
1347.7  7.94707 61.4026
1347.8  7.99045 63.148
1347.9  7.96495 61.0805
1348.0  7.91907 59.0129
1348.1  7.69007 56.9449
1348.2  7.45343 54.8769
1348.3  7.14775 52.8062
1348.4  6.88446 50.7379
1348.5  6.99896 48.6699
1348.6  7.14272 47.3371
1348.7  7.54948 52.6114
1348.8  7.93512 58.4199
1348.9  8.12612 68.9659
1349.0  8.32033 79.5118
1349.1  8.54333 90.0568
1349.2  8.74205 99.2515
1349.3  8.72254 96.3067
1349.4  8.69799 93.3655
1349.5  8.62799 90.4245
1349.6  8.558   87.4835
1349.7  8.48804 84.5418
1349.8  8.43141 81.6601
1349.9  8.49541 79.3541
1350.0  8.52366 78.095
1350.1  8.23066 86.2455
1350.2  7.96065 93.9962
1350.3  7.89711 98.1577
1350.4  7.86548 101.257
1350.5  8.11998 94.8528
1350.6  8.33629 88.6764
1350.7  8.20937 84.5454
1350.8  8.11793 80.1751
1350.9  8.34693 73.7036
1351.0  8.56446 67.1958
1351.1  8.67896 60.3618
1351.2  8.75268 54.1876
1351.3  8.4595  53.944
1351.4  8.1922  54.3611
1351.5  8.1542  60.7141
1351.6  8.12    66.5685
