# Выгружено из ПО "Атлас - Подсчет запасов"
############################################
~VERSION INFORMATION
#MNEM.UNIT                                    DATA : TYPE DESCRIPTION
VERS.                                         1.20 : CWLS LOG ASCII STANDARD_VERSION 1.20
WRAP.                                           NO : One line per depth step
############################################
~WELL INFORMATION
#MNEM.UNIT                                    DATA : TYPE DESCRIPTION
STRT.M                                       983.2 : Start depth
STOP.M                                      3193.9 : Stop depth
STEP.M                                         0.1 : Step
NULL.                                      -999.25 : Null Value
WELL.                                           18 : 18
X.                                        12538497 : X-coordinate of Well Head
Y.                                         8016226 : Y-coordinate of Well Head
RKB.                                          49.8 : RKB
############################################
~CURVE INFORMATION
#MNEM.UNIT                                    DATA : TYPE DESCRIPTION
DEPT.M                                             : DEPT
ГК.у.е.                                            : 
ПС.мВ                                              : 
############################################
~ASCII
# ...
1284.7  5.99059 85.6996
1284.8  5.82548 88.9098
1284.9  5.66048 93.8313
1285.0  5.47766 98.2601
1285.1  5.13466 98.2611
1285.2  4.83746 97.9603
1285.3  4.95203 94.9429
1285.4  5.06897 91.7383
1285.5  5.20847 86.8178
1285.6  5.33525 82.2472
1285.7  5.34774 80.8205
1285.8  5.39079 79.3443
1285.9  5.70829 77.4398
1286.0  6.02198 75.8373
1286.1  6.30148 76.9493
1286.2  6.53774 78.1884
1286.3  6.38515 80.5723
1286.4  6.26327 82.9376
1286.5  6.41577 85.1606
1286.6  6.56826 87.2405
1286.7  6.72067 88.0345
1286.8  6.84784 88.8137
1286.9  6.74634 89.4497
1287.0  6.64228 89.8155
1287.1  6.51528 87.7524
1287.2  6.3997  85.4831
1287.3  6.38669 81.3541
1287.4  6.36228 77.3092
1287.5  6.23528 73.9757
1287.6  6.14006 70.8967
1287.7  6.33045 70.1047
1287.8  6.50711 69.7249
1287.9  6.55811 73.0594
1288.0  6.60275 76.3144
1288.1  6.59025 78.8549
1288.2  6.58535 81.3953
1288.3  6.64889 83.9378
1288.4  6.68437 86.382
1288.5  6.46837 87.9705
1288.6  6.29431 89.3683
1288.7  6.49719 89.0515
1288.8  6.6838  88.48
1288.9  6.7218  85.6235
1289.0  6.7573  82.9418
1289.1  6.7703  81.8313
1289.2  6.7782  80.6733
1289.3  6.74017 79.0858
1289.4  6.71997 77.8021
1289.5  6.85947 79.2316
1289.6  6.94563 80.6928
1289.7  6.55237 82.4387
1289.8  6.18779 83.9644
1289.9  6.08579 83.4889
1290.0  5.99655 83.1883
1290.1  6.02205 84.4593
1290.2  6.02594 85.9525
1290.3  5.83532 89.4476
1290.4  5.63732 92.6845
1290.5  5.37082 93.638
1290.6  5.1272  94.1626
1290.7  5.08922 90.8321
1290.8  5.03082 87.7198
1290.9  4.78932 86.6088
1291.0  4.60254 85.3548
1291.1  4.90754 82.8158
1291.2  5.19851 80.3563
1291.3  5.36361 78.6098
1291.4  5.5527  77.199
1291.5  5.9592  78.7875
1291.6  6.3275  80.6619
1291.7  6.35249 85.1052
1291.8  6.36228 89.2998
1291.9  6.23528 91.2053
1292.0  6.12866 93.079
1292.1  6.20516 94.6675
1292.2  6.24603 95.9851
1292.3  5.96636 94.8659
1292.4  5.70739 93.7069
1292.5  5.63139 92.1774
1292.6  5.54644 90.6532
1292.7  5.38104 89.1771
1292.8  5.2727  87.9742
1292.9  5.6792  89.2447
1293.0  6.06407 90.1497
1293.1  6.25457 87.7692
1293.2  6.4222  85.3619
1293.3  6.38417 82.7113
1293.4  6.36272 79.9983
1293.5  6.48972 76.6953
1293.6  6.604   73.5881
1293.7  6.604   72.2409
1293.8  6.59764 71.2219
1293.9  6.53414 73.1684
1294.0  6.4808  75.1147
1294.1  6.5188  77.0592
1294.2  6.56446 79.0036
1294.3  6.67903 80.9498
1294.4  6.75021 82.8939
1294.5  6.43271 84.8404
1294.6  6.13935 86.5921
1294.7  6.06289 86.5926
1294.8  5.96732 86.2057
1294.9  5.70082 82.3377
1295.0  5.47116 78.6822
1295.1  5.57266 76.9367
1295.2  5.68561 75.0694
1295.3  5.90175 72.1031
1295.4  6.12398 69.332
1295.5  6.40348 68.283
1295.6  6.62193 67.1851
1295.7  6.29163 65.648
1295.8  6.01182 64.2026
1295.9  6.18982 63.5996
1296.0  6.33984 62.9305
1296.1  6.23834 61.667
1296.2  6.14445 60.4115
1296.3  6.11893 59.2263
1296.4  6.06932 58.1158
1296.5  5.80282 57.6648
1296.6  5.56045 57.2111
1296.7  5.53496 56.7324
1296.8  5.49548 56.2899
1296.9  5.33048 56.1789
1297.0  5.19086 56.0717
1297.1  5.27936 55.9992
1297.2  5.37936 55.9356
1297.3  5.58299 55.9516
1297.4  5.73676 55.9732
1297.5  5.44476 56.0452
1297.6  5.20742 56.1134
1297.7  5.46126 56.1468
1297.8  5.71288 56.1777
1297.9  5.94138 56.1852
1298.0  6.12537 56.1798
1298.1  5.90937 56.0578
1298.2  5.72391 55.9361
1298.3  5.81296 55.817
1298.4  5.88028 55.6754
1298.5  5.75328 55.3299
1298.6  5.6466  54.9973
1298.7  5.72256 54.7804
1298.8  5.76302 54.5353
1298.9  5.48352 54.0393
1299.0  5.25743 53.5666
1299.1  5.51143 53.3026
1299.2  5.71458 53.0133
1299.3  5.46043 52.496
1299.4  5.25107 51.9907
1299.5  5.44157 51.5882
1299.6  5.61555 51.2125
1299.7  5.64104 51.0776
1299.8  5.67036 50.943
1299.9  5.73386 50.813
1300.0  5.78845 50.6959
1300.1  5.76295 50.6944
1300.2  5.74891 50.7131
1300.3  5.83796 50.9137
1300.4  5.88496 51.1257
1300.5  5.55496 51.4427
1300.6  5.2542  51.8835
1300.7  5.21622 53.4365
1300.8  5.20358 54.978
1300.9  5.41908 56.3965
1301.0  5.59648 58.0952
1301.1  5.43148 62.3122
1301.2  5.29065 66.6348
1301.3  5.3672  71.9125
1301.4  5.44741 76.9141
1301.5  5.56141 79.4921
1301.6  5.67801 82.2338
1301.7  5.81792 86.4467
1301.8  5.94525 90.3899
1301.9  5.95775 91.8569
1302.0  5.95248 93.4227
1302.1  5.78748 95.8762
1302.2  5.64535 98.0364
1302.3  5.70889 97.5601
1302.4  5.73421 97.0209
1302.5  5.41671 95.9109
1302.6  5.14876 94.5784
1302.7  5.32615 91.247
1302.8  5.50382 88.2292
1302.9  5.68182 88.0717
1303.0  5.86868 88.0573
1303.1  6.13518 89.3283
1303.2  6.3674  90.4085
1303.3  6.29135 89.7736
1303.4  6.23697 88.7263
1303.5  6.37647 83.9648
1303.6  6.50585 79.1718
1303.7  6.54433 74.0959
1303.8  6.54971 69.5379
1303.9  6.25721 69.6969
1304.0  5.9915  70.015
1304.1  5.9665  71.7625
1304.2  5.95541 73.4621
1304.3  6.06948 74.7334
1304.4  6.1682  76.1145
1304.5  6.1302  78.4965
1304.6  6.1011  80.6401
1304.7  6.15207 80.6411
1304.8  6.2018  80.9917
1304.9  6.2398  84.4847
1305.0  6.25237 87.6758
1305.1  6.03637 88.1533
1305.2  5.8458  88.1542
1305.3  5.88383 83.8661
1305.4  5.92946 79.6543
1305.5  6.04396 76.0818
1305.6  6.12158 72.5098
1305.7  5.86774 68.9425
1305.8  5.61737 65.4261
1305.9  5.40137 62.4106
1306.0  5.20445 59.6335
1306.1  5.17895 58.999
1306.2  5.17761 58.4122
1306.3  5.39374 58.2546
1306.4  5.58164 58.2243
1306.5  5.51814 59.3358
1306.6  5.47496 60.4791
1306.7  5.61437 61.9082
1306.8  5.77054 63.355
1306.9  6.07554 64.9435
1307.0  6.34109 66.2777
1307.1  6.25209 65.3257
1307.2  6.16945 64.3897
1307.3  6.14393 63.5962
1307.4  6.11214 63.1533
1307.5  6.02364 65.8533
1307.6  5.93254 68.426
1307.7  5.81811 69.8541
1307.8  5.68702 71.1093
1307.9  5.40752 70.7928
1308.0  5.1573  70.4286
1308.1  5.1703  69.6356
1308.2  5.1807  68.9062
1308.3  5.16769 68.7481
1308.4  5.1573  68.8445
1308.5  5.1703  71.227
1308.6  5.19216 73.6887
1308.7  5.29359 76.8623
1308.8  5.35827 79.6108
1308.9  5.09127 78.5003
1309.0  4.86627 77.4217
1309.1  5.01877 76.6292
1309.2  5.18016 76.3926
1309.3  5.42181 81.1585
1309.4  5.62628 85.5533
1309.5  5.49928 86.6653
1309.6  5.3926  87.7138
1309.7  5.46856 88.191
1309.8  5.52559 88.176
1309.9  5.41159 83.7315
1310.0  5.33949 79.589
1310.1  5.64399 78.161
1310.2  5.918   76.749
1310.3  5.918   75.4787
1310.4  5.94979 74.4802
1310.5  6.26729 75.9102
1310.6  6.55045 77.3242
1310.7  6.52496 78.5944
1310.8  6.48168 79.8344
1310.9  6.27868 80.7874
1311.0  6.08454 81.4544
1311.1  5.97004 79.5504
1311.2  5.86955 77.5194
1311.3  5.89507 74.3435
1311.4  5.93072 71.3937
1311.5  6.05772 70.4417
1311.6  6.16059 69.4898
1311.7  6.04666 68.5389
1311.8  5.93509 67.7297
1311.9  5.84609 68.2062
1312.0  5.7698  68.4603
1312.1  5.8078  66.7153
1312.2  5.83309 65.0498
1312.3  5.74404 64.0977
1312.4  5.68943 63.2103
1312.5  5.94343 62.8933
1312.6  6.16059 62.7987
1312.7  6.04666 64.7036
1312.8  5.95672 66.5155
1312.9  6.08372 67.469
1313.0  6.198   68.8833
1313.1  6.198   74.4398
1313.2  6.19925 79.4878
1313.3  6.21176 79.9656
1313.4  6.23061 80.6653
1313.5  6.30661 83.3648
1313.6  6.3763  85.8894
1313.7  6.38929 86.8418
1313.8  6.38193 87.564
1313.9  6.19143 86.2055
1314.0  6.03272 84.9126
1314.1  6.15972 84.2091
1314.2  6.2689  83.7461
1314.3  6.21787 85.4477
1314.4  6.14402 87.2078
1314.5  5.86452 89.5128
1314.6  5.59779 91.7043
1314.7  5.44588 92.8761
1314.8  5.31406 94.1127
1314.9  5.36456 95.9177
1315.0  5.39223 97.6109
1315.1  5.21473 98.2994
1315.2  5.0626  98.9779
1315.3  5.13865 99.5667
1315.4  5.23368 99.3968
1315.5  5.50018 92.4128
1315.6  5.75781 86.2392
1315.7  5.9357  87.35
1315.8  6.08328 88.4624
1315.9  5.95628 89.5749
1316.0  5.86743 90.6873
1316.1  6.12143 91.7993
1316.2  6.33349 92.9752
1316.3  6.16839 94.7273
1316.4  6.00473 96.4447
1316.5  5.85223 97.8702
1316.6  5.70229 99.0685
1316.7  5.57537 98.2245
1316.8  5.44193 97.3099
1316.9  5.25143 95.7709
1317.0  5.10032 94.2447
1317.1  5.30332 92.8332
1317.2  5.50891 91.1865
1317.3  5.73805 87.4217
1317.4  5.96177 83.6264
1317.5  6.13927 79.5148
1317.6  6.2914  75.6331
1317.7  6.21544 73.8167
1317.8  6.16607 71.8976
1317.9  6.35657 69.0771
1318.0  6.51909 66.4357
1318.1  6.43009 65.4037
