# Выгружено из ПО "Атлас - Подсчет запасов"
############################################
~VERSION INFORMATION
#MNEM.UNIT                                    DATA : TYPE DESCRIPTION
VERS.                                         1.20 : CWLS LOG ASCII STANDARD_VERSION 1.20
WRAP.                                           NO : One line per depth step
############################################
~WELL INFORMATION
#MNEM.UNIT                                    DATA : TYPE DESCRIPTION
STRT.M                                       983.2 : Start depth
STOP.M                                      3193.9 : Stop depth
STEP.M                                         0.1 : Step
NULL.                                      -999.25 : Null Value
WELL.                                           18 : 18
X.                                        12538497 : X-coordinate of Well Head
Y.                                         8016226 : Y-coordinate of Well Head
RKB.                                          49.8 : RKB
############################################
~CURVE INFORMATION
#MNEM.UNIT                                    DATA : TYPE DESCRIPTION
DEPT.M                                             : DEPT
ГК.у.е.                                            : 
ПС.мВ                                              : 
############################################
~ASCII
# ...
2290.8  6.51528 89.148
2290.9  6.38844 89.7163
2291.0  6.27525 90.3313
2291.1  6.28777 91.354
2291.2  6.2952  92.3543
2291.3  6.25715 93.1773
2291.4  6.1976  93.9492
2291.5  5.9436  94.2818
2291.6  5.72011 94.6231
2291.7  5.77104 95.0425
2291.8  5.84368 95.4372
2291.9  6.10986 95.5985
2292.0  6.37798 95.7611
2292.1  6.65783 95.9323
2292.2  6.92172 96.0911
2292.3  7.04887 96.1422
2292.4  7.1592  96.1768
2292.5  7.1212  96.0654
2292.6  7.09841 95.9537
2292.7  7.21227 95.8414
2292.8  7.30484 95.7027
2292.9  7.20346 95.3301
2293.0  7.1082  94.9576
2293.1  7.07015 94.5937
2293.2  7.03855 94.2553
2293.3  7.06408 94.1387
2293.4  7.06665 94.0161
2293.5  6.86315 93.8371
2293.6  6.6838  93.6745
2293.7  6.72176 93.659
2293.8  6.73312 93.6439
2293.9  6.5049  93.6335
2294.0  6.3028  93.6299
2294.1  6.34085 93.689
2294.2  6.38772 93.7568
2294.3  6.51487 93.9044
2294.4  6.5909  94.0644
2294.5  6.2099  94.3384
2294.6  5.85939 94.6044
2294.7  5.78348 94.7976
2294.8  5.73407 95.0065
2294.9  5.92434 95.3506
2295.0  6.08584 95.6796
2295.1  5.98421 95.8659
2295.2  5.90316 96.0623
2295.3  6.00479 96.3551
2295.4  6.08455 96.6339
2295.5  5.97005 96.7923
2295.6  5.8683  96.9583
2295.7  5.88129 97.191
2295.8  5.91332 97.413
2295.9  6.11608 97.5323
2296.0  6.29394 97.6537
2296.1  6.24338 97.7909
2296.2  6.20686 97.9187
2296.3  6.29547 97.9652
2296.4  6.3877  98.0076
2296.5  6.5147  98.0131
2296.6  6.6265  98.0059
2296.7  6.60153 97.885
2296.8  6.59041 97.7695
2296.9  6.70427 97.7046
2297.0  6.79048 97.6228
2297.1  6.62528 97.3905
2297.2  6.48211 97.1702
2297.3  6.53317 97.0526
2297.4  6.54725 96.9119
2297.5  6.22975 96.5614
2297.6  5.90836 96.2273
2297.7  5.55279 96.0411
2297.8  5.24221 95.8267
2297.9  5.34409 95.3648
2298.0  5.48811 94.9007
2298.1  6.00925 94.4276
2298.2  6.50368 93.985
2298.3  6.77051 93.8048
2298.4  7.01385 93.617
2298.5  7.05235 93.357
2298.6  7.10477 93.1216
2298.7  7.28205 93.1076
2298.8  7.42423 93.1044
2298.9  7.24694 93.1983
2299.0  7.06537 93.2963
2299.1  6.84911 93.4295
2299.2  6.64609 93.5798
2299.3  6.55698 93.8882
2299.4  6.4935  94.2066
2299.5  6.6585  94.6226
2299.6  6.81846 95.0227
2299.7  6.93282 95.2794
2299.8  7.02584 95.5562
2299.9  6.92446 96.0072
2300.0  6.84061 96.4353
2300.1  6.9167  96.6486
2300.2  6.9812  96.8652
2300.3  6.94315 97.1175
2300.4  6.9128  97.3508
2300.5  6.9508  97.4188
2300.6  6.96718 97.4681
2300.7  6.7894  97.3492
2300.8  6.63791 97.2278
2300.9  6.7268  97.086
2301.0  6.79303 96.9054
2301.1  6.65336 96.3798
2301.2  6.53691 95.8375
2301.3  6.62602 95.1321
2301.4  6.6971  94.462
2301.5  6.6081  94.0915
2301.6  6.52925 93.6798
2301.7  6.54174 92.8992
2301.8  6.55936 92.1625
2301.9  6.62278 91.8379
2302.0  6.65837 91.4926
2302.1  6.44211 90.9684
2302.2  6.25821 90.485
2302.3  6.36034 90.3548
2302.4  6.438   90.2283
2302.5  6.298   90.1313
2302.6  6.172   90.0534
2302.7  6.172   90.1473
2302.8  6.16694 90.2404
2302.9  6.11651 90.3238
2303.0  6.05443 90.4053
2303.1  5.88873 90.4684
2303.2  5.73364 90.5278
2303.3  5.67006 90.5558
2303.4  5.63205 90.5804
2303.5  5.82255 90.5744
2303.6  5.99785 90.5642
2303.7  6.03631 90.5168
2303.8  6.09388 90.4694
2303.9  6.3221  90.424
2304.0  6.528   90.3562
2304.1  6.528   90.0884
2304.2  6.52289 89.8324
2304.3  6.47183 89.6767
2304.4  6.40825 89.4961
2304.5  6.23075 89.0871
2304.6  6.09007 88.6994
2304.7  6.28034 88.5042
2304.8  6.43673 88.2776
2304.9  6.28442 87.7753
2305.0  6.14189 87.2535
2305.1  6.09083 86.5681
2305.2  6.02087 85.9124
2305.3  5.77958 85.5059
2305.4  5.55155 85.0423
2305.5  5.43705 84.0553
2305.6  5.35432 83.1186
2305.7  5.55708 82.6362
2305.8  5.7362  82.1092
2305.9  5.69824 81.1939
2306.0  5.63351 80.0481
2306.1  5.32864 76.8492
2306.2  5.03463 73.8397
2306.3  4.83088 72.457
2306.4  4.6277  71.2208
2306.5  4.4247  71.2682
2306.6  4.22969 71.4589
2306.7  4.10684 72.9341
2306.8  3.9943  74.4128
2306.9  3.97732 75.887
2307.0  3.96711 77.3649
2307.1  4.01817 78.8437
2307.2  4.08182 80.2242
2307.3  4.26004 80.7558
2307.4  4.4149  81.3575
2307.5  4.3639  82.602
2307.6  4.31289 83.7797
2307.7  4.26196 84.355
2307.8  4.23637 84.9768
2307.9  4.43963 86.002
2308.0  4.64713 86.9778
2308.1  4.88842 87.4859
2308.2  5.13679 88.0311
2308.3  5.45468 88.9216
2308.4  5.7743  89.7624
2308.5  6.1173  90.1764
2308.6  6.44763 90.6134
2308.7  6.66336 91.2561
2308.8  6.84148 91.8792
2308.9  6.67668 92.3107
2309.0  6.53691 92.7154
2309.1  6.62602 92.8691
2309.2  6.69198 93.0154
2309.3  6.55181 93.0995
2309.4  6.44505 93.1715
2309.5  6.63555 93.1365
2309.6  6.80575 93.0709
2309.7  6.79326 92.7308
2309.8  6.7807  92.36
2309.9  6.76771 91.7213
2310.0  6.73693 91.1046
2310.1  6.54619 90.7012
2310.2  6.34071 90.2306
2310.3  5.99779 89.1462
2310.4  5.6557  88.1071
2310.5  5.3127  87.4481
2310.6  4.97476 86.6864
2310.7  4.68312 85.005
2310.8  4.38821 83.3912
2310.9  4.0711  82.4254
2311.0  3.75191 81.3353
2311.1  3.42101 79.1481
2311.2  3.09096 76.9614
2311.3  2.76056 74.7257
2311.4  2.4348  72.6174
2311.5  2.1428  71.6008
2311.6  1.86093 70.5199
2311.7  1.67066 68.8635
2311.8  1.5015  67.2822
2311.9  1.52647 66.4157
2312.0  1.52868 65.5276
2312.1  1.32543 64.4633
2312.2  1.15827 63.7382
2312.3  1.31095 66.04
2312.4  1.44035 68.208
2312.5  1.36385 69.2274
2312.6  1.30391 70.392
2312.7  1.3928  72.856
2312.8  1.49588 75.2049
2312.9  1.7241  76.4603
2313.0  1.9745  77.8027
2313.1  2.41955 79.8998
2313.2  2.87242 81.8684
2313.3  3.40657 82.7319
2313.4  3.95965 83.646
2313.5  4.69615 85.036
2313.6  5.40986 86.3992
2313.7  5.91724 87.5183
2313.8  6.43222 88.576
2313.9  7.00302 89.0549
2314.0  7.5155  89.5538
2314.1  7.49047 90.2216
2314.2  7.44507 90.843
2314.3  7.21579 91.0627
2314.4  6.9897  91.2639
2314.5  6.7867  91.3024
2314.6  6.62432 91.3221
2314.7  6.82708 91.1733
2314.8  7.01255 90.977
2314.9  7.03802 90.3582
2315.0  7.02541 89.7376
2315.1  6.66947 89.1139
2315.2  6.36397 88.539
2315.3  6.50364 88.3888
2315.4  6.64935 88.2551
2315.5  6.85285 88.2655
2315.6  7.03345 88.2919
2315.7  7.00798 88.4607
2315.8  7.00663 88.6517
2315.9  7.22236 89.0383
2316.0  7.41189 89.4082
2316.1  7.36083 89.6205
2316.2  7.33282 89.8389
2316.3  7.51104 90.1177
2316.4  7.65195 90.3685
2316.5  7.46145 90.374
2316.6  7.2938  90.3633
2316.7  7.33176 90.2065
2316.8  7.33546 89.9771
2316.9  7.03084 89.1002
2317.0  6.76621 88.2391
2317.1  6.86834 87.5403
2317.2  6.93457 86.6158
2317.3  6.68026 83.6437
2317.4  6.45705 80.8758
2317.5  6.50755 79.8738
2317.6  6.51996 78.8007
2317.7  6.19036 77.0923
2317.8  5.90061 75.4953
2317.9  5.97652 74.94
2318.0  6.02337 74.2259
2318.1  5.80711 72.0948
2318.2  5.61936 70.4176
2318.3  5.68294 72.774
2318.4  5.72605 74.955
2318.5  5.58655 75.615
2318.6  5.43046 76.337
2318.7  5.12583 77.6139
2318.8  4.86121 78.8481
2318.9  4.96309 79.6671
2319.0  5.01936 80.4585
2319.1  4.66292 80.9837
2319.2  4.29724 81.1697
2319.3  3.83969 78.3167
2319.4  3.3871  75.6592
2319.5  2.9681  74.6917
2319.6  2.55541 73.6378
2319.7  2.20034 71.8106
2319.8  1.85963 70.0949
2319.9  1.65637 69.4257
2320.0  1.48446 68.7401
2320.1  1.5991  67.9205
2320.2  1.72363 67.1689
2320.3  1.93989 67.0077
2320.4  2.16955 66.8786
2320.5  2.52505 67.0346
2320.6  2.87679 67.2377
2320.7  3.1939  67.8635
2320.8  3.50163 68.4741
2320.9  3.71736 68.9335
2321.0  3.88021 69.443
2321.1  3.56232 70.3926
2321.2  3.24771 71.3392
2321.3  2.95486 72.2808
2321.4  2.66915 73.1762
2321.5  2.44065 73.6782
2321.6  2.30238 74.2325
2321.7  2.97456 75.2553
2321.8  3.623   76.2334
2321.9  4.04199 76.7857
2322.0  4.48483 77.3886
2322.1  5.13312 78.4349
2322.2  5.76076 79.4262
2322.3  6.21831 79.9483
2322.4  6.6557  80.5137
2322.5  6.9227  81.4812
2322.6  7.16555 82.4007
2322.7  7.19102 82.8861
2322.8  7.2127  83.4119
2322.9  7.19971 84.2888
2323.0  7.188   85.157
2323.1  7.188   85.9275
2323.2  7.18164 86.6535
2323.3  7.11806 86.9984
2323.4  7.0394  87.3372
2323.5  6.8234  87.6286
2323.6  6.64557 87.9283
2323.7  6.81087 88.3003
2323.8  6.94343 88.6507
2323.9  6.77813 88.7975
2324.0  6.6265  88.9513
2324.1  6.60147 89.164
2324.2  6.5815  89.3666
2324.3  6.60653 89.4822
