# Выгружено из ПО "Атлас - Подсчет запасов"
############################################
~VERSION INFORMATION
#MNEM.UNIT                                    DATA : TYPE DESCRIPTION
VERS.                                         1.20 : CWLS LOG ASCII STANDARD_VERSION 1.20
WRAP.                                           NO : One line per depth step
############################################
~WELL INFORMATION
#MNEM.UNIT                                    DATA : TYPE DESCRIPTION
STRT.M                                       983.2 : Start depth
STOP.M                                      3193.9 : Stop depth
STEP.M                                         0.1 : Step
NULL.                                      -999.25 : Null Value
WELL.                                           18 : 18
X.                                        12538497 : X-coordinate of Well Head
Y.                                         8016226 : Y-coordinate of Well Head
RKB.                                          49.8 : RKB
############################################
~CURVE INFORMATION
#MNEM.UNIT                                    DATA : TYPE DESCRIPTION
DEPT.M                                             : DEPT
ГК.у.е.                                            : 
ПС.мВ                                              : 
############################################
~ASCII
983.2   -999.25 92.75
983.3   -999.25 93.6087
983.4   -999.25 94.4735
983.5   -999.25 95.3936
983.6   -999.25 96.3136
983.7   -999.25 97.2389
983.8   -999.25 98.1586
983.9   -999.25 99.0339
984.0   -999.25 99.8647
984.1   -999.25 100.291
984.2   -999.25 100.674
984.3   -999.25 100.662
984.4   -999.25 100.617
984.5   -999.25 100.276
984.6   -999.25 99.8802
984.7   -999.25 98.993
984.8   -999.25 98.0793
984.9   -999.25 96.9242
985.0   -999.25 95.8047
985.1   -999.25 95.013
985.2   -999.25 94.2488
985.3   -999.25 93.7375
985.4   -999.25 93.2545
985.5   -999.25 93.0284
985.6   -999.25 92.8192
985.7   -999.25 92.7612
985.8   -999.25 92.7152
985.9   -999.25 92.7772
986.0   -999.25 92.8615
986.1   -999.25 93.1464
986.2   -999.25 93.4381
986.3   -999.25 93.789
986.4   -999.25 94.1349
986.5   -999.25 94.4356
986.6   -999.25 94.7304
986.7   -999.25 94.9745
986.8   -999.25 95.2397
986.9   -999.25 95.6966
987.0   -999.25 96.1384
987.1   -999.25 96.4423
987.2   -999.25 96.7493
987.3   -999.25 97.0822
987.4   -999.25 97.4023
987.5   -999.25 97.6059
987.6   -999.25 97.7819
987.7   -999.25 97.7109
987.8   -999.25 97.6278
987.9   -999.25 97.4358
988.0   -999.25 97.2271
988.1   -999.25 96.8687
988.2   -999.25 96.5033
988.3   -999.25 96.0769
988.4   -999.25 95.6528
988.5   -999.25 95.2486
988.6   -999.25 94.8654
988.7   -999.25 94.6699
988.8   -999.25 94.5023
988.9   -999.25 94.5847
989.0   -999.25 94.6649
989.1   -999.25 94.7233
989.2   -999.25 94.8086
989.3   -999.25 95.1345
989.4   -999.25 95.4575
989.5   -999.25 95.7536
989.6   -999.25 96.0672
989.7   -999.25 96.5394
989.8   -999.25 96.9939
989.9   -999.25 97.2923
990.0   -999.25 97.6039
990.1   -999.25 98.0328
990.2   -999.25 98.4533
990.3   -999.25 98.7962
990.4   -999.25 99.1213
990.5   -999.25 99.2854
990.6   -999.25 99.4186
990.7   -999.25 99.2745
990.8   -999.25 99.0795
990.9   -999.25 98.4252
991.0   -999.25 97.737
991.1   -999.25 96.7478
991.2   -999.25 95.7785
991.3   -999.25 94.9942
991.4   -999.25 94.2716
991.5   -999.25 94.107
991.6   -999.25 93.9693
991.7   -999.25 94.0723
991.8   -999.25 94.1938
991.9   -999.25 94.4812
992.0   -999.25 94.7684
992.1   -999.25 95.0518
992.2   -999.25 95.3391
992.3   -999.25 95.6595
992.4   -999.25 95.9881
992.5   -999.25 96.3913
992.6   -999.25 96.7816
992.7   -999.25 97.0572
992.8   -999.25 97.3242
992.9   -999.25 97.5156
993.0   -999.25 97.7086
993.1   -999.25 97.9146
993.2   -999.25 98.1021
993.3   -999.25 98.1236
993.4   -999.25 98.1215
993.5   -999.25 97.9048
993.6   -999.25 97.6792
993.7   -999.25 97.3716
993.8   -999.25 97.0714
993.9   -999.25 96.836
994.0   -999.25 96.6031
994.1   -999.25 96.3941
994.2   -999.25 96.1804
994.3   -999.25 95.9245
994.4   -999.25 95.6925
994.5   -999.25 95.6769
994.6   -999.25 95.6665
994.7   -999.25 95.7015
994.8   -999.25 95.7471
994.9   -999.25 95.8881
995.0   -999.25 96.0443
995.1   -999.25 96.3367
995.2   -999.25 96.6444
995.3   -999.25 97.0878
995.4   -999.25 97.5287
995.5   -999.25 97.948
995.6   -999.25 98.376
995.7   -999.25 98.8862
995.8   -999.25 99.3622
995.9   -999.25 99.5342
996.0   -999.25 99.6585
996.1   -999.25 99.3541
996.2   -999.25 98.9783
996.3   -999.25 97.9626
996.4   -999.25 96.9545
996.5   -999.25 96.0139
996.6   -999.25 95.034
996.7   -999.25 93.6946
996.8   -999.25 92.431
996.9   -999.25 91.8417
997.0   -999.25 91.3131
997.1   -999.25 91.3346
997.2   -999.25 91.4096
997.3   -999.25 91.9655
997.4   -999.25 92.5127
997.5   -999.25 92.982
997.6   -999.25 93.4642
997.7   -999.25 94.0659
997.8   -999.25 94.6368
997.9   -999.25 94.9347
998.0   -999.25 95.2433
998.1   -999.25 95.6457
998.2   -999.25 96.0199
998.3   -999.25 96.1389
998.4   3.44519 96.2453
998.5   3.35664 96.2378
998.6   3.28586 96.2119
998.7   3.37439 96.0208
998.8   3.45528 95.8054
998.9   3.46802 95.3703
999.0   3.48078 94.9349
999.1   3.49352 94.4998
999.2   -999.25 94.0664
999.3   -999.25 93.6505
999.4   -999.25 93.2523
999.5   -999.25 93.0136
999.6   -999.25 92.7819
999.7   -999.25 92.6108
999.8   -999.25 92.4444
999.9   -999.25 92.319
1000.0  -999.25 92.2217
1000.1  -999.25 92.3781
1000.2  -999.25 92.5393
1000.3  -999.25 92.7417
1000.4  -999.25 92.9558
1000.5  -999.25 93.276
1000.6  -999.25 93.6255
1000.7  -999.25 94.2396
1000.8  3.92684 94.8809
1000.9  3.82537 95.7686
1001.0  3.73905 96.6249
1001.1  3.78954 97.1932
1001.2  3.84136 97.7899
1001.3  3.90484 98.6382
1001.4  3.95951 99.4799
1001.5  3.9345  100.263
1001.6  3.89293 101.022
1001.7  3.70237 101.562
1001.8  3.54621 102.051
1001.9  3.69817 102.079
1002.0  3.85792 102.057
1002.1  4.08685 101.573
1002.2  4.2879  101.009
1002.3  4.23691 99.7331
1002.4  4.19478 98.3905
1002.5  4.2328  96.4448
1002.6  4.25559 94.5974
1002.7  4.14155 93.6216
1002.8  4.02374 92.7126
1002.9  3.87128 92.3992
1003.0  3.74416 92.1303
1003.1  3.84563 92.2627
1003.2  3.95732 92.4167
1003.3  4.16026 92.7636
1003.4  4.33544 93.1258
1003.5  4.25939 93.6266
1003.6  4.18209 94.1327
1003.7  4.09306 94.6888
1003.8  4.03082 95.2368
1003.9  4.20876 95.7147
1004.0  4.38171 96.2153
1004.1  4.50867 96.9171
1004.2  4.60518 97.6144
1004.3  4.42724 98.2672
1004.4  4.267   98.898
1004.5  4.267   99.3308
1004.6  4.26064 99.7368
1004.7  4.19712 99.9049
1004.8  4.15271 100.044
1004.9  4.27967 99.9262
1005.0  4.38259 99.773
1005.1  4.26862 99.3031
1005.2  4.1698  98.8373
1005.3  4.20779 98.4104
1005.4  4.2622  97.9682
1005.5  4.46532 97.3874
1005.6  4.6442  96.802
1005.7  4.60618 96.1729
1005.8  4.57961 95.5555
1005.9  4.65558 95.0412
1006.0  4.7215  94.5621
1006.1  4.69651 94.4031
1006.2  4.69942 94.2605
1006.3  4.95335 94.2649
1006.4  5.15543 94.2761
1006.5  4.88827 94.3471
1006.6  4.64545 94.4382
1006.7  4.61994 94.7098
1006.8  4.59195 95.0136
1006.9  4.54146 95.6089
1007.0  4.47693 96.1995
1007.1  4.28649 96.7438
1007.2  4.14042 97.27
1007.3  4.39435 97.6294
1007.4  4.61539 97.9582
1007.5  4.53884 98.0102
1007.6  4.45348 98.0137
1007.7  4.28843 97.5805
1007.8  4.15146 97.0837
1007.9  4.26593 96.0115
1008.0  4.37536 94.926
1008.1  4.43884 93.7274
1008.2  4.49725 92.5455
1008.3  4.50975 91.5213
1008.4  4.49319 90.5145
1008.5  4.21352 89.6644
1008.6  3.97982 88.8523
1008.7  4.15787 88.3757
1008.8  4.32561 87.9347
1008.9  4.40158 87.8117
1009.0  4.45604 87.7406
1009.1  4.31658 88.136
1009.2  4.20116 88.5753
1009.3  4.30263 89.4076
1009.4  4.38514 90.25
1009.5  4.29609 91.1851
1009.6  4.20584 92.1219
1009.7  4.10431 93.0802
1009.8  4.01555 93.9959
1009.9  4.04104 94.5348
1010.0  4.0602  95.0656
1010.1  4.02221 95.521
1010.2  3.98925 95.912
1010.3  4.00175 95.722
1010.4  3.99534 95.4468
1010.5  3.81773 94.3986
1010.6  3.66686 93.3383
1010.7  3.75539 92.1619
1010.8  3.85792 91.0303
1010.9  4.08685 90.294
1011.0  4.30061 89.5997
1011.1  4.37658 89.2868
1011.2  4.45516 88.9958
1011.3  4.55663 88.9044
1011.4  4.63034 88.8337
1011.5  4.45273 88.9513
1011.6  4.31332 89.089
1011.7  4.51638 89.4091
1011.8  4.68884 89.7555
1011.9  4.58737 90.3393
1012.0  4.4922  90.8972
1012.1  4.45421 91.2186
1012.2  4.43016 91.5533
1012.3  4.53163 92.0057
1012.4  4.62046 92.4412
1012.5  4.59495 92.7249
1012.6  4.55804 93.0117
1012.7  4.41849 93.3288
1012.8  4.30441 93.6437
1012.9  4.41838 93.9401
1013.0  4.51464 94.2284
1013.1  4.45116 94.4418
1013.2  4.38509 94.6507
1013.3  4.29612 94.8171
1013.4  4.22739 94.9658
1013.5  4.34196 94.9532
1013.6  4.46532 94.9107
1013.7  4.66838 94.5981
1013.8  4.8485  94.2689
1013.9  4.82351 93.7886
1014.0  4.79464 93.265
1014.1  4.73116 92.3557
1014.2  4.66509 91.4369
1014.3  4.57612 90.4367
1014.4  4.49978 89.471
1014.5  4.5378  88.8171
1014.6  4.5682  88.2164
1014.7  4.53018 88.0903
1014.8  4.48199 87.9899
1014.9  4.34203 88.1189
1015.0  4.22621 88.2731
1015.1  4.32818 88.6535
1015.2  4.40343 89.0621
1015.3  4.23799 89.7219
1015.4  4.11049 90.4113
1015.5  4.32663 91.3694
1015.6  4.50704 92.3324
1015.7  4.36749 93.3457
1015.8  4.23564 94.3099
1015.9  4.17216 94.8382
1016.0  4.11755 95.273
1016.1  4.14304 94.8636
1016.2  4.1698  94.3422
1016.3  4.20779 92.8162
1016.4  4.25966 91.2987
1016.5  4.43727 89.8573
1016.6  4.58179 88.5016
