# Выгружено из ПО "Атлас - Подсчет запасов"
############################################
~VERSION INFORMATION
#MNEM.UNIT                                    DATA : TYPE DESCRIPTION
VERS.                                         1.20 : CWLS LOG ASCII STANDARD_VERSION 1.20
WRAP.                                           NO : One line per depth step
############################################
~WELL INFORMATION
#MNEM.UNIT                                    DATA : TYPE DESCRIPTION
STRT.M                                       983.2 : Start depth
STOP.M                                      3193.9 : Stop depth
STEP.M                                         0.1 : Step
NULL.                                      -999.25 : Null Value
WELL.                                           18 : 18
X.                                        12538497 : X-coordinate of Well Head
Y.                                         8016226 : Y-coordinate of Well Head
RKB.                                          49.8 : RKB
############################################
~CURVE INFORMATION
#MNEM.UNIT                                    DATA : TYPE DESCRIPTION
DEPT.M                                             : DEPT
ГК.у.е.                                            : 
ПС.мВ                                              : 
############################################
~ASCII
# ...
1989.1  4.82101 100.071
1989.2  4.49617 99.8465
1989.3  3.98786 99.2511
1989.4  3.48394 98.6787
1989.5  3.01394 98.3057
1989.6  2.60496 97.8963
1989.7  2.74437 97.1603
1989.8  2.89543 96.4476
1989.9  3.14943 95.9546
1990.0  3.40979 95.5016
1990.1  3.72729 95.4081
1990.2  4.07654 95.3379
1990.3  4.71193 95.4764
1990.4  5.33767 95.6217
1990.5  5.88367 95.8287
1990.6  6.40552 96.0724
1990.7  6.71033 96.6455
1990.8  6.9812  97.194
1990.9  6.9432  97.514
1991.0  6.92297 97.8608
1991.1  7.06247 98.4483
1991.2  7.16769 99.0115
1991.3  6.96456 99.3567
1991.4  6.77054 99.6693
1991.5  6.65604 99.6928
1991.6  6.56571 99.6937
1991.7  6.69263 99.4908
1991.8  6.79684 99.2326
1991.9  6.69534 98.4791
1992.0  6.59254 97.7853
1992.1  6.47804 97.6283
1992.2  6.38135 97.5739
1992.3  6.44489 98.4424
1992.4  6.49694 99.2635
1992.5  6.44644 99.6685
1992.6  6.3959  100.052
1992.7  6.34493 100.236
1992.8  6.3028  100.392
1992.9  6.3408  100.283
1993.0  6.36739 100.111
1993.1  6.29139 99.3693
1993.2  6.20904 98.6423
1993.3  6.06946 98.0449
1993.4  5.96943 97.368
1993.5  6.22343 95.97
1993.6  6.44309 94.6309
1993.7  6.35415 93.8203
1993.8  6.28927 92.939
1993.9  6.44177 91.431
1994.0  6.57009 89.8969
1994.1  6.48109 88.1284
1994.2  6.37814 86.6047
1994.3  6.1495  87.2816
1994.4  5.96432 87.9166
1994.5  6.16732 88.1821
1994.6  6.37542 88.5227
1994.7  6.62926 89.538
1994.8  6.83382 90.5089
1994.9  6.59232 91.0674
1995.0  6.3763  91.6824
1995.1  6.3893  92.8054
1995.2  6.401   93.8605
1995.3  6.401   94.3058
1995.4  6.37557 94.7735
1995.5  6.12157 95.4475
1995.6  5.893   96.0648
1995.7  5.893   96.1722
1995.8  5.8485  96.2453
1995.9  5.404   96.0088
1996.0  4.9595  95.7542
1996.1  4.515   95.3362
1996.2  4.05016 94.8489
1996.3  3.40176 93.7383
1996.4  2.78596 92.6777
1996.5  2.45596 92.0552
1996.6  2.17426 91.3877
1996.7  2.32667 90.3164
1996.8  2.48813 89.3437
1996.9  2.72913 89.2707
1997.0  2.93839 89.2447
1997.1  2.86239 89.6412
1997.2  2.80546 90.0327
1997.3  2.92003 90.3799
1997.4  3.0675  90.7886
1997.5  3.512   91.7531
1997.6  3.96918 92.6703
1997.7  4.54034 93.1625
1997.8  5.08679 93.7074
1997.9  5.40429 94.7204
1998.0  5.72684 95.6741
1998.1  6.09484 96.0946
1998.2  6.44001 96.5454
1998.3  6.58009 97.2699
1998.4  6.71741 97.9417
1998.5  6.83141 98.1482
1998.6  6.9264  98.3509
1998.7  6.85044 98.5193
1998.8  6.76037 98.6476
1998.9  6.54437 98.4141
1999.0  6.34364 98.18
1999.1  6.28014 97.94
1999.2  6.23316 97.6937
1999.3  6.33472 97.3905
1999.4  6.39676 97.112
1999.5  6.10476 97.052
1999.6  5.71872 97.0087
1999.7  4.48748 97.1151
1999.8  3.40343 97.2401
1999.9  3.65743 97.5311
2000.0  3.94702 97.8097
2000.1  4.55652 97.9767
2000.2  5.15583 98.1604
2000.3  5.66414 98.4946
2000.4  6.11339 98.8113
2000.5  6.03739 98.9738
2000.6  5.95629 99.1507
2000.7  5.82937 99.4575
2000.8  5.76076 99.7474
2000.9  6.21776 99.8814
2001.0  6.65443 100.021
2001.1  6.90843 100.215
2001.2  7.12814 100.391
2001.3  7.03959 100.415
2001.4  6.96886 100.427
2001.5  7.05736 100.337
2001.6  7.10653 100.214
2001.7  6.80222 99.7959
2001.8  6.53561 99.3876
2001.9  6.61161 99.0736
2002.0  6.67109 98.7177
2002.1  6.58209 97.9857
2002.2  6.47789 97.2915
2002.3  6.23674 96.9368
2002.4  6.03652 96.5635
2002.5  6.20152 96.0195
2002.6  6.37161 95.5119
2002.7  6.58748 95.3316
2002.8  6.7858  95.1769
2002.9  6.8238  95.2559
2003.0  6.84273 95.3742
2003.1  6.69023 95.8452
2003.2  6.58222 96.3039
2003.3  6.8744  96.6531
2003.4  7.12303 97.0407
2003.5  6.98353 97.7772
2003.6  6.86946 98.4919
2003.7  6.98389 99.0101
2003.8  7.06793 99.4877
2003.9  6.87743 99.5947
2004.0  6.71616 99.6752
2004.1  6.81766 99.5177
2004.2  6.9052  99.3493
2004.3  6.86717 99.0821
2004.4  6.80246 98.7505
2004.5  6.49746 97.8365
2004.6  6.24081 96.9507
2004.7  6.4187  96.3186
2004.8  6.55102 95.5884
2004.9  6.27152 93.9844
2005.0  5.97169 92.4418
2005.1  5.48919 91.4513
2005.2  5.06771 90.2017
2005.3  5.19479 86.6185
2005.4  5.31916 83.2706
2005.5  5.42066 81.9986
2005.6  5.512   80.6234
2005.7  5.512   78.3203
2005.8  5.52216 76.1483
2005.9  5.62366 75.1823
2006.0  5.7112  74.1699
2006.1  5.6732  72.7409
2006.2  5.65806 71.4004
2006.3  5.84868 70.854
2006.4  6.00854 70.3068
2006.5  5.89404 69.7453
2006.6  5.76303 69.493
2006.7  5.4837  72.0194
2006.8  5.26379 74.4371
2006.9  5.58129 75.8461
2007.0  5.8645  77.4311
2007.1  5.8395  80.5986
2007.2  5.84747 83.586
2007.3  6.15215 84.9558
2007.4  6.44002 86.3591
2007.5  6.58002 88.0781
2007.6  6.72756 89.6673
2007.7  6.94293 90.0901
2007.8  7.12428 90.4381
2007.9  6.99728 90.1091
2008.0  6.85757 89.7163
2008.1  6.60357 88.7503
2008.2  6.38901 87.8079
2008.3  6.52909 87.077
2008.4  6.60539 86.2151
2008.5  6.10989 84.1686
2008.6  5.64749 82.1905
2008.7  5.48259 80.8273
2008.8  5.30221 79.2589
2008.9  4.98471 75.8624
2009.0  4.73334 72.608
2009.1  5.07634 70.6305
2009.2  5.36464 68.4288
2009.3  5.16101 64.2073
2009.4  4.95642 59.9986
2009.5  4.74092 55.8601
2009.6  4.55841 51.9456
2009.7  4.67234 50.0437
2009.8  4.76609 48
2009.9  4.67709 44.7034
2010.0  4.57412 41.6002
2010.1  4.34562 40.2337
2010.2  4.17052 38.7873
2010.3  4.4757  36.6205
2010.4  4.73473 34.5885
2010.5  4.58223 33.7445
2010.6  4.48567 32.8527
2010.7  4.89193 31.531
2010.8  5.22366 30.2863
2010.9  4.88066 29.7498
2011.0  4.58727 29.1786
2011.1  4.73977 28.2956
2011.2  4.86049 27.4344
2011.3  4.69539 26.768
2011.4  4.5457  26.1458
2011.5  4.5327  25.9138
2011.6  4.51084 25.6819
2011.7  4.40941 25.4516
2011.8  4.3587  25.2421
2011.9  4.7652  25.2236
2012.0  5.11193 25.2154
2012.1  4.92143 25.2994
2012.2  4.73854 25.3826
2012.3  4.62397 25.4587
2012.4  4.53246 25.5513
2012.5  4.64696 25.7943
2012.6  4.73219 26.0466
2012.7  4.5543  26.3824
2012.8  4.394   26.7011
2012.9  4.394   26.8616
2013.0  4.3953  27.027
2013.1  4.4083  27.237
2013.2  4.44922 27.4313
2013.3  4.7414  27.4838
2013.4  5.0002  27.5447
2013.5  4.9622  27.6817
2013.6  4.93816 27.8414
2013.7  5.03959 28.2052
2013.8  5.12334 28.5608
2013.9  5.04684 28.8383
2014.0  4.99072 29.1491
2014.1  5.11772 29.7596
2014.2  5.21294 30.3341
2014.3  5.02232 30.5847
2014.4  4.83703 30.8329
2014.5  4.69753 31.0614
2014.6  4.58471 31.2614
2014.7  4.71163 31.2054
2014.8  4.81964 31.1125
2014.9  4.75614 30.6885
2015.0  4.70411 30.2405
2015.1  4.75511 29.5765
2015.2  4.7997  28.946
2015.3  4.78669 28.6163
2015.4  4.75212 28.2741
2015.5  4.52362 27.8161
2015.6  4.33326 27.3949
2015.7  4.48567 27.3039
2015.8  4.60518 27.2304
2015.9  4.42718 27.3144
2016.0  4.28102 27.4027
2016.1  4.42102 27.5297
2016.2  4.56476 27.6689
2016.3  4.74237 27.9181
2016.4  4.89439 28.1456
2016.5  4.81839 28.1811
2016.6  4.76651 28.2021
2016.7  4.93141 28.0932
2016.8  5.06218 27.9534
2016.9  4.88418 27.5373
2017.0  4.74437 27.1369
2017.1  4.94788 26.8764
2017.2  5.11829 26.5924
2017.3  4.99121 26.0966
2017.4  4.88972 25.6155
2017.5  5.01672 25.2605
2017.6  5.10939 24.9306
2017.7  4.89352 24.8272
2017.8  4.69775 24.7302
2017.9  4.68525 24.6922
2018.0  4.69432 24.6639
2018.1  4.89732 24.7229
2018.2  5.07109 24.799
2018.3  4.98204 25.0286
2018.4  4.88548 25.2505
2018.5  4.72048 25.405
2018.6  4.572   25.5804
2018.7  4.572   25.9437
2018.8  4.57455 26.3129
2018.9  4.60005 26.7309
2019.0  4.63191 27.1282
2019.1  4.72091 27.3402
2019.2  4.79845 27.5703
2019.3  4.77293 27.963
2019.4  4.77163 28.3311
2019.5  4.98763 28.4816
2019.6  5.16799 28.6353
2019.7  5.02808 28.8182
2019.8  4.90836 28.9841
2019.9  4.97186 28.9946
2020.0  5.00612 28.9988
2020.1  4.77762 28.9473
2020.2  4.55674 28.8809
2020.3  4.40415 28.6803
2020.4  4.28102 28.4853
2020.5  4.42102 28.3388
2020.6  4.54445 28.1722
2020.7  4.51896 27.8244
2020.8  4.49345 27.4912
2020.9  4.46795 27.2937
2021.0  4.45136 27.076
2021.1  4.51486 26.6765
2021.2  4.57455 26.2782
2021.3  4.60007 25.8899
2021.4  4.65098 25.5238
2021.5  4.93048 25.3518
2021.6  5.15403 25.1706
2021.7  4.8747  24.9067
2021.8  4.62806 24.6599
2021.9  4.67856 24.5694
2022.0  4.71128 24.4797
2022.1  4.58428 24.3967
2022.2  4.44458 24.3223
2022.3  4.19043 24.3253
2022.4  3.95184 24.3389
2022.5  3.85034 24.4474
