# Выгружено из ПО "Атлас - Подсчет запасов"
############################################
~VERSION INFORMATION
#MNEM.UNIT                                    DATA : TYPE DESCRIPTION
VERS.                                         1.20 : CWLS LOG ASCII STANDARD_VERSION 1.20
WRAP.                                           NO : One line per depth step
############################################
~WELL INFORMATION
#MNEM.UNIT                                    DATA : TYPE DESCRIPTION
STRT.M                                       983.2 : Start depth
STOP.M                                      3193.9 : Stop depth
STEP.M                                         0.1 : Step
NULL.                                      -999.25 : Null Value
WELL.                                           18 : 18
X.                                        12538497 : X-coordinate of Well Head
Y.                                         8016226 : Y-coordinate of Well Head
RKB.                                          49.8 : RKB
############################################
~CURVE INFORMATION
#MNEM.UNIT                                    DATA : TYPE DESCRIPTION
DEPT.M                                             : DEPT
ГК.у.е.                                            : 
ПС.мВ                                              : 
############################################
~ASCII
# ...
2156.7  6.05844 90.4362
2156.8  5.96307 90.1566
2156.9  6.15334 89.8934
2157.0  6.34658 89.6549
2157.1  6.56234 89.6444
2157.2  6.73948 89.6647
2157.3  6.57428 89.9621
2157.4  6.42475 90.29
2157.5  6.41225 90.9
2157.6  6.39464 91.4844
2157.7  6.33122 91.8375
2157.8  6.29688 92.2351
2157.9  6.5251  93.0247
2158.0  6.72339 93.7729
2158.1  6.6473  94.1324
2158.2  6.56628 94.5182
2158.3  6.43913 95.1499
2158.4  6.3402  95.7347
2158.5  6.4922  95.9117
2158.6  6.60612 96.0762
2158.7  6.3779  96.1281
2158.8  6.18091 96.1393
2158.9  6.2698  95.7832
2159.0  6.3462  95.432
2159.1  6.30815 95.1321
2159.2  6.28672 94.7958
2159.3  6.41387 94.124
2159.4  6.51655 93.4842
2159.5  6.40205 93.1162
2159.6  6.28373 92.7302
2159.7  6.13142 92.1839
2159.8  6.00927 91.6871
2159.9  6.16158 91.6481
2160.0  6.30666 91.5332
2160.1  6.38325 90.7358
2160.2  6.4545  90.0481
2160.3  6.47953 90.3289
2160.4  6.469   90.7526
2160.5  6.139   92.4686
2160.6  5.84836 94.0415
2160.7  5.91178 94.3262
2160.8  5.99698 94.5726
2160.9  6.27614 94.4693
2161.0  6.55849 94.3314
2161.1  6.86336 93.8854
2161.2  7.12428 93.4447
2161.3  6.99713 93.0423
2161.4  6.85255 92.6741
2161.5  6.54805 92.6057
2161.6  6.28541 92.5654
2161.7  6.39927 92.7786
2161.8  6.4982  92.9902
2161.9  6.46024 93.1814
2162.0  6.4298  93.4034
2162.1  6.46785 93.8975
2162.2  6.49694 94.3633
2162.3  6.44638 94.5861
2162.4  6.4175  94.8257
2162.5  6.5825  95.2227
2162.6  6.74497 95.5881
2162.7  6.8843  95.6685
2162.8  6.96424 95.7277
2162.9  6.5078  95.5948
2163.0  6.09475 95.4169
2163.1  6.08223 94.8357
2163.2  6.08241 94.2736
2163.3  6.19655 93.8696
2163.4  6.29645 93.4342
2163.5  6.27095 92.7057
2163.6  6.23023 92.0206
2163.7  6.05295 91.7275
2163.8  5.90061 91.433
2163.9  5.97652 91.1333
2164.0  6.03739 90.8578
2164.1  5.9613  90.8057
2164.2  5.91968 90.7707
2164.3  6.18651 90.8873
2164.4  6.45395 91.0236
2164.5  6.73345 91.3401
2164.6  6.95832 91.6445
2164.7  6.69214 91.8393
2164.8  6.47358 92.0671
2164.9  6.68881 92.5864
2165.0  6.86268 93.0824
2165.1  6.65943 93.3562
2165.2  6.49607 93.6646
2165.3  6.68681 94.2909
2165.4  6.85545 94.8831
2165.5  6.82995 95.1841
2165.6  6.8108  95.5172
2165.7  6.84876 96.138
2165.8  6.89191 96.7259
2165.9  6.9808  97.004
2166.0  7.03432 97.3084
2166.1  6.76749 97.842
2166.2  6.52289 98.3609
2166.3  6.47183 98.7599
2166.4  6.44505 99.1293
2166.5  6.63555 99.2423
2166.6  6.78923 99.3567
2166.7  6.61195 99.4836
2166.8  6.43543 99.5964
2166.9  6.27013 99.5804
2167.0  6.11339 99.5566
2167.1  6.0373  99.4625
2167.2  5.96645 99.3679
2167.3  5.94092 99.2668
2167.4  5.8977  99.1566
2167.5  5.6947  98.9621
2167.6  5.53998 98.7744
2167.7  5.81914 98.6491
2167.8  6.06079 98.511
2167.9  5.95891 98.2618
2168.0  5.85684 97.9999
2168.1  5.75521 97.6284
2168.2  5.68052 97.2681
2168.3  5.84572 96.9993
2168.4  5.97625 96.6928
2168.5  5.79875 96.0408
2168.6  5.6377  95.4123
2168.7  5.62471 94.9958
2168.8  5.61811 94.5249
2168.9  5.66904 93.5766
2169.0  5.68196 92.6642
2169.1  5.35156 92.096
2169.2  5.08043 91.4613
2169.3  5.33474 90.2137
2169.4  5.5871  88.9544
2169.5  5.8281  87.5584
2169.6  6.06027 86.2285
2169.7  6.21258 85.4949
2169.8  6.35891 84.6986
2169.9  6.4478  83.3583
2170.0  6.50382 82.091
2170.1  6.26203 81.5108
2170.2  6.07424 80.9184
2170.3  6.36659 80.2025
2170.4  6.6138  79.5495
2170.5  6.4618  79.4445
2170.6  6.30082 79.3977
2170.7  6.05962 79.8731
2170.8  5.87124 80.3554
2170.9  6.16288 80.8883
2171.0  6.41203 81.5101
2171.1  6.27236 82.9213
2171.2  6.13809 84.3207
2171.3  6.04898 85.6478
2171.4  5.94235 86.893
2171.5  5.67585 87.433
2171.6  5.45122 88.0321
2171.7  5.60303 89.1608
2171.8  5.76798 90.2454
2171.9  6.04714 90.9076
2172.0  6.31172 91.6507
2172.1  6.43887 93.108
2172.2  6.53393 94.5347
2172.3  6.34319 95.7222
2172.4  6.17835 96.8222
2172.5  6.24185 97.1637
2172.6  6.32698 97.4931
2172.7  6.60614 97.7133
2172.8  6.86055 97.8986
2172.9  6.88602 97.7653
2173.0  6.91536 97.5916
2173.1  6.97894 97.0574
2173.2  7.03089 96.5204
2173.3  6.97983 95.9442
2173.4  6.9099  95.4076
2173.5  6.6689  95.2136
2173.6  6.47358 95.0353
2173.7  6.68881 94.9983
2173.8  6.86012 94.9736
2173.9  6.6319  95.059
2174.0  6.41839 95.1605
2174.1  6.3423  95.4053
2174.2  6.28672 95.6274
2174.3  6.41387 95.6514
2174.4  6.5407  95.659
2174.5  6.6677  95.5195
2174.6  6.76037 95.3514
2174.7  6.54464 94.927
2174.8  6.35    94.5177
2174.9  6.35    94.255
2175.0  6.32712 93.9757
2175.1  6.09834 93.5527
2175.2  5.90697 93.1537
2175.3  6.04664 92.961
2175.4  6.1593  92.7899
2175.5  6.0323  92.8089
2175.6  5.92946 92.8641
2175.7  6.04382 93.2441
2175.8  6.14955 93.6158
2175.9  6.17502 93.9029
2176.0  6.2018  94.2264
2176.1  6.23985 94.8702
2176.2  6.25618 95.4906
2176.3  6.07796 95.9166
2176.4  5.9307  96.3041
2176.5  6.0577  96.3551
2176.6  6.19107 96.3885
2176.7  6.38134 96.2642
2176.8  6.54794 96.1366
2176.9  6.49751 95.9833
2177.0  6.45961 95.8119
2177.1  6.5357  95.4805
2177.2  6.58237 95.2153
2177.3  6.36611 95.5382
2177.4  6.1644  95.8495
2177.5  6.0884  96.0639
2177.6  6.02255 96.3135
2177.7  6.04802 96.8768
2177.8  6.08116 97.4048
2177.9  6.18254 97.602
2178.0  6.29177 97.7868
2178.1  6.46949 97.8543
2178.2  6.61884 97.8745
2178.3  6.51721 97.469
2178.4  6.41205 97.0754
2178.5  6.27255 96.7794
2178.6  6.16988 96.4487
2178.7  6.3981  95.807
2178.8  6.58748 95.2243
2178.9  6.42268 95.1873
2179.0  6.28672 95.1662
2179.1  6.41387 95.2884
2179.2  6.52164 95.4451
2179.3  6.45806 95.9162
2179.4  6.40735 96.3604
2179.5  6.47085 96.5744
2179.6  6.53561 96.8029
2179.7  6.61152 97.161
2179.8  6.65587 97.4897
2179.9  6.41516 97.5461
2180.0  6.21452 97.5816
2180.1  6.37972 97.4279
2180.2  6.54707 97.2328
2180.3  6.73781 96.6606
2180.4  6.9001  96.0981
2180.5  6.8111  95.6086
2180.6  6.731   95.0193
2180.7  6.731   93.5356
2180.8  6.72975 92.1058
2180.9  6.71726 91.1964
2181.0  6.66019 90.0937
2181.1  6.20214 87.2702
2181.2  5.7948  84.3798
2181.3  5.83285 80.8174
2181.4  5.84795 77.4304
2181.5  5.65745 75.5339
2181.6  5.46693 73.4883
2181.7  5.27666 70.11
2181.8  5.09228 66.9316
2181.9  4.96544 65.6312
2182.0  4.82307 64.3046
2182.1  4.54373 62.7702
2182.2  4.30697 61.3217
2182.3  4.44664 60.6088
2182.4  4.58215 60.1081
2182.5  4.68365 61.4991
2182.6  4.76484 63.0196
2182.7  4.66346 65.6988
2182.8  4.59618 68.3039
2182.9  4.83738 70.1786
2183.0  5.04354 72.2847
2183.1  4.9289  76.4318
2183.2  4.85268 80.3489
2183.3  5.11951 82.2978
2183.4  5.38695 84.365
2183.5  5.66645 87.545
2183.6  5.92311 90.6263
2183.7  5.97404 92.8141
2183.8  6.04924 94.8651
2183.9  6.34088 95.6347
2184.0  6.60145 96.4386
2184.1  6.57592 97.535
2184.2  6.53773 98.553
2184.3  6.38505 98.8935
2184.4  6.25565 99.2351
2184.5  6.33215 99.5961
2184.6  6.40355 99.9228
2184.7  6.42902 99.9408
2184.8  6.44054 99.9343
2184.9  6.32618 99.7081
2185.0  6.223   99.4456
2185.1  6.223   98.8614
2185.2  6.23061 98.2949
2185.3  6.3067  97.8739
2185.4  6.36995 97.3978
2185.5  6.31945 96.4153
2185.6  6.29177 95.5031
2185.7  6.46906 95.2244
2185.8  6.59341 94.8671
2185.9  6.23834 93.8109
2186.0  5.89637 92.7521
2186.1  5.68011 91.6933
2186.2  5.4835  90.8693
2186.3  5.45847 92.1329
2186.4  5.436   93.2345
2186.5  5.436   92.909
2186.6  5.42454 92.528
2186.7  5.31018 91.6501
2186.8  5.20955 90.6163
2186.9  5.23502 88.2047
2187.0  5.31142 85.8597
2187.1  5.84557 84.1666
2187.2  6.31479 82.2753
2187.3  6.21266 78.5577
2187.4  6.12485 74.8799
2187.5  6.16335 71.4689
2187.6  6.18654 68.2619
2187.7  6.07218 66.8941
2187.8  5.95118 65.4773
2187.9  5.7734  63.6551
2188.0  5.64229 61.9647
2188.1  5.93514 61.5022
2188.2  6.17127 61.0649
2188.3  5.90394 60.8442
2188.4  5.65385 60.6604
2188.5  5.55235 60.8044
2188.6  5.44448 61.0185
2188.7  5.27968 61.8615
2188.8  5.14627 62.8088
2188.9  5.29858 64.6725
2189.0  5.44106 66.4919
2189.1  5.49162 67.8711
2189.2  5.53445 69.4427
2189.3  5.50892 72.7798
2189.4  5.49745 75.9464
2189.5  5.61195 77.6609
2189.6  5.73918 79.5086
2189.7  5.98038 82.5469
2189.8  6.21322 85.5198
2189.9  6.36503 87.8325
2190.0  6.5033  90.0082
2190.1  6.51632 90.8997
