# Выгружено из ПО "Атлас - Подсчет запасов"
############################################
~VERSION INFORMATION
#MNEM.UNIT                                    DATA : TYPE DESCRIPTION
VERS.                                         1.20 : CWLS LOG ASCII STANDARD_VERSION 1.20
WRAP.                                           NO : One line per depth step
############################################
~WELL INFORMATION
#MNEM.UNIT                                    DATA : TYPE DESCRIPTION
STRT.M                                       983.2 : Start depth
STOP.M                                      3193.9 : Stop depth
STEP.M                                         0.1 : Step
NULL.                                      -999.25 : Null Value
WELL.                                           18 : 18
X.                                        12538497 : X-coordinate of Well Head
Y.                                         8016226 : Y-coordinate of Well Head
RKB.                                          49.8 : RKB
############################################
~CURVE INFORMATION
#MNEM.UNIT                                    DATA : TYPE DESCRIPTION
DEPT.M                                             : DEPT
ГК.у.е.                                            : 
ПС.мВ                                              : 
############################################
~ASCII
# ...
1418.8  5.10798 55.6814
1418.9  5.38748 55.2059
1419.0  5.64661 54.7781
1419.1  5.72261 54.7791
1419.2  5.77959 54.8119
1419.3  5.66552 55.1306
1419.4  5.59093 55.4807
1419.5  5.86993 56.1167
1419.6  6.09689 56.705
1419.7  5.85603 56.8649
1419.8  5.65677 57.0249
1419.9  5.83427 57.1839
1420.0  6.01563 57.3271
1420.1  6.23163 57.3281
1420.2  6.41329 57.3132
1420.3  6.28621 57.1556
1420.4  6.19618 56.9823
1420.5  6.43768 56.6658
1420.6  6.64354 56.2699
1420.7  6.52911 55.1601
1420.8  6.43236 54.1283
1420.9  6.49586 53.8118
1421.0  6.54664 53.5271
1421.1  6.48314 53.5281
1421.2  6.41459 53.5767
1421.3  6.30052 54.054
1421.4  6.21452 54.4831
1421.5  6.37952 54.4841
1421.6  6.51909 54.5327
1421.7  6.43015 55.0094
1421.8  6.36782 55.5186
1421.9  6.54582 56.3136
1422.0  6.70089 57.2039
1422.1  6.64989 58.9509
1422.2  6.6002  60.6343
1422.3  6.56217 61.7475
1422.4  6.50257 62.8435
1422.5  6.24857 63.797
1422.6  6.03016 64.385
1422.7  6.13159 61.6881
1422.8  6.223   59.1309
1422.9  6.223   57.8619
1423.0  6.1836  56.5612
1423.1  5.7901  54.9747
1423.2  5.41694 53.5948
1423.3  5.22632 54.0726
1423.4  5.06261 54.4703
1423.5  5.13861 54.1538
1423.6  5.17143 53.8532
1423.7  4.81614 53.6953
1423.8  4.52013 53.3147
1423.9  4.76113 50.9347
1424.0  4.97294 48.7613
1424.1  4.92244 48.4448
1424.2  4.89986 48.1283
1424.3  5.1285  47.8111
1424.4  5.33145 47.5261
1424.5  5.30595 47.5271
1424.6  5.30972 47.5757
1424.7  5.57655 48.0524
1424.8  5.79157 48.6728
1424.9  5.53757 50.5788
1425.0  5.31536 52.3418
1425.1  5.37886 52.8193
1425.2  5.4347  53.3603
1425.3  5.42169 54.4729
1425.4  5.42402 55.5208
1425.5  5.56402 55.9983
1425.6  5.67979 56.4121
1425.7  5.57786 56.2537
1425.8  5.4873  55.9363
1425.9  5.5003  54.1913
1426.0  5.48276 52.4304
1426.1  5.19076 50.5264
1426.2  4.95086 48.686
1426.3  5.1795  47.4162
1426.4  5.37864 46.2433
1426.5  5.31514 45.9268
1426.6  5.2656  45.5626
1426.7  5.34156 44.7701
1426.8  5.39348 44.0402
1426.9  5.22848 43.8827
1427.0  5.09907 43.7251
1427.1  5.28957 43.5666
1427.2  5.43558 43.3923
1427.3  5.18143 43.0756
1427.4  4.97082 42.807
1427.5  5.14882 42.967
1427.6  5.3039  43.0952
1427.7  5.25293 42.9373
1427.8  5.22227 42.8269
1427.9  5.37477 43.1454
1428.0  5.5107  43.4798
1428.1  5.4977  43.9573
1428.2  5.45808 44.403
1428.3  5.17891 44.5626
1428.4  4.93816 44.7061
1428.5  5.03966 44.7066
1428.6  5.15261 44.723
1428.7  5.36848 44.8829
1428.8  5.55279 45.0271
1428.9  5.45079 45.0281
1429.0  5.3565  45.0132
1429.1  5.3315  44.8552
1429.2  5.30265 44.729
1429.3  5.23911 44.8891
1429.4  5.18836 44.9695
1429.5  5.25186 44.3355
1429.6  5.3039  43.7492
1429.7  5.25293 43.5913
1429.8  5.19809 43.4014
1429.9  5.10909 42.9259
1430.0  5.01759 42.4981
1430.1  4.90359 42.4991
1430.2  4.79335 42.5001
1430.3  4.7168  42.5011
1430.4  4.66837 42.5021
1430.5  4.87187 42.5031
1430.6  5.05115 42.52
1430.7  5.01267 42.6794
1430.8  4.99707 42.839
1430.9  5.18757 42.999
1431.0  5.37302 43.1908
1431.1  5.51302 43.6678
1431.2  5.61739 44.1288
1431.3  5.40125 44.447
1431.4  5.22607 44.749
1431.5  5.41657 44.909
1431.6  5.56769 45.069
1431.7  5.36481 45.2284
1431.8  5.19722 45.388
1431.9  5.34922 45.548
1432.0  5.47203 45.7239
1432.1  5.33253 46.0424
1432.2  5.23877 46.345
1432.3  5.55646 46.5046
1432.4  5.82928 46.6481
1432.5  5.70228 46.6491
1432.6  5.59816 46.6501
1432.7  5.69959 46.6506
1432.8  5.74905 46.667
1432.9  5.33005 46.827
1433.0  4.96697 46.9075
1433.1  5.10647 46.2735
1433.2  5.23075 45.7031
1433.3  5.21824 45.7041
1433.4  5.20575 45.6892
1433.5  5.19325 45.5312
1433.6  5.17815 45.3447
1433.7  5.13967 44.9025
1433.8  5.09739 44.4975
1433.9  5.02139 44.433
1434.0  4.94284 44.3737
1434.1  4.84134 44.3607
1434.2  4.76651 44.3588
1434.3  4.93161 44.4569
1434.4  5.06473 44.5522
1434.5  4.91223 44.6237
1434.6  4.77755 44.7035
1434.7  4.80304 44.8584
1434.8  4.83746 45.0044
1434.9  4.95196 45.0679
1435.0  5.0537  45.1278
1435.1  5.0407  45.1558
1435.2  5.02775 45.167
1435.3  5.01524 45.0269
1435.4  5.01036 44.8904
1435.5  5.07386 44.7844
1435.6  5.14496 44.6711
1435.7  5.28437 44.4922
1435.8  5.39984 44.3266
1435.9  5.29834 44.2831
1436.0  5.22097 44.2467
1436.1  5.36047 44.2732
1436.2  5.48095 44.3115
1436.3  5.43042 44.456
1436.4  5.40788 44.5971
1436.5  5.63638 44.7076
1436.6  5.82039 44.8328
1436.7  5.60452 45.0901
1436.8  5.41    45.3336
1436.9  5.41    45.4496
1437.0  5.40239 45.5633
1437.1  5.32639 45.6558
1437.2  5.26305 45.7222
1437.3  5.31358 45.5541
1437.4  5.32851 45.3858
1437.5  5.02401 45.2138
1437.6  4.76526 45.0183
1437.7  4.91767 44.6121
1437.8  5.0537  44.2275
1437.9  5.0407  44.043
1438.0  5.01373 43.8525
1438.1  4.86123 43.608
1438.2  4.74436 43.382
1438.3  4.94799 43.3225
1438.4  5.12084 43.2727
1438.5  5.01934 43.3097
1438.6  4.94706 43.3685
1438.7  5.13745 43.6234
1438.8  5.28737 43.8779
1438.9  5.07137 44.1269
1439.0  4.88461 44.4274
1439.1  4.96061 45.1904
1439.2  5.0252  45.9849
1439.3  4.98717 47.0635
1439.4  4.96061 48.1009
1439.5  5.03661 48.7794
1439.6  5.11391 49.5699
1439.7  5.20285 51.3668
1439.8  5.26268 53.1017
1439.9  5.05968 54.2572
1440.0  4.88716 55.5637
1440.1  4.98866 58.2277
1440.2  5.09396 60.885
1440.3  5.23354 63.4851
1440.4  5.37427 65.9314
1440.5  5.52677 67.0244
1440.6  5.65259 68.1697
1440.7  5.53866 69.7847
1440.8  5.45377 71.2909
1440.9  5.63127 71.7994
1441.0  5.78594 72.3004
1441.1  5.73544 72.7339
1441.2  5.68615 73.0969
1441.3  5.64762 72.8263
1441.4  5.61936 72.5496
1441.5  5.68286 72.2161
1441.6  5.76291 71.8354
1441.7  5.99177 71.0309
1441.8  6.21452 70.273
1441.9  6.37952 69.943
1442.0  6.5242  69.6292
1442.1  6.4862  69.4612
1442.2  6.43929 69.2928
1442.3  6.31221 69.1207
1442.4  6.21958 69.0782
1442.5  6.43508 70.1987
1442.6  6.6303  71.3492
1442.7  6.64329 72.7693
1442.8  6.63463 73.9061
1442.9  6.43113 72.4786
1443.0  6.23914 71.2895
1443.1  6.15064 72.243
1443.2  6.09006 73.1964
1443.3  6.28068 74.1505
1443.4  6.45961 75.1825
1443.5  6.53561 76.9255
1443.6  6.60525 78.6131
1443.7  6.61774 79.8023
1443.8  6.61123 81.0944
1443.9  6.43373 83.2959
1444.0  6.28291 85.5262
1444.1  6.37191 88.0152
1444.2  6.42023 90.0492
1444.3  6.10254 87.9909
1444.4  5.84113 85.9076
1444.5  6.08213 83.5761
1444.6  6.29775 81.3193
1444.7  6.28526 79.7337
1444.8  6.26254 78.0074
1444.9  6.14804 75.0354
1445.0  6.03739 72.2505
1445.1  5.96139 71.1465
1445.2  5.8917  70.0211
1445.3  5.87869 68.7018
1445.4  5.867   67.4865
1445.5  5.867   67.1915
1445.6  5.87335 66.9189
1445.7  5.93682 66.8479
1445.8  6.01693 66.8026
1445.9  6.24593 66.9881
1446.0  6.43928 67.2357
1446.1  6.31228 68.0417
1446.2  6.18529 68.9052
1446.3  6.05821 70.287
1446.4  5.95672 71.6173
1446.5  6.08372 72.4993
1446.6  6.18909 73.4954
1446.7  6.10015 75.5166
1446.8  6.03272 77.4463
1446.9  6.15972 78.5278
1447.0  6.30198 79.7179
1447.1  6.58148 81.8844
1447.2  6.78722 83.9394
1447.3  6.32944 84.9936
1447.4  5.94473 86.139
1447.5  6.21173 88.1165
1447.6  6.44054 89.9864
1447.7  6.32611 90.8888
1447.8  6.21664 91.8628
1447.9  6.15314 93.4693
1448.0  6.09345 95.0507
1448.1  6.06795 96.4062
1448.2  6.04755 97.684
1448.3  6.07307 98.2644
1448.4  6.0998  98.8742
1448.5  6.1378  99.7547
1448.6  6.17075 100.573
1448.7  6.15826 100.831
1448.8  6.15461 101.07
1448.9  6.23061 101.137
1449.0  6.27357 101.177
1449.1  6.01957 100.982
1449.2  5.78595 100.727
1449.3  5.73542 99.9303
1449.4  5.73831 99.0855
1449.5  6.22081 97.802
1449.6  6.65245 96.5666
1449.7  6.62696 95.763
1449.8  6.57857 94.8464
1449.9  6.32457 92.9224
1450.0  6.07437 91.0839
1450.1  5.85837 90.0139
1450.2  5.70342 88.8405
1450.3  6.09766 86.7352
1450.4  6.44434 84.7553
1450.5  6.36784 83.8793
1450.6  6.27994 82.992
1450.7  6.08955 82.0036
1450.8  5.9218  81.0175
1450.9  5.9598  80.064
1451.0  6.01818 79.3888
1451.1  6.25968 81.2143
1451.2  6.44903 83.0308
1451.3  6.16936 84.7683
1451.4  5.94218 86.4306
1451.5  6.18368 87.4351
1451.6  6.37048 88.5246
1451.7  6.06567 90.3779
1451.8  5.76432 92.2003
1451.9  5.49782 93.7213
1452.0  5.28979 95.1696
1452.1  5.60729 95.9646
1452.2  5.89935 96.3175
1452.3  5.96289 92.6928
