# Выгружено из ПО "Атлас - Подсчет запасов"
############################################
~VERSION INFORMATION
#MNEM.UNIT                                    DATA : TYPE DESCRIPTION
VERS.                                         1.20 : CWLS LOG ASCII STANDARD_VERSION 1.20
WRAP.                                           NO : One line per depth step
############################################
~WELL INFORMATION
#MNEM.UNIT                                    DATA : TYPE DESCRIPTION
STRT.M                                       983.2 : Start depth
STOP.M                                      3193.9 : Stop depth
STEP.M                                         0.1 : Step
NULL.                                      -999.25 : Null Value
WELL.                                           18 : 18
X.                                        12538497 : X-coordinate of Well Head
Y.                                         8016226 : Y-coordinate of Well Head
RKB.                                          49.8 : RKB
############################################
~CURVE INFORMATION
#MNEM.UNIT                                    DATA : TYPE DESCRIPTION
DEPT.M                                             : DEPT
ГК.у.е.                                            : 
ПС.мВ                                              : 
############################################
~ASCII
# ...
3162.3  9.71197 79.8927
3162.4  9.82015 79.8797
3162.5  9.75165 79.8667
3162.6  9.69446 79.8539
3162.7  9.7389  79.8424
3162.8  9.77024 79.8309
3162.9  9.68285 79.8199
3163.0  9.59619 79.8103
3163.1  9.5181  79.8133
3163.2  9.45716 79.8163
3163.3  9.54877 79.8188
3163.4  9.62815 79.8213
3163.5  9.59965 79.8237
3163.6  9.5765  79.8262
3163.7  9.60147 79.8287
3163.8  9.60793 79.8357
3163.9  9.44763 79.8821
3164.0  9.30015 79.9266
3164.1  9.27161 79.9521
3164.2  9.25641 79.9777
3164.3  9.36054 80.0042
3164.4  9.455   80.0306
3164.5  9.465   80.0572
3164.6  9.48156 80.0836
3164.7  9.55697 80.1096
3164.8  9.62375 80.1339
3164.9  9.61126 80.1423
3165.0  9.58854 80.1509
3165.1  9.4739  80.1594
3165.2  9.37125 80.1679
3165.3  9.37375 80.1769
3165.4  9.3771  80.1858
3165.5  9.3881  80.1944
3165.6  9.39164 80.2029
3165.7  9.32822 80.2113
3165.8  9.26464 80.2199
3165.9  9.20122 80.2283
3166.0  9.15036 80.2369
3166.1  9.21393 80.2459
3166.2  9.28161 80.2548
3166.3  9.38774 80.2628
3166.4  9.48245 80.2709
3166.5  9.47695 80.2799
3166.6  9.45853 80.2869
3166.7  9.3242  80.2765
3166.8  9.19624 80.2659
3166.9  9.12882 80.2555
3167.0  -999.25 80.2449
3167.1  -999.25 80.2344
3167.2  -999.25 80.2239
3167.3  -999.25 80.2134
3167.4  -999.25 80.203
3167.5  -999.25 80.193
3167.6  -999.25 80.1829
3167.7  -999.25 80.1725
3167.8  9.31054 80.1619
3167.9  9.19618 80.1509
3168.0  9.11338 80.14
3168.1  9.31712 80.13
3168.2  9.49489 80.1208
3168.3  9.44383 80.1182
3168.4  9.3891  80.1157
3168.5  9.3001  80.1133
3168.6  9.22386 80.1107
3168.7  9.26231 80.1083
3168.8  9.2971  80.1058
3168.9  9.2981  80.1038
3169.0  9.28473 80.097
3169.1  9.14206 80.0469
3169.2  8.99888 79.9857
3169.3  8.8477  79.8225
3169.4  8.71505 79.6597
3169.5  8.74555 79.4967
3169.6  8.79443 79.327
3169.7  9.00816 79.0978
3169.8  9.20806 78.8467
3169.9  9.27847 78.4047
3170.0  9.34585 -999.25
3170.1  9.3844  -999.25
3170.2  9.42446 -999.25
3170.3  9.47902 -999.25
3170.4  9.5242  -999.25
3170.5  9.4862  -999.25
3170.6  9.43658 -999.25
3170.7  9.28277 -999.25
3170.8  9.13764 -999.25
3170.9  9.07422 -999.25
3171.0  9.0196  -999.25
3171.1  9.04564 -999.25
3171.2  9.06895 -999.25
3171.3  9.06845 -999.25
3171.4  9.069   -999.25
3171.5  9.079   -999.25
3171.6  9.09065 -999.25
3171.7  9.11712 -999.25
3171.8  9.15321 -999.25
3171.9  9.27507 -999.25
3172.0  9.38865 -999.25
3172.1  9.4252  -999.25
3172.2  9.44353 -999.25
3172.3  9.29886 -999.25
3172.4  9.1792  -999.25
3172.5  9.2812  -999.25
3172.6  9.36794 -999.25
3172.7  9.31751 -999.25
3172.8  9.28326 -999.25
3172.9  9.39563 -999.25
3173.0  9.48714 -999.25
3173.1  9.38852 -999.25
3173.2  9.2963  -999.25
3173.3  9.25925 -999.25
3173.4  9.2422  -999.25
3173.5  9.4042  -999.25
3173.6  9.5464  -999.25
3173.7  9.51044 -999.25
3173.8  9.49307 -999.25
3173.9  9.64338 -999.25
3174.0  9.78155 -999.25
3174.1  9.80708 -999.25
3174.2  9.81844 -999.25
3174.3  9.7028  -999.25
3174.4  9.6042  -999.25
3174.5  9.6562  -999.25
3174.6  9.69654 -999.25
3174.7  9.63212 -999.25
3174.8  9.56809 -999.25
3174.9  9.50916 -999.25
3175.0  9.45355 -999.25
3175.1  9.42902 -999.25
3175.2  9.41261 -999.25
3175.3  9.46867 -999.25
3175.4  9.5231  -999.25
3175.5  9.5641  -999.25
3175.6  9.60235 -999.25
3175.7  9.61584 -999.25
3175.8  9.63431 -999.25
3175.9  9.69723 -999.25
3176.0  9.74374 -999.25
3176.1  9.64111 -999.25
3176.2  9.54875 -999.25
3176.3  9.54625 -999.25
3176.4  9.561   -999.25
3176.5  9.731   -999.25
3176.6  9.87614 -999.25
3176.7  9.79774 -999.25
3176.8  9.72735 -999.25
3176.9  9.73085 -999.25
3177.0  9.74111 -999.25
3177.1  9.8122  -999.25
3177.2  9.8762  -999.25
3177.3  9.8782  -999.25
3177.4  9.86855 -999.25
3177.5  9.75405 -999.25
3177.6  9.64589 -999.25
3177.7  9.59496 -999.25
3177.8  9.54249 -999.25
3177.9  9.47757 -999.25
3178.0  9.40658 -999.25
3178.1  9.28243 -999.25
3178.2  9.16074 -999.25
3178.3  9.05811 -999.25
3178.4  8.9787  -999.25
3178.5  9.1057  -999.25
3178.6  9.22305 -999.25
3178.7  9.25352 -999.25
3178.8  9.28546 -999.25
3178.9  9.3299  -999.25
3179.0  9.36625 -999.25
3179.1  9.3287  -999.25
3179.2  9.28354 -999.25
3179.3  9.1689  -999.25
3179.4  9.06705 -999.25
3179.5  9.07755 -999.25
3179.6  9.07018 -999.25
3179.7  8.90238 -999.25
3179.8  8.74715 -999.25
3179.9  8.70869 -999.25
3180.0  8.68837 -999.25
3180.1  8.83204 -999.25
3180.2  8.97352 -999.25
3180.3  9.09867 -999.25
3180.4  9.21525 -999.25
3180.5  9.25775 -999.25
3180.6  9.31147 -999.25
3180.7  9.46578 -999.25
3180.8  9.6057  -999.25
3180.9  9.61269 -999.25
3181.0  9.61304 -999.25
3181.1  9.55347 -999.25
3181.2  9.5019  -999.25
3181.3  9.52093 -999.25
3181.4  9.5387  -999.25
3181.5  9.5457  -999.25
3181.6  9.5545  -999.25
3181.7  9.57947 -999.25
3181.8  9.59414 -999.25
3181.9  9.51574 -999.25
3182.0  9.43053 -999.25
3182.1  9.28586 -999.25
3182.2  9.1561  -999.25
3182.3  9.1571  -999.25
3182.4  9.15855 -999.25
3182.5  9.16405 -999.25
3182.6  9.16144 -999.25
3182.7  9.08603 -999.25
3182.8  9.02426 -999.25
3182.9  9.08668 -999.25
3183.0  9.12653 -999.25
3183.1  8.96183 -999.25
3183.2  8.82672 -999.25
3183.3  8.95387 -999.25
3183.4  9.07695 -999.25
3183.5  9.16645 -999.25
3183.6  9.2497  -999.25
3183.7  9.27667 -999.25
3183.8  9.3011  -999.25
3183.9  9.3021  -999.25
3184.0  9.30085 -999.25
3184.1  9.27932 -999.25
3184.2  9.24528 -999.25
3184.3  9.0981  -999.25
3184.4  8.9697  -999.25
3184.5  9.0067  -999.25
3184.6  9.03124 -999.25
3184.7  8.94385 -999.25
3184.8  8.87136 -999.25
3184.9  8.93478 -999.25
3185.0  9.00101 -999.25
3185.1  9.09112 -999.25
3185.2  9.17701 -999.25
3185.3  9.22707 -999.25
3185.4  9.27075 -999.25
3185.5  9.25825 -999.25
3185.6  9.23674 -999.25
3185.7  9.13436 -999.25
3185.8  9.04836 -999.25
3185.9  9.11178 -999.25
3186.0  9.16655 -999.25
3186.1  9.14202 -999.25
3186.2  9.10593 -999.25
3186.3  8.96526 -999.25
3186.4  8.8505  -999.25
3186.5  8.9655  -999.25
3186.6  9.06014 -999.25
3186.7  8.97175 -999.25
3186.8  8.8955  -999.25
3186.9  8.93046 -999.25
3187.0  8.96986 -999.25
3187.1  9.04846 -999.25
3187.2  9.12255 -999.25
3187.3  9.1581  -999.25
3187.4  9.18765 -999.25
3187.5  9.16415 -999.25
3187.6  9.1443  -999.25
3187.7  9.15729 -999.25
3187.8  9.15769 -999.25
3187.9  9.04482 -999.25
3188.0  8.93289 -999.25
3188.1  8.83176 -999.25
3188.2  8.73194 -999.25
3188.3  8.64133 -999.25
3188.4  8.57125 -999.25
3188.5  8.68375 -999.25
3188.6  8.79136 -999.25
3188.7  8.85478 -999.25
3188.8  8.91455 -999.25
3188.9  8.94002 -999.25
3189.0  8.95449 -999.25
3189.1  8.86939 -999.25
3189.2  8.79736 -999.25
3189.3  8.84091 -999.25
3189.4  8.8787  -999.25
3189.5  8.8657  -999.25
3189.6  8.8542  -999.25
3189.7  8.8562  -999.25
3189.8  8.84308 -999.25
3189.9  8.69426 -999.25
3190.0  8.56506 -999.25
3190.1  8.61562 -999.25
3190.2  8.66616 -999.25
3190.3  8.71772 -999.25
3190.4  8.77015 -999.25
3190.5  8.83165 -999.25
3190.6  8.8886  -999.25
3190.7  8.90458 -999.25
3190.8  8.92155 -999.25
3190.9  8.94702 -999.25
3191.0  8.95583 -999.25
3191.1  8.81416 -999.25
3191.2  8.69171 -999.25
3191.3  8.73876 -999.25
3191.4  8.781   -999.25
3191.5  8.781   -999.25
3191.6  8.78911 -999.25
3191.7  8.87001 -999.25
3191.8  8.94035 -999.25
3191.9  8.91388 -999.25
3192.0  8.89516 -999.25
3192.1  8.94672 -999.25
3192.2  9.00181 -999.25
3192.3  9.08992 -999.25
3192.4  9.169   -999.25
3192.5  9.169   -999.25
3192.6  9.169   -999.25
3192.7  9.169   -999.25
3192.8  9.18172 -999.25
3192.9  9.30856 -999.25
3193.0  9.41284 -999.25
3193.1  9.31121 -999.25
3193.2  9.23412 -999.25
3193.3  9.37529 -999.25
3193.4  9.51965 -999.25
3193.5  9.69615 -999.25
3193.6  9.87382 -999.25
3193.7  10.0616 -999.25
3193.8  10.244  -999.25
