# Выгружено из ПО "Атлас - Подсчет запасов"
############################################
~VERSION INFORMATION
#MNEM.UNIT                                    DATA : TYPE DESCRIPTION
VERS.                                         1.20 : CWLS LOG ASCII STANDARD_VERSION 1.20
WRAP.                                           NO : One line per depth step
############################################
~WELL INFORMATION
#MNEM.UNIT                                    DATA : TYPE DESCRIPTION
STRT.M                                       983.2 : Start depth
STOP.M                                      3193.9 : Stop depth
STEP.M                                         0.1 : Step
NULL.                                      -999.25 : Null Value
WELL.                                           18 : 18
X.                                        12538497 : X-coordinate of Well Head
Y.                                         8016226 : Y-coordinate of Well Head
RKB.                                          49.8 : RKB
############################################
~CURVE INFORMATION
#MNEM.UNIT                                    DATA : TYPE DESCRIPTION
DEPT.M                                             : DEPT
ГК.у.е.                                            : 
ПС.мВ                                              : 
############################################
~ASCII
# ...
2726.5  8.307   98.0846
2726.6  8.42028 97.9601
2726.7  8.29344 97.8712
2726.8  8.16628 97.7734
2726.9  8.03944 97.5976
2727.0  7.91989 97.4214
2727.1  7.86883 97.2452
2727.2  7.83066 97.0687
2727.3  7.90725 96.8855
2727.4  7.98995 96.7027
2727.5  8.12945 96.5191
2727.6  8.24864 96.3357
2727.7  8.18522 96.1529
2727.8  8.12545 95.9696
2727.9  8.09998 95.7864
2728.0  8.05287 95.6044
2728.1  7.81158 95.4382
2728.2  7.57718 95.2724
2728.3  7.39896 95.1067
2728.4  7.2225  94.9432
2728.5  7.0575  94.7952
2728.6  6.92807 94.6472
2728.7  7.11834 94.4994
2728.8  7.27598 94.3735
2728.9  7.13615 94.4479
2729.0  7.02907 94.5347
2729.1  7.21981 94.7314
2729.2  7.39991 94.9164
2729.3  7.48902 95.0005
2729.4  7.51185 95.0898
2729.5  6.94035 95.2278
2729.6  6.43746 95.3604
2729.7  6.55182 95.4438
2729.8  6.64484 95.5354
2729.9  6.54346 95.6987
2730.0  6.50411 95.8655
2730.1  7.02525 96.0608
2730.2  7.46757 96.2476
2730.3  7.21326 96.3638
2730.4  6.99895 96.4916
2730.5  7.13845 96.7271
2730.6  7.264   96.952
2730.7  7.264   97.0819
2730.8  7.29198 97.212
2730.9  7.57114 97.3413
2731.0  7.79887 97.471
2731.1  7.55758 97.6006
2731.2  7.3448  97.7252
2731.3  7.38285 97.8073
2731.4  7.4373  97.8892
2731.5  7.6403  97.9717
2731.6  7.83572 98.0495
2731.7  7.96256 98.0839
2731.8  8.0732  98.1185
2731.9  8.03524 98.1529
2732.0  8.00736 98.1831
2732.1  8.07094 98.1741
2732.2  8.10893 98.1489
2732.3  7.91819 97.9777
2732.4  7.76095 97.8118
2732.5  7.90045 97.6904
2732.6  8.01203 97.5469
2732.7  7.8727  97.2063
2732.8  7.73428 96.8762
2732.9  7.60744 96.649
2733.0  7.47012 96.3847
2733.1  7.24134 95.792
2733.2  7.00676 95.2004
2733.3  6.71441 94.6047
2733.4  6.4418  94.0488
2733.5  6.3398  93.8363
2733.6  6.26327 93.6216
2733.7  6.41558 93.3884
2733.8  6.56316 93.1791
2733.9  6.66454 93.1895
2734.0  6.74584 93.2117
2734.1  6.64421 93.3389
2734.2  6.54159 93.4598
2734.3  6.42745 93.5279
2734.4  6.3161  93.602
2734.5  6.2271  93.732
2734.6  6.16988 93.8569
2734.7  6.3981  93.9353
2734.8  6.63454 94.0246
2734.9  6.93917 94.2104
2735.0  7.19107 94.3871
2735.1  6.96179 94.4777
2735.2  6.77002 94.5589
2735.3  6.91019 94.5584
2735.4  7.0449  94.5352
2735.5  7.1339  94.3072
2735.6  7.20379 94.0846
2735.7  7.10191 93.9113
2735.8  7.02782 93.7088
2735.9  7.2056  93.2479
2736.0  7.33166 92.8077
2736.1  6.98824 92.5649
2736.2  6.64566 92.2993
2736.3  6.30224 91.8228
2736.4  5.9991  91.3721
2736.5  6.0501  91.1437
2736.6  6.04894 90.9056
2736.7  5.57952 90.5825
2736.8  5.13693 90.2748
2736.9  4.94666 90.113
2737.0  4.79788 89.9684
2737.1  5.02666 89.9819
2737.2  5.24982 90.0052
2737.3  5.42804 90.1168
2737.4  5.61595 90.2274
2737.5  5.89545 90.3309
2737.6  6.16988 90.4496
2737.7  6.3981  90.7053
2737.8  6.62182 90.9485
2737.9  6.7996  91.0728
2738.0  6.95234 91.2073
2738.1  6.87575 91.4306
2738.2  6.79428 91.6426
2738.3  6.66713 91.7588
2738.4  6.57585 91.8678
2738.5  6.80435 91.9158
2738.6  6.99859 91.9576
2738.7  6.88473 91.9436
2738.8  6.75782 91.9197
2738.9  6.51662 91.8074
2739.0  6.32188 91.6773
2739.1  6.55066 91.3899
2739.2  6.74714 91.1203
2739.3  6.65853 91.0037
2739.4  6.5739  90.8929
2739.5  6.5229  90.8314
2739.6  6.45918 90.7784
2739.7  6.2814  90.8024
2739.8  6.12611 90.8253
2739.9  6.17704 90.8383
2740.0  6.24463 90.8417
2740.1  6.46089 90.7591
2740.2  6.64989 90.6745
2740.3  6.59883 90.5699
2740.4  6.55175 90.4302
2740.5  6.53925 89.9727
2740.6  6.53306 89.5279
2740.7  6.58349 89.1978
2740.8  6.61378 88.8226
2740.9  6.46197 88.05
2741.0  6.31609 87.3169
2741.1  6.22698 86.9554
2741.2  6.12412 86.576
2741.3  5.89534 86.0264
2741.4  5.7027  85.5108
2741.5  5.8297  85.2888
2741.6  5.92493 85.088
2741.7  5.73466 85.078
2741.8  5.54393 85.0856
2741.9  5.35366 85.2514
2742.0  5.19977 85.4177
2742.1  5.37749 85.5844
2742.2  5.52809 85.7794
2742.3  5.43898 86.2329
2742.4  5.35775 86.698
2742.5  5.34525 87.2775
2742.6  5.34291 87.8313
2742.7  5.4318  88.1534
2742.8  5.50564 88.5133
2742.9  5.44222 89.205
2743.0  5.38755 89.8621
2743.1  5.41308 90.193
2743.2  5.45122 90.5555
2743.3  5.6034  91.2103
2743.4  5.75145 91.8335
2743.5  5.86595 92.1885
2743.6  5.98046 92.5747
2743.7  6.09482 93.2404
2743.8  6.22849 93.9067
2743.9  6.53262 94.5624
2744.0  6.8032  95.1801
2744.1  6.76515 95.4409
2744.2  6.72975 95.7117
2744.3  6.71723 96.0786
2744.4  6.6958  96.4153
2744.5  6.5938  96.4888
2744.6  6.52873 96.5517
2744.7  6.79541 96.5193
2744.8  7.02964 96.4824
2744.9  6.96622 96.4065
2745.0  6.94079 96.3176
2745.1  7.25868 96.1139
2745.2  7.52363 95.9039
2745.3  7.31988 95.6325
2745.4  7.12815 95.378
2745.5  7.03965 95.268
2745.6  6.94218 95.1557
2745.7  6.7644  95.0228
2745.8  6.60275 94.906
2745.9  6.59026 94.936
2746.0  6.60824 94.9838
2746.1  6.90059 95.1921
2746.2  7.16555 95.4177
2746.3  7.19108 95.8047
2746.4  7.2267  96.1742
2746.5  7.3537  96.3968
2746.6  7.46034 96.6424
2746.7  7.38393 97.0948
2746.8  7.28832 97.5286
2746.9  7.02214 97.7838
2747.0  6.79977 98.0566
2747.1  6.97749 98.4826
2747.2  7.14085 98.884
2747.3  7.1794  99.0737
2747.4  7.23305 99.2628
2747.5  7.42355 99.4508
2747.6  7.56571 99.6256
2747.7  7.27357 99.681
2747.8  7.03038 99.7286
2747.9  7.23363 99.7046
2748.0  7.42206 99.6629
2748.1  7.47262 99.4616
2748.2  7.52566 99.2651
2748.3  7.60225 99.1064
2748.4  7.6532  98.9258
2748.5  7.4752  98.5438
2748.6  7.33918 98.1658
2748.7  7.58038 97.8242
2748.8  7.7942  97.5062
2748.9  7.75624 97.4083
2749.0  7.71689 97.3142
2749.1  7.66583 97.2561
2749.2  7.59837 97.2119
2749.3  7.38211 97.291
2749.4  7.1677  97.3874
2749.5  6.9647  97.6414
2749.6  6.75146 97.8861
2749.7  6.44684 98.0464
2749.8  6.18602 98.2176
2749.9  6.32585 98.4828
2750.0  6.46472 98.7416
2750.1  6.59187 98.9379
2750.2  6.70089 99.118
2750.3  6.64983 99.1581
2750.4  6.63065 99.1794
2750.5  6.89715 99.0334
2750.6  7.15863 98.8883
2750.7  7.37436 98.7514
2750.8  7.56394 98.5828
2750.9  7.51351 98.1324
2751.0  7.43871 97.7026
2751.1  7.14586 97.4688
2751.2  6.87159 97.1983
2751.3  6.75745 96.591
2751.4  6.63085 95.9943
2751.5  6.38935 95.4773
2751.6  6.15928 94.9943
2751.7  6.03244 94.818
2751.8  5.93963 94.6367
2751.9  6.15536 94.4139
2752.0  6.32968 94.2106
2752.1  6.12643 94.1866
2752.2  5.96177 94.1688
2752.3  6.13949 94.2063
2752.4  6.30155 94.263
2752.5  6.32705 94.4935
2752.6  6.34489 94.7209
2752.7  6.29396 94.9197
2752.8  6.24164 95.1412
2752.9  6.17822 95.5622
2753.0  6.14263 95.9673
2753.1  6.35889 96.2206
2753.2  6.57207 96.5009
2753.3  6.76281 97.0301
2753.4  6.9124  97.5359
2753.5  6.6964  97.8449
2753.6  6.52998 98.162
2753.7  6.80914 98.551
2753.8  7.04959 98.9086
2753.9  6.93573 98.974
2754.0  6.82534 99.0248
2754.1  6.74875 98.9427
2754.2  6.68891 98.8133
2754.3  6.77802 98.2567
2754.4  6.8529  97.7013
2754.5  6.8019  97.1443
2754.6  6.76236 96.5873
2754.7  6.82578 96.0315
2754.8  6.84741 95.4972
2754.9  6.49234 95.1701
2755.0  6.18852 94.8444
2755.1  6.35372 94.5385
2755.2  6.48678 94.2644
2755.3  6.3346  94.2684
2755.4  6.19415 94.2762
2755.5  6.15565 94.3182
2755.6  6.13757 94.3336
2755.7  6.30287 94.1098
2755.8  6.45836 93.8848
2755.9  6.52178 93.6531
2756.0  6.58786 93.3671
2756.1  6.67647 92.5982
2756.2  6.73442 91.8009
2756.3  6.51866 90.7296
2756.4  6.3415  89.7071
2756.5  6.5065  89.0981
2756.6  6.62191 88.4153
2756.7  6.29181 87.0714
2756.8  5.96351 85.7951
2756.9  5.65938 85.1579
2757.0  5.39261 84.4558
2757.1  5.4687  83.1843
2757.2  5.51793 81.9849
2757.3  5.32719 81.4042
2757.4  5.1522  80.7875
2757.5  5.1142  79.8325
2757.6  5.06603 78.9185
2757.7  4.9267  78.3752
2757.8  4.77807 77.8769
2757.9  4.54935 77.7965
2758.0  4.36718 77.7396
2758.1  4.60897 77.8958
2758.2  4.84632 78.0856
2758.3  5.04957 78.5817
2758.4  5.2168  79.0645
2758.5  5.0648  79.4395
2758.6  4.9318  79.8641
2758.7  4.96976 80.733
2758.8  5.0078  81.5679
2758.9  5.04576 82.0758
2759.0  5.07875 82.6352
2759.1  5.06623 83.6475
2759.2  5.04098 84.6112
2759.3  4.90081 85.1634
2759.4  4.77245 85.7557
2759.5  4.74695 86.7233
2759.6  4.74818 87.6411
2759.7  4.98938 88.111
2759.8  5.23624 88.6266
2759.9  5.52788 89.5405
