# Выгружено из ПО "Атлас - Подсчет запасов"
############################################
~VERSION INFORMATION
#MNEM.UNIT                                    DATA : TYPE DESCRIPTION
VERS.                                         1.20 : CWLS LOG ASCII STANDARD_VERSION 1.20
WRAP.                                           NO : One line per depth step
############################################
~WELL INFORMATION
#MNEM.UNIT                                    DATA : TYPE DESCRIPTION
STRT.M                                       983.2 : Start depth
STOP.M                                      3193.9 : Stop depth
STEP.M                                         0.1 : Step
NULL.                                      -999.25 : Null Value
WELL.                                           18 : 18
X.                                        12538497 : X-coordinate of Well Head
Y.                                         8016226 : Y-coordinate of Well Head
RKB.                                          49.8 : RKB
############################################
~CURVE INFORMATION
#MNEM.UNIT                                    DATA : TYPE DESCRIPTION
DEPT.M                                             : DEPT
ГК.у.е.                                            : 
ПС.мВ                                              : 
############################################
~ASCII
# ...
1553.0  6.47407 65.0326
1553.1  6.19507 63.2811
1553.2  5.92999 61.5456
1553.3  5.78991 59.9516
1553.4  5.64623 58.3437
1553.5  5.46873 56.5927
1553.6  5.29374 54.9688
1553.7  5.14133 54.4871
1553.8  5.00525 54.0366
1553.9  5.01775 53.8731
1554.0  5.03791 53.7413
1554.1  5.12691 53.8943
1554.2  5.22351 54.1586
1554.3  5.38861 55.4244
1554.4  5.5383  56.8635
1554.5  5.5513  59.8745
1554.6  5.58076 62.6947
1554.7  5.75815 63.8
1554.8  5.93707 65.4312
1554.9  6.12757 71.7757
1555.0  6.28884 77.7388
1555.1  6.18734 80.2738
1555.2  6.09475 83.0945
1555.3  6.08224 88.4898
1555.4  6.07606 93.1212
1555.5  6.12656 90.9462
1555.6  6.16059 88.7715
1555.7  6.04666 86.5988
1555.8  5.96177 84.312
1555.9  6.13927 81.0255
1556.0  6.28123 78.1628
1556.1  6.10373 79.1098
1556.2  5.95921 80.2633
1556.3  6.1113  83.2767
1556.4  6.23784 86.2388
1556.5  6.13634 88.7733
1556.6  6.04755 91.3394
1556.7  6.07304 94.1902
1556.8  6.09725 96.6949
1556.9  6.10975 96.0544
1557.0  6.09687 95.0007
1557.1  5.85587 90.2332
1557.2  5.65171 85.6565
1557.3  5.77879 82.7918
1557.4  5.91843 79.5012
1557.5  6.17243 72.3522
1557.6  6.35652 65.8391
1557.7  5.91229 65.0405
1557.8  5.52472 64.5112
1557.9  5.65172 66.4112
1558.0  5.75709 68.2476
1558.1  5.66809 69.5121
1558.2  5.60581 70.7924
1558.3  5.78392 72.2168
1558.4  5.95416 73.417
1558.5  6.05566 72.618
1558.6  6.13554 71.7237
1558.7  6.02111 69.9733
1558.8  5.91675 68.6021
1558.9  5.90425 70.6606
1559.0  5.87898 72.878
1559.1  5.73898 76.524
1559.2  5.62701 80.1063
1559.3  5.76709 83.1191
1559.4  5.8892  85.5881
1559.5  5.8512  83.2016
1559.6  5.80679 81.0058
1559.7  5.70486 80.5246
1559.8  5.61811 80.2971
1559.9  5.66911 82.3556
1560.0  5.73152 84.5253
1560.1  5.89652 87.6948
1560.2  6.0374  90.4353
1560.3  5.96135 89.3186
1560.4  5.90061 88.076
1560.5  5.97661 85.689
1560.6  6.04245 82.9051
1560.7  6.01696 76.554
1560.8  6.00546 70.6556
1560.9  6.11996 68.9041
1561.0  6.21664 67.1368
1561.1  6.15314 65.2268
1561.2  6.07314 63.2692
1561.3  5.8445  60.8807
1561.4  5.639   58.6858
1561.5  5.639   58.2048
1561.6  5.63009 57.8191
1561.7  5.54115 58.2893
1561.8  5.46991 58.9032
1561.9  5.55891 60.8032
1562.0  5.63134 62.735
1562.1  5.55484 64.952
1562.2  5.49871 67.0259
1562.3  5.62579 67.8154
1562.4  5.71968 68.7152
1562.5  5.51667 70.6147
1562.6  5.33655 72.5777
1562.7  5.36204 75.1111
1562.8  5.36973 77.5047
1562.9  5.21723 78.6102
1563.0  5.04946 79.7317
1563.1  4.74446 80.9967
1563.2  4.45479 82.3251
1563.3  4.3027  84.2257
1563.4  4.18632 85.9812
1563.5  4.38932 86.4527
1563.6  4.58471 86.6858
1563.7  4.71163 84.7765
1563.8  4.80818 82.9124
1563.9  4.63018 81.4784
1564.0  4.50309 79.7424
1564.1  4.83359 75.2919
1564.2  5.1297  71.2706
1564.3  5.11669 71.107
1564.4  5.12663 71.3409
1564.5  5.34263 75.1454
1564.6  5.5408  78.6161
1564.7  5.57878 79.0868
1564.8  5.64734 79.6217
1564.9  5.99034 80.7277
1565.0  6.29645 81.9927
1565.1  6.27095 84.6862
1565.2  6.2493  87.1889
1565.3  6.26231 87.9779
1565.4  6.2702  88.4958
1565.5  6.2322  86.5858
1565.6  6.18529 84.6441
1565.7  6.05837 82.4174
1565.8  5.96688 80.2198
1565.9  6.19538 78.3098
1566.0  6.401   76.5427
1566.1  6.401   76.0607
1566.2  6.39845 75.8648
1566.3  6.37293 78.2427
1566.4  6.35761 80.4907
1566.5  6.43361 81.5962
1566.6  6.46773 82.4793
1566.7  6.12544 81.364
1566.8  5.84243 80.4061
1566.9  6.09643 80.8766
1567.0  6.31228 81.6015
1567.1  6.18528 84.613
1567.2  6.04558 87.5131
1567.3  5.79143 89.4137
1567.4  5.59479 91.3281
1567.5  5.91229 93.3866
1567.6  6.18529 95.2861
1567.7  6.05837 95.7568
1567.8  5.95672 95.9421
1567.9  6.08372 93.5556
1568.0  6.18654 91.2167
1568.1  6.07204 89.3062
1568.2  5.96775 87.4277
1568.3  5.95524 85.8342
1568.4  5.93889 84.3379
1568.5  5.88789 83.6974
1568.6  5.85471 83.1046
1568.7  5.98163 82.9412
1568.8  6.05911 82.8729
1568.9  5.69061 83.6609
1569.0  5.36921 84.5602
1569.1  5.47121 86.4602
1569.2  5.55535 88.3124
1569.3  5.4788  89.7368
1569.4  5.42402 91.1119
1569.5  5.56402 92.0594
1569.6  5.6925  93.0703
1569.7  5.71749 94.6513
1569.8  5.73875 96.0119
1569.9  5.72625 95.3719
1570.0  5.72646 94.6524
1570.1  5.84096 93.2179
1570.2  5.9389  91.4976
1570.3  5.88787 87.204
1570.4  5.85216 83.106
1570.5  5.95366 80.719
1570.6  6.03484 78.4276
1570.7  5.93341 76.9949
1570.8  5.86363 75.624
1570.9  6.07963 74.8245
1571.0  6.26509 74.184
1571.1  6.17609 74.973
1571.2  6.12142 75.9048
1571.3  6.37557 78.1232
1571.4  6.59764 80.1642
1571.5  6.53414 80.6352
1571.6  6.4732  81.0267
1571.7  6.43522 80.7039
1571.8  6.40355 80.2695
1571.9  6.42905 78.836
1572.0  6.44179 77.5931
1572.1  6.33979 78.0636
1572.2  6.25565 78.5659
1572.3  6.3322  79.3554
1572.4  6.38698 80.3346
1572.5  6.24698 83.0276
1572.6  6.1223  85.6411
1572.7  6.13529 87.54
1572.8  6.16863 89.4253
1572.9  6.38463 91.1663
1573.0  6.54971 92.8755
1573.1  6.25721 94.299
1573.2  6.00421 95.6271
1573.3  6.10627 96.0984
1573.4  6.19034 96.6327
1573.5  6.11384 97.7387
1573.6  6.05771 98.797
1573.7  6.18463 99.4261
1573.8  6.31682 99.9607
1573.9  6.49482 99.6382
1574.0  6.63848 99.2044
1574.1  6.47348 97.7704
1574.2  6.33516 96.3842
1574.3  6.43672 95.4261
1574.4  6.49366 94.1035
1574.5  6.15066 89.494
1574.6  5.81278 85.2026
1574.7  5.52096 83.7699
1574.8  5.26941 81.9857
1574.9  5.38341 77.0587
1575.0  5.50763 72.4978
1575.1  5.72363 71.2278
1575.2  5.91675 69.8468
1575.3  5.90424 67.4643
1575.4  5.87137 65.2277
1575.5  5.65537 64.2757
1575.6  5.47496 63.2125
1575.7  5.61437 61.1497
1575.8  5.75272 59.1321
1575.9  5.87972 57.5446
1576.0  5.99275 56.108
1576.1  5.98025 56.0285
1576.2  5.94869 56.1079
1576.3  5.74556 57.6174
1576.4  5.5668  59.1012
1576.5  5.6048  60.3712
1576.6  5.65931 61.7682
1576.7  5.86219 64.3066
1576.8  6.03484 66.7052
1576.9  5.93334 67.8162
1577.0  5.84961 69.0863
1577.1  5.92561 71.7858
1577.2  5.97114 74.3579
1577.3  5.7425  75.7873
1577.4  5.55227 77.2469
1577.5  5.70477 78.9934
1577.6  5.8382  80.6921
1577.7  5.80022 81.9613
1577.8  5.78377 83.1209
1577.9  5.96127 83.2794
1578.0  6.10959 83.1518
1578.1  5.99559 80.4533
1578.2  5.9006  77.9456
1578.3  5.97665 77.1511
1578.4  6.02593 76.0873
1578.5  5.83543 72.5948
1578.6  5.67546 69.3885
1578.7  5.78989 68.7544
1578.8  5.87773 67.9605
1578.9  5.72523 65.738
1579.0  5.5918  63.6903
1579.1  5.6298  63.2143
1579.2  5.68436 63.0242
1579.3  5.88799 65.4067
1579.4  6.06715 68.0407
1579.5  6.02865 72.9622
1579.6  5.98129 77.4863
1579.7  5.85437 78.4382
1579.8  5.77054 79.2165
1579.9  6.07554 78.4225
1580.0  6.34489 77.565
1580.1  6.29389 76.1365
1580.2  6.23659 74.7398
1580.3  6.12252 73.6282
1580.4  6.04163 72.5813
1580.5  6.25763 72.1053
1580.6  6.4507  71.677
1580.7  6.43771 71.677
1580.8  6.41459 71.7406
1580.9  6.30059 72.3756
1581.0  6.20941 73.4057
1581.1  6.32341 77.9867
1581.2  6.41965 82.5082
1581.3  6.35611 86.5007
1581.4  6.2952  90.264
1581.5  6.2572  92.0115
1581.6  6.2281  93.8238
1581.7  6.27907 96.2194
1581.8  6.31609 98.439
1581.9  6.22709 99.048
1582.0  6.13048 99.5895
1582.1  5.96548 99.525
1582.2  5.80429 99.3122
1582.3  5.67721 97.7637
1582.4  5.53246 96.2521
1582.5  5.22746 95.0546
1582.6  4.91363 93.6523
1582.7  4.52037 90.4093
1582.8  4.19013 87.3155
1582.9  4.43113 85.603
1583.0  4.66327 83.7136
1583.1  4.81577 80.2336
1583.2  4.99873 76.8345
1583.3  5.45601 74.1594
1583.4  5.90645 71.6538
1583.5  6.30045 70.6433
1583.6  6.64609 69.6131
1583.7  6.55715 68.4053
1583.8  6.45282 67.2671
1583.9  6.21132 66.7691
1584.0  6.01437 66.3706
1584.1  6.21788 66.8656
1584.2  6.3972  67.4439
1584.3  6.35917 68.7727
1584.4  6.3275  70.0805
1584.5  6.3525  71.2145
1584.6  6.36614 72.4843
1584.7  6.2777  74.9737
1584.8  6.20561 77.3113
1584.9  6.28161 78.2528
1585.0  6.3538  79.1831
1585.1  6.3918  80.0131
1585.2  6.40949 80.425
1585.3  6.24439 77.075
1585.4  6.11382 73.9672
1585.5  6.29182 73.0007
1585.6  6.44309 72.0661
1585.7  6.35415 71.418
1585.8  6.25112 70.8485
1585.9  6.02262 70.9935
1586.0  5.83732 71.6153
1586.1  6.04032 76.5223
1586.2  6.22425 81.3496
1586.3  6.23676 85.4656
1586.4  6.23278 89.259
1586.5  6.08078 90.198
