# Выгружено из ПО "Атлас - Подсчет запасов"
############################################
~VERSION INFORMATION
#MNEM.UNIT                                    DATA : TYPE DESCRIPTION
VERS.                                         1.20 : CWLS LOG ASCII STANDARD_VERSION 1.20
WRAP.                                           NO : One line per depth step
############################################
~WELL INFORMATION
#MNEM.UNIT                                    DATA : TYPE DESCRIPTION
STRT.M                                       983.2 : Start depth
STOP.M                                      3193.9 : Stop depth
STEP.M                                         0.1 : Step
NULL.                                      -999.25 : Null Value
WELL.                                           18 : 18
X.                                        12538497 : X-coordinate of Well Head
Y.                                         8016226 : Y-coordinate of Well Head
RKB.                                          49.8 : RKB
############################################
~CURVE INFORMATION
#MNEM.UNIT                                    DATA : TYPE DESCRIPTION
DEPT.M                                             : DEPT
ГК.у.е.                                            : 
ПС.мВ                                              : 
############################################
~ASCII
# ...
1117.2  3.88095 51.1477
1117.3  3.83042 51.8252
1117.4  3.79386 52.5395
1117.5  3.88236 53.593
1117.6  3.96455 54.7242
1117.7  3.99004 56.5535
1117.8  4.02066 58.3466
1117.9  4.09716 59.7906
1118.0  4.13927 61.4347
1118.1  3.87227 64.8777
1118.2  3.64851 68.4073
1118.3  3.81361 72.7204
1118.4  3.962   76.8879
1118.5  3.962   79.7934
1118.6  3.9595  82.6285
1118.7  3.93451 84.8306
1118.8  3.90815 86.9196
1118.9  3.86965 87.9646
1119.0  3.83755 88.8851
1119.1  3.86305 88.6861
1119.2  3.88475 88.4527
1119.3  3.87224 87.9099
1119.4  3.85845 87.3369
1119.5  3.83295 86.4874
1119.6  3.82016 85.5274
1119.7  3.92159 83.5736
1119.8  3.99648 81.7361
1119.9  3.83148 80.9681
1120.0  3.70588 80.2158
1120.1  3.93438 79.6048
1120.2  4.12349 78.8481
1120.3  3.95839 76.7788
1120.4  3.83543 74.8457
1120.5  4.08943 74.1132
1120.6  4.30654 73.5503
1120.7  4.19211 74.5122
1120.8  4.06357 75.5738
1120.9  3.80957 77.5193
1121.0  3.60137 79.5467
1121.1  3.80487 82.3107
1121.2  3.97654 84.9522
1121.3  3.86197 86.4941
1121.4  3.73612 87.4614
1121.5  3.50762 83.2809
1121.6  3.31981 79.0061
1121.7  3.4977  73.8832
1121.8  3.66686 69.0751
1121.9  3.75536 67.1581
1122.0  3.83755 65.5841
1122.1  3.86305 67.0931
1122.2  3.90126 68.9877
1122.3  4.05385 74.3544
1122.4  4.18589 79.5992
1122.5  4.13489 83.8057
1122.6  4.07379 87.688
1122.7  3.92188 88.6564
1122.8  3.80277 89.5021
1122.9  3.98027 89.2331
1123.0  4.12603 88.8006
1123.1  3.98653 86.8986
1123.2  3.87626 84.9046
1123.3  4.02885 82.0804
1123.4  4.15198 79.4205
1123.5  4.01198 78.207
1123.6  3.90001 77.0136
1123.7  4.03992 76.0013
1123.8  4.15709 74.8875
1123.9  4.06809 72.875
1124.0  4.00197 70.7945
1124.1  4.14147 68.1025
1124.2  4.26195 65.4479
1124.3  4.21142 63.127
1124.4  4.16725 60.9655
1124.5  4.17975 60.2115
1124.6  4.21516 59.7296
1124.7  4.45652 61.6934
1124.8  4.66128 63.7693
1124.9  4.53428 66.8288
1125.0  4.42125 69.884
1125.1  4.43375 72.9005
1125.2  4.4399  75.5216
1125.3  4.38887 74.5881
1125.4  4.33028 73.4541
1125.5  4.20328 70.5086
1125.6  4.10426 67.6444
1125.7  4.25667 65.5112
1125.8  4.3953  63.5609
1125.9  4.4083  63.2804
1126.0  4.40473 62.9641
1126.1  4.25223 62.3261
1126.2  4.1137  61.6092
1126.3  4.10069 60.1808
1126.4  4.0865  58.7037
1126.5  4.0615  56.7732
1126.6  4.02374 54.7966
1126.7  3.87133 52.405
1126.8  3.74927 50.0974
1126.9  3.90177 48.5734
1127.0  4.02243 47.0413
1127.1  3.85693 45.4363
1127.2  3.7131  43.9331
1127.3  3.76413 43.3437
1127.4  3.80745 42.8409
1127.5  3.78195 43.1099
1127.6  3.77301 43.4729
1127.7  3.91292 44.6807
1127.8  4.05041 45.859
1127.9  4.16441 46.758
1128.0  4.26445 47.6194
1128.1  4.23895 48.1424
1128.2  4.2173  48.6727
1128.3  4.23031 49.2701
1128.4  4.24325 49.9748
1128.5  4.25575 51.6508
1128.6  4.25809 53.3283
1128.7  4.16915 55.0193
1128.8  4.07123 56.7588
1128.9  3.89373 58.9143
1129.0  3.74291 60.9933
1129.1  3.83191 62.3843
1129.2  3.89164 63.5673
1129.3  3.68801 62.8804
1129.4  3.51646 62.008
1129.5  3.63096 59.4615
1129.6  3.734   56.9791
1129.7  3.734   55.0722
1129.8  3.75052 53.2898
1129.9  3.91552 52.6488
1130.0  4.0678  52.0233
1130.1  4.1058  51.5373
1130.2  4.12349 51.1881
1130.3  3.95839 52.0691
1130.4  3.80239 53.1156
1130.5  3.72639 55.6586
1130.6  3.66686 58.049
1130.7  3.7553  59.0679
1130.8  3.8312  59.7644
1130.9  3.7932  57.5514
1131.0  3.74628 55.4363
1131.1  3.61928 54.2008
1131.2  3.51771 53.1806
1131.3  3.64479 54.0961
1131.4  3.74884 55.1208
1131.5  3.64734 57.1363
1131.6  3.57381 59.1653
1131.7  3.7517  61.3155
1131.8  3.90945 63.4343
1131.9  3.88395 65.2448
1132.0  3.87241 67.0581
1132.1  3.98641 68.8966
1132.2  4.08775 70.5546
1132.3  4.07524 70.5901
1132.4  4.0678  70.2158
1132.5  4.1058  66.1588
1132.6  4.13495 62.3346
1132.7  4.08448 60.6032
1132.8  4.05041 59.1277
1132.9  4.16441 59.9737
1133.0  4.25939 60.9229
1133.1  4.18339 62.7994
1133.2  4.1112  64.5442
1133.3  4.07317 65.1066
1133.4  4.04025 65.3958
1133.5  4.05275 63.2368
1133.6  4.08181 61.2705
1133.7  4.2597  61.0356
1133.8  4.4225  61.0882
1133.9  4.4475  63.7267
1134.0  4.45223 66.4687
1134.1  4.27473 70.1412
1134.2  4.10229 73.7479
1134.3  3.97521 76.7667
1134.4  3.86225 79.6412
1134.5  3.87475 81.2506
1134.6  3.88475 82.5151
1134.7  3.87226 80.6782
1134.8  3.86355 78.7426
1134.9  3.88905 75.9416
1135.0  3.89673 73.4363
1135.1  3.74423 73.5893
1135.2  3.61335 73.6584
1135.3  3.67689 72.9719
1135.4  3.74797 72.1307
1135.5  3.88747 69.8907
1135.6  4.00795 67.6026
1135.7  3.95748 64.8823
1135.8  3.92852 62.2913
1135.9  4.09352 60.8958
1136.0  4.23689 59.6124
1136.1  4.18589 59.3364
1136.2  4.15526 59.3939
1136.3  4.30785 62.4528
1136.4  4.44625 65.5814
1136.5  4.45875 69.3709
1136.6  4.47891 73.0847
1136.7  4.56785 76.1178
1136.8  4.65436 79.0383
1136.9  4.71786 80.9093
1137.0  4.75087 82.6073
1137.1  4.50987 82.7498
1137.2  4.2917  82.7523
1137.3  4.27869 81.4956
1137.4  4.25939 80.2006
1137.5  4.18339 78.5486
1137.6  4.10865 77.0697
1137.7  4.04518 77.1467
1137.8  3.97528 77.1529
1137.9  3.84828 76.5229
1138.0  3.75432 75.7442
1138.1  3.95732 73.6287
1138.2  4.12604 71.4217
1138.3  3.98646 68.3883
1138.4  3.84954 65.3068
1138.5  3.73504 61.7593
1138.6  3.63965 58.3937
1138.7  3.71611 56.6633
1138.8  3.80022 55.0724
1138.9  3.95222 54.7564
1139.0  4.07378 54.7525
1139.1  3.92178 57.5545
1139.2  3.7926  60.6169
1139.3  3.86865 66.0257
1139.4  3.95097 71.3823
1139.5  4.09047 76.3288
1139.6  4.22871 80.9221
1139.7  4.35563 82.3418
1139.8  4.45984 83.3557
1139.9  4.35834 80.7057
1140.0  4.27716 77.899
1140.1  4.37866 73.684
1140.2  4.45859 69.8654
1140.3  4.34452 69.6092
1140.4  4.2382  69.4914
1140.5  4.2002  70.6144
1140.6  4.18756 71.4651
1140.7  4.40293 69.8686
1140.8  4.58178 68.3959
1140.9  4.42978 68.0554
1141.0  4.30697 67.9177
1141.1  4.44647 69.6022
1141.2  4.54278 71.3399
1141.3  4.2506  73.5593
1141.4  4.00963 75.7019
1141.5  4.22563 77.1794
1141.6  4.42    78.2921
1141.7  4.42    76.1259
1141.8  4.40093 73.8147
1141.9  4.21043 70.2262
1142.0  4.04536 66.9684
1142.1  4.10886 66.6829
1142.2  4.17105 66.5744
1142.3  4.22158 68.0588
1142.4  4.26955 69.6378
1142.5  4.29505 72.0828
1142.6  4.30274 74.3839
1142.7  4.15033 75.3918
1142.8  4.02066 76.1894
1142.9  4.09716 75.0849
1143.0  4.15834 74.0376
1143.1  4.08184 73.5046
1143.2  4.02316 73.2484
1143.3  4.12472 75.4822
1143.4  4.2122  77.9035
1143.5  4.1742  82.033
1143.6  4.15401 86.1146
1143.7  4.29392 89.7658
1143.8  4.41615 93.2323
1143.9  4.37765 94.9933
1144.0  4.33539 95.5659
1144.1  4.25939 85.4574
1144.2  4.1872  75.9165
1144.3  4.14917 71.4718
1144.4  4.13277 67.2369
1144.5  4.31027 64.8389
1144.6  4.4662  62.6624
1144.7  4.42822 62.4771
1144.8  4.38894 62.3453
1144.9  4.33844 62.6978
1145.0  4.29045 63.0957
1145.1  4.26495 63.9017
1145.2  4.22799 64.7056
1145.3  4.08791 65.4916
1145.4  3.9595  66.3572
1145.5  3.9345  67.9472
1145.6  3.92721 69.6522
1145.7  4.07912 72.3905
1145.8  4.22111 75.3761
1145.9  4.27211 80.5506
1146.0  4.31289 85.6696
1146.1  4.26189 90.2901
1146.2  4.22491 94.4958
1146.3  4.31396 94.9741
1146.4  4.37623 95.1308
1146.5  4.19873 92.4018
1146.6  4.0377  89.3794
1146.7  4.02471 83.7204
1146.8  4.03588 78.478
1146.9  4.26438 77.05
1147.0  4.46875 75.8516
1147.1  4.45625 76.7166
1147.2  4.43609 77.6638
1147.3  4.34704 79.3518
1147.4  4.27846 80.8525
1147.5  4.39296 80.688
1147.6  4.48454 80.5147
1147.7  4.37011 80.2618
1147.8  4.2708  80.1218
1147.9  4.3088  80.9988
1148.0  4.34685 82.0624
1148.1  4.38535 84.8034
1148.2  4.42125 87.5673
1148.3  4.43376 90.5406
1148.4  4.44625 93.3565
1148.5  4.45875 94.7895
1148.6  4.45224 95.8949
1148.7  4.27485 94.0566
1148.8  4.11755 92.2633
1148.9  4.14305 90.8983
1149.0  4.17616 89.7574
1149.1  4.27766 90.6304
1149.2  4.35754 91.7365
1149.3  4.24297 94.942
1149.4  4.15016 97.9869
1149.5  4.25166 99.6239
1149.6  4.32394 100.999
1149.7  4.13355 100.026
1149.8  3.9595  98.5951
1149.9  3.9345  93.0731
1150.0  3.91325 87.4487
1150.1  3.92575 80.9037
1150.2  3.95606 74.7967
1150.3  4.14668 72.6239
1150.4  4.3142  70.6168
1150.5  4.2762  70.0758
1150.6  4.23054 69.5579
