# Выгружено из ПО "Атлас - Подсчет запасов"
############################################
~VERSION INFORMATION
#MNEM.UNIT                                    DATA : TYPE DESCRIPTION
VERS.                                         1.20 : CWLS LOG ASCII STANDARD_VERSION 1.20
WRAP.                                           NO : One line per depth step
############################################
~WELL INFORMATION
#MNEM.UNIT                                    DATA : TYPE DESCRIPTION
STRT.M                                       983.2 : Start depth
STOP.M                                      3193.9 : Stop depth
STEP.M                                         0.1 : Step
NULL.                                      -999.25 : Null Value
WELL.                                           18 : 18
X.                                        12538497 : X-coordinate of Well Head
Y.                                         8016226 : Y-coordinate of Well Head
RKB.                                          49.8 : RKB
############################################
~CURVE INFORMATION
#MNEM.UNIT                                    DATA : TYPE DESCRIPTION
DEPT.M                                             : DEPT
ГК.у.е.                                            : 
ПС.мВ                                              : 
############################################
~ASCII
# ...
3028.3  4.62836 74.7729
3028.4  4.92995 74.9373
3028.5  5.20945 75.2603
3028.6  5.43937 75.5885
3028.7  5.22364 75.9625
3028.8  5.03155 76.3172
3028.9  5.05702 76.489
3029.0  5.05968 76.6788
3029.1  4.85643 77.0267
3029.2  4.69177 77.3563
3029.3  4.86949 77.529
3029.4  5.03535 77.7164
3029.5  5.09885 78.0409
3029.6  5.15345 78.3487
3029.7  5.12798 78.5055
3029.8  5.10375 78.6735
3029.9  5.09126 78.9382
3030.0  5.07875 79.2062
3030.1  5.06623 79.498
3030.2  5.03082 79.7766
3030.3  4.78903 79.9423
3030.4  4.55805 80.1204
3030.5  4.41855 80.4144
3030.6  4.28409 80.6923
3030.7  4.1952  80.8252
3030.8  4.10734 80.9677
3030.9  4.03093 81.1939
3031.0  3.962   81.4088
3031.1  3.962   81.5164
3031.2  3.94293 81.6353
3031.3  3.75219 81.8586
3031.4  3.5683  82.0685
3031.5  3.4413  82.1629
3031.6  3.38297 82.2617
3031.7  3.94129 82.398
3031.8  4.47168 82.528
3031.9  4.73786 82.5974
3032.0  5.01615 82.667
3032.1  5.39761 82.7371
3032.2  5.7413  82.807
3032.3  5.75432 82.8771
3032.4  5.7787  82.947
3032.5  5.9057  83.0164
3032.6  6.04032 83.086
3032.7  6.24308 83.1559
3032.8  6.41584 83.226
3032.9  6.31446 83.2954
3033.0  6.21664 83.3511
3033.1  6.15306 83.2826
3033.2  6.096   83.2141
3033.3  6.096   83.145
3033.4  6.09345 83.0761
3033.5  6.06795 83.0077
3033.6  6.06407 82.9391
3033.7  6.25434 82.8707
3033.8  6.41328 82.8023
3033.9  6.28644 82.7354
3034.0  6.15293 82.6682
3034.1  5.96219 82.6007
3034.2  5.79736 82.5333
3034.3  5.86094 82.4662
3034.4  5.92815 82.4151
3034.5  6.02965 82.5061
3034.6  6.11975 82.5863
3034.7  6.10726 82.5693
3034.8  6.11507 82.5429
3034.9  6.30534 82.4326
3035.0  6.46303 82.3163
3035.1  6.32336 82.1496
3035.2  6.20941 81.9937
3035.3  6.32355 81.9312
3035.4  6.4184  81.8687
3035.5  6.3424  81.8057
3035.6  6.29432 81.7427
3035.7  6.49708 81.6803
3035.8  6.65837 81.6178
3035.9  6.44264 81.5559
3036.0  6.26202 81.4937
3036.1  6.40219 81.4312
3036.2  6.50637 81.3532
3036.3  6.29011 81.1355
3036.4  6.0998  80.935
3036.5  6.1378  80.8845
3036.6  6.15928 80.8339
3036.7  6.03244 80.7835
3036.8  5.93837 80.7328
3036.9  6.14163 80.6814
3037.0  6.30337 80.6299
3037.1  6.08711 80.5794
3037.2  5.88284 80.5289
3037.3  5.78121 80.4784
3037.4  5.70775 80.4293
3037.5  5.88525 80.3923
3037.6  6.01702 80.3607
3037.7  5.73786 80.3777
3037.8  5.4873  80.3994
3037.9  5.50029 80.4628
3038.0  5.46494 80.5264
3038.1  4.99437 80.5899
3038.2  4.56945 80.6534
3038.3  4.54392 80.7169
3038.4  4.50575 80.7803
3038.5  4.35325 80.8433
3038.6  4.23763 80.9064
3038.7  4.45336 80.9698
3038.8  4.63784 81.0347
3038.9  4.53646 81.1116
3039.0  4.46788 81.1887
3039.1  4.69666 81.2658
3039.2  4.87532 81.3428
3039.3  4.60849 81.4203
3039.4  4.3855  81.4977
3039.5  4.5505  81.5752
3039.6  4.71427 81.6512
3039.7  4.86658 81.7126
3039.8  5.0002  81.7791
3039.9  4.96224 81.8894
3040.0  4.93306 82.0001
3040.1  4.98362 82.1107
3040.2  5.04807 82.2211
3040.3  5.23881 82.3322
3040.4  5.41    82.443
3040.5  5.41    82.5536
3040.6  5.4138  82.6641
3040.7  5.45176 82.7744
3040.8  5.47203 82.8851
3040.9  5.3327  82.9954
3041.0  5.20064 83.1061
3041.1  5.13706 83.2172
3041.2  5.11054 83.328
3041.3  5.41591 83.4381
3041.4  5.71665 83.5481
3041.5  5.98315 83.6591
3041.6  6.20137 83.7565
3041.7  5.98564 83.7315
3041.8  5.80627 83.7066
3041.9  5.95858 83.6821
3042.0  6.10236 83.6574
3042.1  6.16594 83.6319
3042.2  6.21154 83.6065
3042.3  6.0969  83.5815
3042.4  5.97245 83.5565
3042.5  5.75695 83.5315
3042.6  5.54773 83.4973
3042.7  5.39542 83.381
3042.8  5.27832 83.2643
3042.9  5.48108 83.1474
3043.0  5.64237 83.0303
3043.1  5.42611 82.9137
3043.2  5.20532 82.7918
3043.3  4.93849 82.6196
3043.4  4.69775 82.4477
3043.5  4.68525 82.2747
3043.6  4.67015 82.1018
3043.7  4.63169 81.93
3043.8  4.62629 81.7578
3043.9  4.91843 81.586
3044.0  5.16037 81.4137
3044.1  4.94411 81.241
3044.2  4.75761 81.0687
3044.3  4.8337  80.896
3044.4  4.87155 80.715
3044.5  4.56705 80.455
3044.6  4.30822 80.195
3044.7  4.46003 79.9358
3044.8  4.64025 79.676
3044.9  5.07173 79.4163
3045.0  5.49789 79.156
3045.1  5.86685 78.8957
3045.2  6.18018 78.636
3045.3  6.00196 78.3756
3045.4  5.8382  78.139
3045.5  5.8002  78.1096
3045.6  5.77491 78.0772
3045.7  5.8638  78.0193
3045.8  5.91857 77.9606
3045.9  5.66488 77.8967
3046.0  5.45122 77.8222
3046.1  5.6034  77.6545
3046.2  5.74511 77.4923
3046.3  5.79617 77.3757
3046.4  5.82295 77.2716
3046.5  5.63245 77.2771
3046.6  5.44954 77.2842
3046.7  5.33518 77.3067
3046.8  5.19896 77.3325
3046.9  4.86936 77.3869
3047.0  4.5682  77.4504
3047.1  4.53015 77.5946
3047.2  4.50106 77.7334
3047.3  4.55162 77.8275
3047.4  4.5767  77.9267
3047.5  4.3737  78.0737
3047.6  4.21132 78.226
3047.7  4.41408 78.4252
3047.8  4.58303 78.6136
3047.9  4.4437  78.699
3048.0  4.32946 78.7915
3048.1  4.4441  78.9462
3048.2  4.53679 79.0925
3048.3  4.43466 79.1676
3048.4  4.3481  79.2544
3048.5  4.3991  79.449
3048.6  4.45261 79.6536
3048.7  4.52852 79.9487
3048.8  4.61993 80.2317
3048.9  4.84865 80.398
3049.0  5.0575  80.5774
3049.1  5.08253 80.8712
3049.2  5.09739 81.1483
3049.3  5.0213  81.2815
3049.4  4.97205 81.4237
3049.5  5.16255 81.6507
3049.6  5.3302  81.8695
3049.7  5.29224 82.0143
3049.8  5.27832 82.1595
3049.9  5.48108 82.3043
3050.0  5.68052 82.4495
3050.1  5.84572 82.5941
3050.2  5.98639 82.7386
3050.3  5.9103  82.8842
3050.4  5.85345 83.0295
3050.5  5.96795 83.1745
3050.6  6.06464 83.3195
3050.7  6.00122 83.4643
3050.8  5.96307 83.6058
3050.9  6.15334 83.7137
3051.0  6.31479 83.8219
3051.1  6.21266 83.9305
3051.2  6.12991 84.0388
3051.3  6.21902 84.1469
3051.4  6.30535 84.2549
3051.5  6.36885 84.3633
3051.6  6.40057 84.4718
3051.7  6.14688 84.5797
3051.8  5.9142  84.6779
3051.9  5.87624 84.6863
3052.0  5.84075 84.6949
3052.1  5.82823 84.7034
3052.2  5.81445 84.7119
3052.3  5.78892 84.7204
3052.4  5.752   84.7288
3052.5  5.612   84.7368
3052.6  5.49111 84.7396
3052.7  5.54204 84.6956
3052.8  5.57273 84.6516
3052.9  5.42042 84.6082
3053.0  5.28555 84.5646
3053.1  5.31108 84.5205
3053.2  5.35432 84.4766
3053.3  5.55757 84.4325
3053.4  5.72605 84.3886
3053.5  5.58655 84.3451
3053.6  5.46991 84.3016
3053.7  5.5588  84.2582
3053.8  5.62628 84.2145
3053.9  5.49944 84.1701
3054.0  5.3888  84.1256
3054.1  5.42685 84.0821
3054.2  5.48007 84.0386
3054.3  5.67081 83.9951
3054.4  5.8636  83.9563
3054.5  6.0796  83.9593
3054.6  6.25363 83.9622
3054.7  6.05037 83.9642
3054.8  5.84032 83.9663
3054.9  5.57414 83.9693
3055.0  5.36068 83.9828
3055.1  5.62751 84.091
3055.2  5.85559 84.1901
3055.3  5.74145 84.2106
3055.4  5.6504  84.2286
3055.5  5.7644  84.2252
3055.6  5.84923 84.2199
3055.7  5.67195 84.1989
3055.8  5.50184 84.1805
3055.9  5.40046 84.186
3056.0  5.33058 84.1949
3056.1  5.54634 84.2334
3056.2  5.73114 84.2728
3056.3  5.64253 84.3203
3056.4  5.57185 84.3653
3056.5  5.66035 84.3883
3056.6  5.73114 84.4073
3056.7  5.64275 84.3903
3056.8  5.58332 84.3732
3056.9  5.78608 84.3552
3057.0  5.98172 84.3372
3057.1  6.10887 84.3197
3057.2  6.21664 84.3022
3057.3  6.15306 84.2847
3057.4  6.08585 84.2672
3057.5  5.98435 84.2492
3057.6  5.88028 84.2312
3057.7  5.75344 84.2138
3057.8  5.64155 84.1963
3057.9  5.66702 84.1793
3058.0  5.70907 84.1622
3058.1  5.89981 84.1447
3058.2  6.08372 84.1272
3058.3  6.21087 84.1092
3058.4  6.31735 84.0863
3058.5  6.24085 84.0188
3058.6  6.16309 83.9628
3058.7  6.0742  84.0107
3058.8  5.98514 84.0538
3058.9  5.89675 84.0518
3059.0  5.83732 84.0379
3059.1  6.04057 83.9167
3059.2  6.2192  83.8055
3059.3  6.18115 83.781
3059.4  6.1178  83.7566
3059.5  5.8258  83.732
3059.6  5.58713 83.7075
3059.7  5.82784 83.6825
3059.8  6.03359 83.6575
3059.9  5.91973 83.6331
3060.0  5.82716 83.6085
3060.1  5.92879 83.584
3060.2  6.01234 83.5595
3060.3  5.93575 83.535
3060.4  5.8797  83.5105
3060.5  6.0067  83.4855
3060.6  6.13372 83.4605
3060.7  6.26056 83.4361
3060.8  6.36739 83.4115
3060.9  6.29148 83.3871
3061.0  6.23061 83.3621
3061.1  6.3067  83.3336
3061.2  6.35212 83.3023
3061.3  6.12334 83.2452
3061.4  5.9218  83.1894
3061.5  5.9598  83.1434
3061.6  6.01057 83.0961
3061.7  6.17587 83.0372
