# Выгружено из ПО "Атлас - Подсчет запасов"
############################################
~VERSION INFORMATION
#MNEM.UNIT                                    DATA : TYPE DESCRIPTION
VERS.                                         1.20 : CWLS LOG ASCII STANDARD_VERSION 1.20
WRAP.                                           NO : One line per depth step
############################################
~WELL INFORMATION
#MNEM.UNIT                                    DATA : TYPE DESCRIPTION
STRT.M                                       983.2 : Start depth
STOP.M                                      3193.9 : Stop depth
STEP.M                                         0.1 : Step
NULL.                                      -999.25 : Null Value
WELL.                                           18 : 18
X.                                        12538497 : X-coordinate of Well Head
Y.                                         8016226 : Y-coordinate of Well Head
RKB.                                          49.8 : RKB
############################################
~CURVE INFORMATION
#MNEM.UNIT                                    DATA : TYPE DESCRIPTION
DEPT.M                                             : DEPT
ГК.у.е.                                            : 
ПС.мВ                                              : 
############################################
~ASCII
# ...
2592.5  5.25025 104.196
2592.6  5.43543 104.568
2592.7  5.68912 104.69
2592.8  5.92816 104.803
2592.9  6.02954 104.831
2593.0  6.1185  104.85
2593.1  6.09347 104.784
2593.2  6.0735  104.704
2593.3  6.09853 104.498
2593.4  6.15405 104.295
2593.5  6.48455 104.129
2593.6  6.77309 103.939
2593.7  6.6842  103.536
2593.8  6.61546 103.132
2593.9  6.72982 102.718
2594.0  6.82664 102.33
2594.1  6.76306 102.182
2594.2  6.70725 102.036
2594.3  6.71977 101.901
2594.4  6.72085 101.781
2594.5  6.61935 101.794
2594.6  6.50763 101.823
2594.7  6.30437 101.997
2594.8  6.14898 102.166
2594.9  6.42814 102.27
2595.0  6.6762  102.386
2595.1  6.63815 102.596
2595.2  6.61546 102.8
2595.3  6.7301  102.955
2595.4  6.8114  103.104
2595.5  6.5954  103.199
2595.6  6.41627 103.294
2595.7  6.56858 103.389
2595.8  6.69579 103.485
2595.9  6.59391 103.587
2596.0  6.51346 103.689
2596.1  6.6281  103.791
2596.2  6.72845 103.893
2596.3  6.70292 103.995
2596.4  6.6597  104.093
2596.5  6.4567  104.15
2596.6  6.28416 104.203
2596.7  6.38554 104.226
2596.8  6.50243 104.245
2596.9  6.75612 104.233
2597.0  6.97739 104.221
2597.1  6.9013  104.208
2597.2  6.84316 104.196
2597.3  6.94479 104.183
2597.4  7.0195  104.171
2597.5  6.8545  104.158
2597.6  6.67421 104.146
2597.7  6.3571  104.133
2597.8  6.06334 104.121
2597.9  5.98693 104.108
2598.0  5.95109 104.092
2598.1  6.28199 104.045
2598.2  6.59041 103.997
2598.3  6.70455 103.95
2598.4  6.80065 103.903
2598.5  6.73715 103.855
2598.6  6.68891 103.79
2598.7  6.7778  103.572
2598.8  6.83132 103.369
2598.9  6.56514 103.311
2599.0  6.31228 103.246
2599.1  6.18513 103.116
2599.2  6.03155 102.99
2599.3  5.63707 102.885
2599.4  5.3173  102.768
2599.5  5.6603  102.54
2599.6  6.00334 102.326
2599.7  6.34592 102.232
2599.8  6.69184 102.135
2599.9  7.0594  102.015
2600.0  7.38464 101.885
2600.1  7.32106 101.666
2600.2  7.22205 101.459
2600.3  6.80254 101.344
2600.4  6.44635 101.228
2600.5  6.64985 101.096
2600.6  6.84441 100.979
2600.7  6.95827 100.987
2600.8  7.061   101.008
2600.9  7.061   101.142
2601.0  7.08388 101.269
2601.1  7.31266 101.342
2601.2  7.4786  101.43
2601.3  7.08462 101.656
2601.4  6.7488  101.881
2601.5  6.9268  102.106
2601.6  7.0895  102.319
2601.7  7.11447 102.433
2601.8  7.14336 102.554
2601.9  7.20678 102.731
2602.0  7.24878 102.896
2602.1  7.0966  102.943
2602.2  6.95745 102.991
2602.3  6.93192 103.056
2602.4  6.9204  103.098
2602.5  7.0344  102.937
2602.6  7.14591 102.773
2602.7  7.2348  102.574
2602.8  7.30359 102.333
2602.9  7.18973 101.726
2603.0  7.06663 101.143
2603.1  6.86288 100.786
2603.2  6.69016 100.404
2603.3  6.79179 99.7881
2603.4  6.8754  99.2132
2603.5  6.7994  98.9958
2603.6  6.71318 98.783
2603.7  6.5354  98.6137
2603.8  6.41064 98.4655
2603.9  6.76621 98.5105
2604.0  7.0857  98.5595
2604.1  7.07268 98.6441
2604.2  7.0572  98.7433
2604.3  7.01915 98.9761
2604.4  6.9901  99.2002
2604.5  7.0411  99.3527
2604.6  7.07298 99.5215
2604.7  6.93315 99.8356
2604.8  6.80955 100.133
2604.9  6.83502 100.271
2605.0  6.88088 100.418
2605.1  7.10966 100.646
2605.2  7.30739 100.859
2605.3  7.2313  100.937
2605.4  7.1871  101.001
2605.5  7.4281  100.932
2605.6  7.63103 100.835
2605.7  7.4917  100.498
2605.8  7.33676 100.167
2605.9  7.04512 99.8978
2606.0  6.79597 99.599
2606.1  6.93564 99.0388
2606.2  7.07627 98.4889
2606.3  7.22895 98.0178
2606.4  7.36475 97.5834
2606.5  7.35225 97.4669
2606.6  7.31171 97.3579
2606.7  7.01957 97.3175
2606.8  6.77637 97.2844
2606.9  6.97963 97.3178
2607.0  7.1592  97.365
2607.1  7.12115 97.5347
2607.2  7.09972 97.6973
2607.3  7.22687 97.8004
2607.4  7.32445 97.9253
2607.5  7.15895 98.2483
2607.6  7.00875 98.5734
2607.7  6.99626 98.917
2607.8  6.97103 99.2429
2607.9  6.8317  99.4017
2608.0  6.71486 99.5791
2608.1  6.80347 99.9206
2608.2  6.85757 100.241
2608.3  6.60326 100.383
2608.4  6.40805 100.52
2608.5  6.73855 100.611
2608.6  7.03089 100.663
2608.7  6.97996 100.378
2608.8  6.93911 100.087
2608.9  6.99004 99.7546
2609.0  7.01182 99.3474
2609.1  6.77003 98.2716
2609.2  6.55555 97.2365
2609.3  6.58108 96.5411
2609.4  6.5786  95.7708
2609.5  6.3246  94.3088
2609.6  6.08454 92.9352
2609.7  5.97018 92.3589
2609.8  5.87211 91.766
2609.9  5.92304 91.0379
2610.0  5.94357 90.3598
2610.1  5.68926 90.1475
2610.2  5.43812 89.9587
2610.3  5.20934 89.9757
2610.4  5.0421  90.0176
2610.5  5.4231  90.2841
2610.6  5.78888 90.5464
2610.7  6.0171  90.7702
2610.8  6.25354 91.0369
2610.9  6.55817 91.6846
2611.0  6.85077 92.3069
2611.1  7.02849 92.6859
2611.2  7.17148 93.11
2611.3  7.00628 93.9495
2611.4  6.84405 94.7401
2611.5  6.70455 95.1105
2611.6  6.59041 95.5024
2611.7  6.70427 96.0852
2611.8  6.807   96.6315
2611.9  6.807   96.8363
2612.0  6.80575 97.009
2612.1  6.79323 96.8894
2612.2  6.76293 96.7376
2612.3  6.57219 96.2941
2612.4  6.40225 95.8744
2612.5  6.41475 95.6584
2612.6  6.45143 95.4673
2612.7  6.70512 95.4997
2612.8  6.934   95.5488
2612.9  6.934   95.7466
2613.0  6.94166 95.9775
2613.1  7.01825 96.5027
2613.2  7.07934 97.0057
2613.3  7.00275 97.3226
2613.4  6.9391  97.6107
2613.5  6.9901  97.6477
2613.6  7.04236 97.6751
2613.7  7.10578 97.6167
2613.8  7.14898 97.5535
2613.9  7.00915 97.4486
2614.0  6.89066 97.3254
2614.1  6.96725 97.039
2614.2  7.04872 96.7593
2614.3  7.17587 96.5325
2614.4  7.2684  96.2841
2614.5  7.0524  95.8356
2614.6  6.84654 95.415
2614.7  6.73218 95.2452
2614.8  6.62264 95.0744
2614.9  6.55922 94.8991
2615.0  6.48423 94.7477
2615.1  6.30651 94.8142
2615.2  6.17243 94.8821
2615.3  6.42674 94.9632
2615.4  6.64485 95.0718
2615.5  6.54335 95.4293
2615.6  6.43928 95.7676
2615.7  6.31244 95.9334
2615.8  6.21707 96.1265
2615.9  6.40734 96.5605
2616.0  6.56628 96.9721
2616.1  6.43913 97.1734
2616.2  6.34788 97.3909
2616.3  6.57666 97.7598
2616.4  6.78325 98.109
2616.5  6.79575 98.289
2616.6  6.8108  98.469
2616.7  6.84876 98.6488
2616.8  6.90082 98.804
2616.9  7.0786  98.7346
2617.0  7.22503 98.6609
2617.1  7.08536 98.5503
2617.2  6.97272 98.4328
2617.3  7.09987 98.2511
2617.4  7.19745 98.0783
2617.5  7.03195 97.9818
2617.6  6.88685 97.8664
2617.7  6.92531 97.5807
2617.8  6.94728 97.2955
2617.9  6.82044 97.0208
2618.0  6.73779 96.7111
2618.1  7.05568 96.0918
2618.2  7.32318 95.4853
2618.3  7.14496 94.9782
2618.4  6.9685  94.5079
2618.5  6.8035  94.3569
2618.6  6.64864 94.2036
2618.7  6.58522 94.0298
2618.8  6.51784 93.8669
2618.9  6.41646 93.806
2619.0  6.31734 93.7445
2619.1  6.24075 93.68
2619.2  6.18602 93.6177
2619.3  6.32619 93.5746
2619.4  6.4672  93.5474
2619.5  6.6192  93.6609
2619.6  6.74328 93.7718
2619.7  6.61644 93.8597
2619.8  6.50836 93.9655
2619.9  6.57178 94.2297
2620.0  6.61503 94.4992
2620.1  6.47536 94.8116
2620.2  6.32968 95.1097
2620.3  6.12643 95.2864
2620.4  5.95415 95.4826
2620.5  6.05565 95.858
2620.6  6.11266 96.2144
2620.7  5.77008 96.3977
2620.8  5.48643 96.5999
2620.9  5.74012 96.9685
2621.0  5.95754 97.3179
2621.1  5.8429  97.4871
2621.2  5.7413  97.6652
2621.3  5.75432 97.9276
2621.4  5.7952  98.1639
2621.5  6.0872  98.1729
2621.6  6.34875 98.1734
2621.7  6.33626 98.0975
2621.8  6.35168 97.9928
2621.9  6.61786 97.6317
2622.0  6.88724 97.2818
2622.1  7.17959 97.0395
2622.2  7.44711 96.7624
2622.3  7.49817 96.1661
2622.4  7.53385 95.5862
2622.5  7.43235 95.1382
2622.6  7.34606 94.7256
2622.7  7.39649 94.6322
2622.8  7.42803 94.5526
2622.9  7.2887  94.598
2623.0  7.17441 94.653
2623.1  7.28855 94.7932
2623.2  7.37828 94.9526
2623.3  7.25113 95.2885
2623.4  7.137   95.6082
2623.5  7.137   95.7902
2623.6  7.15863 95.9799
2623.7  7.37436 96.2381
2623.8  7.57411 96.4836
2623.9  7.62504 96.6089
2624.0  7.64682 96.7169
2624.1  7.40503 96.6664
2624.2  7.17659 96.5949
2624.3  7.06245 96.3335
2624.4  6.9587  96.0856
2624.5  6.9457  95.9516
2624.6  6.91748 95.8215
2624.7  6.75268 95.7271
2624.8  6.63068 95.6463
2624.9  6.89686 95.6887
2625.0  7.12559 95.7312
2625.1  7.01145 95.7727
2625.2  6.88737 95.7933
2625.3  6.67111 95.6266
2625.4  6.49225 95.4725
2625.5  6.64475 95.4275
2625.6  6.79341 95.3961
2625.7  6.90727 95.487
2625.8  6.98712 95.5808
2625.9  6.7589  95.6981
