# Выгружено из ПО "Атлас - Подсчет запасов"
############################################
~VERSION INFORMATION
#MNEM.UNIT                                    DATA : TYPE DESCRIPTION
VERS.                                         1.20 : CWLS LOG ASCII STANDARD_VERSION 1.20
WRAP.                                           NO : One line per depth step
############################################
~WELL INFORMATION
#MNEM.UNIT                                    DATA : TYPE DESCRIPTION
STRT.M                                       983.2 : Start depth
STOP.M                                      3193.9 : Stop depth
STEP.M                                         0.1 : Step
NULL.                                      -999.25 : Null Value
WELL.                                           18 : 18
X.                                        12538497 : X-coordinate of Well Head
Y.                                         8016226 : Y-coordinate of Well Head
RKB.                                          49.8 : RKB
############################################
~CURVE INFORMATION
#MNEM.UNIT                                    DATA : TYPE DESCRIPTION
DEPT.M                                             : DEPT
ГК.у.е.                                            : 
ПС.мВ                                              : 
############################################
~ASCII
# ...
1854.9  5.84304 94.8459
1855.0  5.74    92.8978
1855.1  5.74    89.9698
1855.2  5.75906 87.1229
1855.3  5.94968 85.0016
1855.4  6.14263 82.6208
1855.5  6.35863 77.8843
1855.6  6.53014 73.4026
1855.7  6.30178 71.2115
1855.8  6.08584 68.8956
1855.9  5.98434 65.4861
1856.0  5.89045 62.2045
1856.1  5.86495 60.0725
1856.2  5.8496  58.043
1856.3  5.92565 56.9328
1856.4  5.98764 55.9352
1856.5  5.92414 55.9366
1856.6  5.86065 56.1045
1856.7  5.79718 57.7675
1856.8  5.75272 59.615
1856.9  5.87972 63.1005
1857.0  5.96732 66.4862
1857.1  5.70082 68.9747
1857.2  5.48261 71.7544
1857.3  5.69875 77.1582
1857.4  5.88028 82.4521
1857.5  5.75328 86.8176
1857.6  5.66186 90.8941
1857.7  5.89022 92.3732
1857.8  6.07948 93.8774
1857.9  5.91448 95.5894
1858.0  5.78763 97.1706
1858.1  6.00363 97.5767
1858.2  6.19035 97.9659
1858.3  6.1138  98.2045
1858.4  6.0412  98.4101
1858.5  6.0032  98.3211
1858.6  5.98171 98.1985
1858.7  6.10863 97.7737
1858.8  6.21154 97.3408
1858.9  6.09704 96.8393
1859.0  5.994   96.3672
1859.1  5.994   96.1597
1859.2  5.96098 95.9486
1859.3  5.63078 95.7044
1859.4  5.35052 95.4825
1859.5  5.51552 95.4575
1859.6  5.66145 95.447
1859.7  5.63596 95.5669
1859.8  5.63207 95.7044
1859.9  5.82257 95.9984
1860.0  6.00927 96.2832
1860.1  6.16177 96.4852
1860.2  6.27614 96.7164
1860.3  6.0475  97.2107
1860.4  5.85472 97.6833
1860.5  5.98172 97.9663
1860.6  6.07569 98.2765
1860.7  5.87281 98.8312
1860.8  5.70522 99.3538
1860.9  5.85722 99.5818
1861.0  5.98003 99.8103
1861.1  5.84053 100.043
1861.2  5.70865 100.224
1861.3  5.64511 99.9449
1861.4  5.57654 99.6581
1861.5  5.46204 99.2991
1861.6  5.39207 98.8749
1861.7  5.72237 97.865
1861.8  6.0187  96.9037
1861.9  6.0057  96.3912
1862.0  6.01693 95.8576
1862.1  6.24593 95.1346
1862.2  6.41513 94.4683
1862.3  6.0464  94.3112
1862.4  5.72136 94.1762
1862.5  5.78486 94.2382
1862.6  5.8496  94.3359
1862.7  5.92556 94.7541
1862.8  6.01057 95.1603
1862.9  6.17607 95.4533
1863.0  6.31228 95.7805
1863.1  6.18528 96.415
1863.2  6.04939 97.0152
1863.3  5.83325 97.3068
1863.4  5.65427 97.6111
1863.5  5.80677 98.0311
1863.6  5.96811 98.4227
1863.7  6.20897 98.5591
1863.8  6.40948 98.6784
1863.9  6.24448 98.6429
1864.0  6.09855 98.587
1864.1  6.12405 98.3475
1864.2  6.12414 98.1143
1864.3  5.8955  97.9372
1864.4  5.69886 97.7387
1864.5  5.78736 97.3456
1864.6  5.88736 96.974
1864.7  6.09074 96.7946
1864.8  6.23966 96.6088
1864.9  5.89666 96.3668
1865.0  5.60832 96.1492
1865.1  5.81132 96.1507
1865.2  5.9864  96.1625
1865.3  5.91035 96.267
1865.4  5.86998 96.396
1865.5  6.14948 96.746
1865.6  6.38699 97.0805
1865.7  6.24708 97.2754
1865.8  6.13246 97.4805
1865.9  6.24696 97.775
1866.0  6.32968 98.0471
1866.1  6.12668 98.1181
1866.2  5.93379 98.1797
1866.3  5.83173 98.1567
1866.4  5.75146 98.1157
1866.5  5.86596 97.9127
1866.6  5.9728  97.7158
1866.7  6.01078 97.5739
1866.8  6.0412  97.4183
1866.9  6.0032  97.1413
1867.0  5.98046 96.8822
1867.1  6.09496 96.7847
1867.2  6.15988 96.6911
1867.3  5.77864 96.6321
1867.4  5.44741 96.5904
1867.5  5.56141 96.7044
1867.6  5.65259 96.8171
1867.7  5.53866 96.9175
1867.8  5.44486 97.0317
1867.9  5.53336 97.2687
1868.0  5.62066 97.4943
1868.1  5.69716 97.6168
1868.2  5.75584 97.7499
1868.3  5.65428 97.979
1868.4  5.58207 98.196
1868.5  5.77257 98.3055
1868.6  5.92109 98.425
1868.7  5.69223 98.6343
1868.8  5.47964 98.8432
1868.9  5.41614 99.0447
1869.0  5.3552  99.2346
1869.1  5.3172  99.3201
1869.2  5.29826 99.4065
1869.3  5.45085 99.5016
1869.4  5.60832 99.5869
1869.5  5.81132 99.5859
1869.6  5.97624 99.576
1869.7  5.79885 99.4866
1869.8  5.62118 99.3902
1869.9  5.44318 99.2322
1870.0  5.26903 99.08
1870.1  5.12953 98.9805
1870.2  5.02561 98.8637
1870.3  5.24174 98.5911
1870.4  5.44741 98.3278
1870.5  5.56141 98.1463
1870.6  5.63733 97.9392
1870.7  5.371   97.5014
1870.8  5.13225 97.084
1870.9  5.14475 96.8545
1871.0  5.156   96.6084
1871.1  5.156   96.2129
1871.2  5.14709 95.8411
1871.3  5.05804 95.6825
1871.4  4.99963 95.544
1871.5  5.21563 95.5835
1871.6  5.42526 95.6481
1871.7  5.57767 95.9389
1871.8  5.69718 96.222
1871.9  5.51918 96.432
1872.0  5.38063 96.6632
1872.1  5.59663 97.0847
1872.2  5.77324 97.4814
1872.3  5.59563 97.655
1872.4  5.45122 97.8313
1872.5  5.60322 98.0338
1872.6  5.73495 98.2183
1872.7  5.68448 98.2407
1872.8  5.65552 98.2503
1872.9  5.82052 98.1433
1873.0  5.95884 98.0191
1873.1  5.85734 97.7406
1873.2  5.766   97.4718
1873.3  5.766   97.2902
1873.4  5.75454 97.0894
1873.5  5.64004 96.7139
1873.6  5.54591 96.3606
1873.7  5.63485 96.2067
1873.8  5.69212 96.0516
1873.9  5.46362 95.8876
1874.0  5.26436 95.7406
1874.1  5.32786 95.7471
1874.2  5.3799  95.7702
1874.3  5.32887 95.9423
1874.4  5.31224 96.1296
1874.5  5.60424 96.4556
1874.6  5.8683  96.7675
1874.7  5.88129 96.9518
1874.8  5.90191 97.1508
1874.9  5.99091 97.4783
1875.0  6.0735  97.7843
1875.1  6.0985  97.8968
1875.2  6.1134  98.0074
1875.3  6.03735 98.1009
1875.4  5.98297 98.1829
1875.5  6.12247 98.1624
1875.6  6.22133 98.1274
1875.7  5.955   97.9615
1875.8  5.73027 97.7985
1875.9  5.88277 97.6635
1876.0  6.03141 97.5106
1876.1  6.14541 97.1966
1876.2  6.22894 96.8919
1876.3  6.03832 96.6713
1876.4  5.88993 96.4697
1876.5  6.11893 96.4367
1876.6  6.33896 96.4156
1876.7  6.47837 96.501
1876.8  6.58112 96.5874
1876.9  6.35262 96.6809
1877.0  6.14955 96.7858
1877.1  6.17505 96.9933
1877.2  6.17639 97.1732
1877.3  5.96025 97.1052
1877.4  5.7622  97.0575
1877.5  5.7242  97.192
1877.6  5.70651 97.3173
1877.7  5.87141 97.3597
1877.8  6.02636 97.3999
1877.9  6.08986 97.4184
1878.0  6.13173 97.4242
1878.1  5.97923 97.3167
1878.2  5.842   97.2101
1878.3  5.842   97.111
1878.4  5.85091 97.0002
1878.5  5.93991 96.7827
1878.6  6.03396 96.5789
1878.7  6.17337 96.4979
1878.8  6.28884 96.4184
1878.9  6.18734 96.3529
1879.0  6.11252 96.2952
1879.1  6.27752 96.3078
1879.2  6.41329 96.3285
1879.3  6.28621 96.423
1879.4  6.17711 96.5248
1879.5  6.22811 96.6928
1879.6  6.26509 96.8542
1879.7  6.17615 96.9556
1879.8  6.09855 97.067
1879.9  6.12405 97.267
1880.0  6.1432  97.456
1880.1  6.1052  97.546
1880.2  6.0735  97.644
1880.3  6.09852 97.8136
1880.4  6.10703 97.9737
1880.5  5.96753 98.0507
1880.6  5.85091 98.1321
1880.7  5.93985 98.2525
1880.8  5.99202 98.3649
1880.9  5.71252 98.4039
1881.0  5.48263 98.4431
1881.1  5.69863 98.4841
1881.2  5.87014 98.5213
1881.3  5.6415  98.5238
1881.4  5.44997 98.5227
1881.5  5.58947 98.4897
1881.6  5.74422 98.4417
1881.7  6.03604 98.2594
1881.8  6.27868 98.0813
1881.9  6.07568 97.9443
1882.0  5.88534 97.7944
1882.1  5.80884 97.5289
1882.2  5.74891 97.2818
1882.3  5.83796 97.1997
1882.4  5.90528 97.1238
1882.5  5.77828 97.1018
1882.6  5.64114 97.0867
1882.7  5.41278 97.1337
1882.8  5.24004 97.1912
1882.9  5.57004 97.3427
1883.0  5.83907 97.4949
1883.1  5.56007 97.6534
1883.2  5.33311 97.8028
1883.3  5.57426 97.8714
1883.4  5.77193 97.9421
1883.5  5.58143 98.0326
1883.6  5.40745 98.1148
1883.7  5.38196 98.1228
1883.8  5.36921 98.1201
1883.9  5.47121 98.0211
1884.0  5.55154 97.9202
1884.1  5.43704 97.8027
1884.2  5.32384 97.663
1884.3  5.22228 97.3233
1884.4  5.14627 96.9822
1884.5  5.29877 96.6242
1884.6  5.40803 96.2871
1884.7  5.1287  96.1382
1884.8  4.89227 95.9822
1884.9  5.04477 95.7647
1885.0  5.17564 95.5618
1885.1  5.11214 95.4898
1885.2  5.07531 95.4222
1885.3  5.27844 95.3942
1885.4  5.44954 95.3756
1885.5  5.33504 95.4416
1885.6  5.25872 95.5309
1885.7  5.52555 95.8297
1885.8  5.75834 96.1198
1885.9  5.68184 96.3273
1886.0  5.62066 96.5553
1886.1  5.69716 96.9678
1886.2  5.77105 97.3679
1886.3  5.82158 97.6571
1886.4  5.84923 97.9232
1886.5  5.67173 97.9852
1886.6  5.50184 98.0342
1886.7  5.40041 97.9662
1886.8  5.33058 97.8928
1886.9  5.54608 97.7708
1887.0  5.7362  97.6277
1887.1  5.6982  97.2947
1887.2  5.68181 96.9789
1887.3  5.85992 96.8178
1887.4  6.0187  96.6509
1887.5  6.0057  96.4299
1887.6  6.01436 96.2264
1887.7  6.21774 96.1804
1887.8  6.39209 96.1391
1887.9  6.30309 96.1401
1888.0  6.19882 96.1488
1888.1  5.95732 96.2263
1888.2  5.76161 96.3018
1888.3  5.97775 96.3604
