# Выгружено из ПО "Атлас - Подсчет запасов"
############################################
~VERSION INFORMATION
#MNEM.UNIT                                    DATA : TYPE DESCRIPTION
VERS.                                         1.20 : CWLS LOG ASCII STANDARD_VERSION 1.20
WRAP.                                           NO : One line per depth step
############################################
~WELL INFORMATION
#MNEM.UNIT                                    DATA : TYPE DESCRIPTION
STRT.M                                       983.2 : Start depth
STOP.M                                      3193.9 : Stop depth
STEP.M                                         0.1 : Step
NULL.                                      -999.25 : Null Value
WELL.                                           18 : 18
X.                                        12538497 : X-coordinate of Well Head
Y.                                         8016226 : Y-coordinate of Well Head
RKB.                                          49.8 : RKB
############################################
~CURVE INFORMATION
#MNEM.UNIT                                    DATA : TYPE DESCRIPTION
DEPT.M                                             : DEPT
ГК.у.е.                                            : 
ПС.мВ                                              : 
############################################
~ASCII
# ...
1720.8  6.1432  55.7999
1720.9  6.1052  54.6899
1721.0  6.09007 53.5958
1721.1  6.28057 52.6448
1721.2  6.44179 51.7574
1721.3  6.33973 51.4412
1721.4  6.23659 51.1572
1721.5  6.12259 51.1586
1721.6  6.03141 51.1919
1721.7  6.14534 51.5107
1721.8  6.22768 51.8458
1721.9  6.02468 52.3233
1722.0  5.86488 53.0392
1722.1  6.09338 55.8982
1722.2  6.28629 58.5347
1722.3  6.15921 59.1716
1722.4  6.05772 60.2051
1722.5  6.18472 64.8101
1722.6  6.29265 69.3672
1722.7  6.22918 73.4936
1722.8  6.19743 77.4823
1722.9  6.45143 80.1823
1723.0  6.65712 82.8823
1723.1  6.42862 85.5823
1723.2  6.22045 88.0122
1723.3  6.19493 88.0136
1723.4  6.19363 88.2377
1723.5  6.40963 90.4617
1723.6  6.59254 92.5585
1723.7  6.47811 93.5119
1723.8  6.36484 94.4506
1723.9  6.26334 95.2461
1724.0  6.19363 96.0018
1724.1  6.40963 96.3998
1724.2  6.6002  96.7436
1724.3  6.56217 96.5995
1724.4  6.51784 96.4042
1724.5  6.41634 95.7472
1724.6  6.32245 95.1085
1724.7  6.29696 94.6338
1724.8  6.26889 94.0889
1724.9  6.21789 92.9194
1725.0  6.15293 91.7247
1725.1  5.96243 90.3037
1725.2  5.79865 88.9256
1725.3  5.8752  87.9315
1725.4  5.93254 86.8333
1725.5  5.81804 84.7883
1725.6  5.67813 82.6858
1725.7  5.30985 80.0669
1725.8  4.98055 77.4045
1725.9  5.00605 74.383
1726.0  5.00993 71.5154
1726.1  4.81943 70.0314
1726.2  4.69503 68.4509
1726.3  5.16532 65.9994
1726.4  5.58925 63.6279
1726.5  5.60175 61.9489
1726.6  5.63972 60.3746
1726.7  5.90655 59.7415
1726.8  6.12663 59.3619
1726.9  5.92312 61.2684
1727.0  5.74255 63.0528
1727.1  5.76805 63.7403
1727.2  5.77069 64.5278
1727.3  5.56756 66.2158
1727.4  5.37609 67.9264
1727.5  5.28709 69.8584
1727.6  5.20445 71.696
1727.7  5.17896 72.6844
1727.8  5.17637 73.6713
1727.9  5.37988 74.6333
1728.0  5.56045 75.6629
1728.1  5.53495 77.3005
1728.2  5.53361 78.8308
1728.3  5.74974 79.3992
1728.4  5.96813 79.9856
1728.5  6.20913 80.7411
1728.6  6.43871 81.3814
1728.7  6.56563 80.9862
1728.8  6.65587 80.5904
1728.9  6.41487 80.1949
1729.0  6.21577 79.8829
1729.1  6.39327 80.322
1729.2  6.5492  80.7588
1729.3  6.51117 81.1771
1729.4  6.49352 81.6265
1729.5  6.65852 82.361
1729.6  6.80065 82.9668
1729.7  6.73719 82.4151
1729.8  6.66984 81.831
1729.9  6.56834 80.9625
1730.0  6.4732  80.1164
1730.1  6.4352  79.4709
1730.2  6.40735 78.7594
1730.3  6.47089 77.4536
1730.4  6.51398 76.1769
1730.5  6.37398 75.1469
1730.6  6.25821 74.1398
1730.7  6.36014 73.3382
1730.8  6.42657 72.5777
1730.9  6.17257 72.1946
1731.0  5.94906 71.7429
1731.1  5.99956 70.6729
1731.2  6.0412  69.7102
1731.3  6.00317 69.7116
1731.4  5.96775 69.8211
1731.5  5.95525 70.9011
1731.6  5.91473 72.0242
1731.7  5.62241 73.5348
1731.8  5.35775 74.9618
1731.9  5.34525 75.6193
1732.0  5.27678 76.379
1732.1  4.70528 78.057
1732.2  4.20991 79.3765
1732.3  4.39903 77.4719
1732.4  4.59253 75.6807
1732.5  4.82753 74.8882
1732.6  5.03725 74.0957
1732.7  5.01976 73.3037
1732.8  5.03198 72.5981
1732.9  5.31148 72.6786
1733.0  5.5617  73.1406
1733.1  5.5487  77.0316
1733.2  5.55606 80.6783
1733.3  5.74668 82.1317
1733.4  5.94598 83.7815
1733.5  6.22548 87.212
1733.6  6.50242 90.4367
1733.7  6.75626 91.8118
1733.8  6.93794 93.224
1733.9  6.46794 94.952
1734.0  6.06537 96.5488
1734.1  6.26888 96.9658
1734.2  6.45325 97.368
1734.3  6.46576 97.6382
1734.4  6.45157 97.8571
1734.5  6.19757 97.6181
1734.6  5.9639  97.3794
1734.7  5.91293 97.1441
1734.8  5.89373 96.8767
1734.9  6.16073 96.3242
1735.0  6.39084 95.8015
1735.1  6.28934 95.547
1735.2  6.17384 95.2814
1735.3  5.93219 94.9152
1735.4  5.72516 94.5773
1735.5  5.82666 94.4903
1735.6  5.90024 94.4191
1735.7  5.72285 94.4895
1735.8  5.5655  94.5693
1735.9  5.5905  94.7323
1736.0  5.63843 94.9323
1736.1  5.89243 95.4643
1736.2  6.11595 96.0065
1736.3  6.06542 96.6419
1736.4  6.01489 97.2411
1736.5  5.96389 97.5221
1736.6  5.90659 97.8133
1736.7  5.79266 98.1955
1736.8  5.71668 98.5485
1736.9  5.98318 98.6335
1737.0  6.22425 98.7053
1737.1  6.23675 98.6583
1737.2  6.2531  98.6043
1737.3  6.30413 98.4878
1737.4  6.36016 98.3496
1737.5  6.46166 98.0156
1737.6  6.54409 97.6985
1737.7  6.45515 97.5336
1737.8  6.35468 97.3629
1737.9  6.15168 97.1424
1738.0  5.98427 96.9385
1738.1  6.13677 96.8835
1738.2  6.274   96.8355
1738.3  6.274   96.8505
1738.4  6.26634 96.871
1738.5  6.18984 96.941
1738.6  6.11595 97.0103
1738.7  6.06548 97.0733
1738.8  6.01489 97.1498
1738.9  5.96389 97.3478
1739.0  5.9142  97.5398
1739.1  5.8762  97.6778
1739.2  5.86742 97.8356
1739.3  6.12157 98.1718
1739.4  6.37668 98.5128
1739.5  6.64318 98.9003
1739.6  6.85378 99.2671
1739.7  6.56196 99.4474
1739.8  6.33459 99.6277
1739.9  6.69009 99.8047
1740.0  6.99348 99.9582
1740.1  6.82848 99.9002
1740.2  6.6724  99.8142
1740.3  6.59635 99.4765
1740.4  6.52164 99.1573
1740.5  6.45814 99.0008
1740.6  6.41751 98.7847
1740.7  6.58241 98.0321
1740.8  6.71193 97.3204
1740.9  6.52143 96.9849
1741.0  6.32582 96.6759
1741.1  6.08432 96.6054
1741.2  5.88101 96.5614
1741.3  6.02109 96.7555
1741.4  6.13554 96.9441
1741.5  6.02104 97.0851
1741.6  5.92946 97.242
1741.7  6.04389 97.5418
1741.8  6.15972 97.842
1741.9  6.28672 98.142
1742.0  6.38698 98.4498
1742.1  6.24698 98.8273
1742.2  6.15152 99.1873
1742.3  6.4567  99.3904
1742.4  6.71193 99.5969
1742.5  6.52143 99.8354
1742.6  6.34365 100.044
1742.7  6.28018 99.9818
1742.8  6.21664 99.914
1742.9  6.15314 99.794
1743.0  6.08839 99.6635
1743.1  6.01239 99.4385
1743.2  5.96431 99.2294
1743.3  6.16744 99.1634
1743.4  6.34109 99.1097
1743.5  6.25209 99.1667
1743.6  6.15804 99.2413
1743.7  6.01863 99.4742
1743.8  5.90697 99.6983
1743.9  6.04647 99.8413
1744.0  6.16439 100.002
1744.1  6.08839 100.318
1744.2  6.03651 100.617
1744.3  6.20161 100.758
1744.4  6.34489 100.91
1744.5  6.29389 101.158
1744.6  6.248   101.389
1744.7  6.248   101.465
1744.8  6.22512 101.542
1744.9  5.99662 101.625
1745.0  5.79866 101.696
1745.1  5.87516 101.655
1745.2  5.93129 101.61
1745.3  5.80421 101.525
1745.4  5.70141 101.421
1745.5  5.81541 101.146
1745.6  5.91295 100.877
1745.7  5.86248 100.672
1745.8  5.82336 100.441
1745.9  5.88686 99.9865
1746.0  5.93889 99.5554
1746.1  5.88789 99.3299
1746.2  5.85851 99.0814
1746.3  6.02361 98.6256
1746.4  6.15293 98.1695
1746.5  5.96243 97.7055
1746.6  5.81006 97.2648
1746.7  6.00045 97.0329
1746.8  6.16309 96.778
1746.9  6.07409 96.3185
1747.0  5.98128 95.8844
1747.1  5.85428 95.6789
1747.2  5.77432 95.4606
1747.3  6.11753 95.1269
1747.4  6.41073 94.8109
1747.5  6.25823 94.6504
1747.6  6.09814 94.5063
1747.7  5.86978 94.5093
1747.8  5.67927 94.5303
1747.9  5.83177 94.7128
1748.0  5.97155 94.8956
1748.1  5.99705 95.0816
1748.2  6.0162  95.3009
1748.3  5.97817 95.8203
1748.4  5.95541 96.3173
1748.5  6.06941 96.6198
1748.6  6.15929 96.9473
1748.7  6.03237 97.4994
1748.8  5.89512 98.035
1748.9  5.66662 98.4145
1749.0  5.49154 98.768
1749.1  5.79654 98.8875
1749.2  6.04809 99.0024
1749.3  5.81895 99.0759
1749.4  5.63843 99.1384
1749.5  5.89243 99.1029
1749.6  6.11084 99.0151
1749.7  6.00941 98.457
1749.8  5.90784 97.9547
1749.9  5.80634 97.9612
1750.0  5.73918 97.9359
1750.1  5.98068 97.6249
1750.2  6.21321 97.3456
1750.3  6.3653  97.3522
1750.4  6.48293 97.3745
1750.5  6.29243 97.5395
1750.6  6.14136 97.7046
1750.7  6.34474 97.87
1750.8  6.52289 98.0615
1750.9  6.47189 98.4865
1751.0  6.41709 98.9072
1751.1  6.32809 99.2893
1751.2  6.26201 99.6576
1751.3  6.40209 99.9032
1751.4  6.50257 100.123
1751.5  6.24857 100.114
1751.6  6.03776 100.072
1751.7  6.21515 99.7394
1751.8  6.36994 99.408
1751.9  6.31944 99.0885
1752.0  6.2702  98.7068
1752.1  6.2322  97.7663
1752.2  6.18144 96.8604
1752.3  6.01584 96.264
1752.4  5.85428 95.5956
1752.5  5.72728 94.2731
1752.6  5.63591 93.0191
1752.7  5.86477 92.3804
1752.8  6.04302 91.7006
1752.9  5.76352 90.6576
1753.0  5.53998 89.6705
1753.1  5.81948 89.1865
1753.2  6.04809 88.7542
1753.3  5.81895 88.7868
1753.4  5.62446 88.8817
1753.5  5.73896 89.5382
1753.6  5.83054 90.1889
1753.7  5.71611 90.7876
1753.8  5.63463 91.4786
1753.9  5.85063 92.9931
1754.0  6.05646 94.4366
1754.1  6.17096 95.2411
1754.2  6.23458 96.1059
