# Выгружено из ПО "Атлас - Подсчет запасов"
############################################
~VERSION INFORMATION
#MNEM.UNIT                                    DATA : TYPE DESCRIPTION
VERS.                                         1.20 : CWLS LOG ASCII STANDARD_VERSION 1.20
WRAP.                                           NO : One line per depth step
############################################
~WELL INFORMATION
#MNEM.UNIT                                    DATA : TYPE DESCRIPTION
STRT.M                                       983.2 : Start depth
STOP.M                                      3193.9 : Stop depth
STEP.M                                         0.1 : Step
NULL.                                      -999.25 : Null Value
WELL.                                           18 : 18
X.                                        12538497 : X-coordinate of Well Head
Y.                                         8016226 : Y-coordinate of Well Head
RKB.                                          49.8 : RKB
############################################
~CURVE INFORMATION
#MNEM.UNIT                                    DATA : TYPE DESCRIPTION
DEPT.M                                             : DEPT
ГК.у.е.                                            : 
ПС.мВ                                              : 
############################################
~ASCII
# ...
2860.5  6.4745  90.8367
2860.6  6.48249 91.0368
2860.7  6.78662 91.0842
2860.8  7.05845 91.1249
2860.9  7.03298 91.1039
2861.0  6.98842 91.0762
2861.1  6.77266 90.9881
2861.2  6.56628 90.8957
2861.3  6.43913 90.7631
2861.4  6.3161  90.6321
2861.5  6.2271  90.5131
2861.6  6.17113 90.3989
2861.7  6.41184 90.3285
2861.8  6.63666 90.248
2861.9  6.71307 90.0787
2862.0  6.76798 89.9229
2862.1  6.62781 89.8919
2862.2  6.4982  89.8609
2862.3  6.46015 89.8304
2862.4  6.4425  89.7999
2862.5  6.6075  89.7689
2862.6  6.73442 89.7379
2862.7  6.51919 89.7075
2862.8  6.33261 89.6769
2862.9  6.40852 89.6465
2863.0  6.45793 89.6143
2863.1  6.26719 89.5678
2863.2  6.12018 89.5213
2863.3  6.36197 89.4748
2863.4  6.5688  89.4283
2863.5  6.4668  89.3819
2863.6  6.39407 89.348
2863.7  6.58434 89.4274
2863.8  6.75985 89.5103
2863.9  6.79831 89.6226
2864.0  6.85968 89.7268
2864.1  7.12651 89.7543
2864.2  7.35584 89.7818
2864.3  7.25421 89.8093
2864.4  7.13885 89.8367
2864.5  6.89735 89.8643
2864.6  6.68255 89.8918
2864.7  6.70802 89.9198
2864.8  6.7272  89.9478
2864.9  6.68924 89.9752
2865.0  6.66772 90.0028
2865.1  6.79487 90.0303
2865.2  6.89498 90.0578
2865.3  6.75481 90.0853
2865.4  6.629   90.1128
2865.5  6.629   90.1408
2865.6  6.60868 90.1688
2865.7  6.40592 90.1962
2865.8  6.23191 90.2238
2865.9  6.3208  90.2518
2866.0  6.36791 90.2859
2866.1  6.03701 90.375
2866.2  5.70441 90.4588
2866.3  5.34847 90.4963
2866.4  5.04935 90.5338
2866.5  5.25285 90.5718
2866.6  5.47415 90.6098
2866.7  5.85468 90.6472
2866.8  6.21577 90.6848
2866.9  6.39305 90.7228
2867.0  6.57207 90.7726
2867.1  6.76281 90.9283
2867.2  6.91237 91.0643
2867.3  6.69611 91.0278
2867.4  6.5122  91.0126
2867.5  6.6142  91.188
2867.6  6.69964 91.3397
2867.7  6.63622 91.2768
2867.8  6.59932 91.2137
2867.9  6.80208 91.1508
2868.0  6.99136 91.0877
2868.1  7.05494 91.0246
2868.2  7.10564 90.9617
2868.3  7.04206 90.8986
2868.4  6.98375 90.8357
2868.5  6.97125 90.7727
2868.6  6.97141 90.6938
2868.7  7.08527 90.4726
2868.8  7.16768 90.2451
2868.9  6.96492 89.9664
2869.0  6.79852 89.6871
2869.1  6.96372 89.4077
2869.2  7.09037 89.1291
2869.3  6.87411 88.8497
2869.4  6.67495 88.5516
2869.5  6.62445 88.0776
2869.6  6.51667 87.6319
2869.7  5.89493 87.4417
2869.8  5.34546 87.2535
2869.9  5.45982 87.0892
2870.0  5.52866 86.9389
2870.1  5.18524 86.9173
2870.2  4.88336 86.8976
2870.3  4.94694 86.8936
2870.4  5.004   86.9036
2870.5  5.004   87.0402
2870.6  5.02563 87.1763
2870.7  5.24136 87.3092
2870.8  5.41437 87.4739
2870.9  5.19864 87.9213
2871.0  4.99764 88.3503
2871.1  4.93406 88.6036
2871.2  4.90113 88.8896
2871.3  5.14242 89.4753
2871.4  5.37555 90.0341
2871.5  5.54105 90.3651
2871.6  5.68234 90.7368
2871.7  5.60593 91.4734
2871.8  5.54972 92.2034
2871.9  5.67656 92.8561
2872.0  5.80502 93.4711
2872.1  5.94519 93.7319
2872.2  6.05573 94.0105
2872.3  5.90305 94.4556
2872.4  5.77615 94.876
2872.5  5.87765 95.086
2872.6  5.97025 95.317
2872.7  5.98274 95.7354
2872.8  6.00421 96.1338
2872.9  6.10609 96.341
2873.0  6.21832 96.5626
2873.1  6.42157 96.9085
2873.2  6.59384 97.2543
2873.3  6.49221 97.6072
2873.4  6.4137  97.9348
2873.5  6.5407  98.0428
2873.6  6.63718 98.1561
2873.7  6.4594  98.3164
2873.8  6.30411 98.4652
2873.9  6.35504 98.5066
2874.0  6.36791 98.5549
2874.1  6.03701 98.6635
2874.2  5.77309 98.7599
2874.3  6.10399 98.7489
2874.4  6.3959  98.7379
2874.5  6.3449  98.7269
2874.6  6.31937 98.7159
2874.7  6.52263 98.7044
2874.8  6.68182 98.6829
2874.9  6.44062 98.5726
2875.0  6.22555 98.462
2875.1  6.25108 98.3519
2875.2  6.28291 98.2419
2875.3  6.37202 98.1313
2875.4  6.4469  98.0209
2875.5  6.3959  97.9099
2875.6  6.34239 97.7989
2875.7  6.26648 97.6886
2875.8  6.20306 97.578
2875.9  6.25349 97.4681
2876.0  6.30916 97.3605
2876.1  6.41079 97.2759
2876.2  6.49184 97.1915
2876.3  6.39021 97.1069
2876.4  6.3117  97.0225
2876.5  6.4387  96.938
2876.6  6.55555 96.8535
2876.7  6.58102 96.7691
2876.8  6.61416 96.6845
2876.9  6.71554 96.6001
2877.0  6.79173 96.5156
2877.1  6.63905 96.4315
2877.2  6.49439 96.3486
2877.3  6.4183  96.2745
2877.4  6.34745 96.2006
2877.5  6.32195 96.1266
2877.6  6.32188 96.0526
2877.7  6.5501  95.9792
2877.8  6.74714 95.9056
2877.9  6.65875 95.8317
2878.0  6.58536 95.7576
2878.1  6.64894 95.6841
2878.2  6.71106 95.6231
2878.3  6.76162 95.6742
2878.4  6.80065 95.7236
2878.5  6.73715 95.7596
2878.6  6.66603 95.807
2878.7  6.5267  95.9563
2878.8  6.38318 96.0876
2878.9  6.2054  96.0536
2879.0  6.05646 96.0196
2879.1  6.1711  95.9861
2879.2  6.29813 95.9559
2879.3  6.53942 95.9555
2879.4  6.74715 95.9549
2879.5  6.65865 95.9545
2879.6  6.58536 95.9539
2879.7  6.64878 95.9535
2879.8  6.69328 95.953
2879.9  6.56644 95.953
2880.0  6.45961 95.9529
2880.1  6.5357  95.9525
2880.2  6.58493 95.952
2880.3  6.39419 95.9514
2880.4  6.2154  95.9509
2880.5  6.1394  95.9504
2880.6  6.09768 95.95
2880.7  6.36386 95.95
2880.8  6.57857 95.9499
2880.9  6.32488 95.9494
2881.0  6.11252 95.9489
2881.1  6.27772 95.9484
2881.2  6.41709 95.9576
2881.3  6.32798 96.0532
2881.4  6.2455  96.1435
2881.5  6.2205  96.189
2881.6  6.18654 96.2346
2881.7  6.07218 96.28
2881.8  5.97661 96.3256
2881.9  6.05252 96.3716
2882.0  6.13502 96.4176
2882.1  6.27519 96.4631
2882.2  6.39084 96.5086
2882.3  6.28921 96.5541
2882.4  6.198   96.5919
2882.5  6.198   96.5609
2882.6  6.22088 96.5299
2882.7  6.4491  96.4989
2882.8  6.62827 96.4679
2882.9  6.36159 96.4369
2883.0  6.14518 96.4058
2883.1  6.38697 96.3743
2883.2  6.57476 96.3429
2883.3  6.28241 96.3119
2883.4  6.0441  96.2809
2883.5  6.2851  96.2499
2883.6  6.4995  96.2143
2883.7  6.47453 96.1379
2883.8  6.43037 96.0722
2883.9  6.21464 96.1042
2884.0  6.03907 96.1351
2884.1  6.22981 96.1561
2884.2  6.3997  96.1681
2884.3  6.38668 96.0996
2884.4  6.39025 96.0259
2884.5  6.54275 95.9049
2884.6  6.67494 95.791
2884.7  6.62451 95.7411
2884.8  6.59422 95.6959
2884.9  6.74603 95.6954
2885.0  6.86393 95.6793
2885.1  6.67319 95.5221
2885.2  6.4982  95.3718
2885.3  6.46015 95.2797
2885.4  6.4222  95.186
2885.5  6.3842  95.076
2885.6  6.37163 94.9663
2885.7  6.58736 94.8594
2885.8  6.7782  94.7493
2885.9  6.74024 94.613
2886.0  6.706   94.4748
2886.1  6.706   94.3226
2886.2  6.72632 94.1757
2886.3  6.92957 94.0731
2886.4  7.0904  93.9706
2886.5  6.8744  93.8671
2886.6  6.66859 93.7637
2886.7  6.55473 93.6608
2886.8  6.45961 93.5577
2886.9  6.53552 93.4554
2887.0  6.59889 93.3527
2887.1  6.54783 93.2496
2887.2  6.47657 93.1547
2887.3  6.22226 93.1317
2887.4  6.0156  93.1087
2887.5  6.2316  93.0863
2887.6  6.41328 93.0638
2887.7  6.28644 93.0413
2887.8  6.18472 93.0187
2887.9  6.31156 92.9957
2888.0  6.44127 92.9727
2888.1  6.59396 92.9502
2888.2  6.71193 92.9277
2888.3  6.52119 92.9052
2888.4  6.3462  92.8796
2888.5  6.3082  92.8256
2888.6  6.28927 92.7802
2888.7  6.44158 92.8122
2888.8  6.56754 92.8467
2888.9  6.45318 92.9036
2889.0  6.36272 92.9554
2889.1  6.48987 92.9594
2889.2  6.60145 92.9637
2889.3  6.57592 92.9713
2889.4  6.5746  92.9769
2889.5  6.7906  92.9659
2889.6  6.9812  92.9531
2889.7  6.94324 92.9247
2889.8  6.88993 92.8997
2889.9  6.69966 92.9072
2890.0  6.54452 92.913
2890.1  6.70972 92.9035
2890.2  6.84403 92.8939
2890.3  6.70436 92.8829
2890.4  6.5904  92.8725
2890.5  6.7044  92.867
2890.6  6.80194 92.8642
2890.7  6.75151 92.8856
2890.8  6.70725 92.9052
2890.9  6.71974 92.9066
2891.0  6.70812 92.9082
2891.1  6.47934 92.9102
2891.2  6.24476 92.9122
2891.3  5.95241 92.9137
2891.4  5.7014  92.9152
2891.5  5.8154  92.9172
2891.6  5.94598 92.9192
2891.7  6.22514 92.9206
2891.8  6.47575 92.9221
2891.9  6.46326 92.9236
2892.0  6.46597 92.9252
2892.1  6.60564 92.9267
2892.2  6.71573 92.9213
2892.3  6.56305 92.8542
2892.4  6.41205 92.7873
2892.5  6.27255 92.7203
2892.6  6.16607 92.6533
2892.7  6.35634 92.5864
2892.8  6.52925 92.5193
2892.9  6.54174 92.4529
2893.0  6.55811 92.3863
2893.1  6.60917 92.3192
2893.2  6.64484 92.243
2893.3  6.54321 92.0828
2893.4  6.44565 91.9274
2893.5  6.38215 91.8114
2893.6  6.34277 91.6954
2893.7  6.52005 91.5795
2893.8  6.67364 91.4634
2893.9  6.61022 91.3481
