# Выгружено из ПО "Атлас - Подсчет запасов"
############################################
~VERSION INFORMATION
#MNEM.UNIT                                    DATA : TYPE DESCRIPTION
VERS.                                         1.20 : CWLS LOG ASCII STANDARD_VERSION 1.20
WRAP.                                           NO : One line per depth step
############################################
~WELL INFORMATION
#MNEM.UNIT                                    DATA : TYPE DESCRIPTION
STRT.M                                       983.2 : Start depth
STOP.M                                      3193.9 : Stop depth
STEP.M                                         0.1 : Step
NULL.                                      -999.25 : Null Value
WELL.                                           18 : 18
X.                                        12538497 : X-coordinate of Well Head
Y.                                         8016226 : Y-coordinate of Well Head
RKB.                                          49.8 : RKB
############################################
~CURVE INFORMATION
#MNEM.UNIT                                    DATA : TYPE DESCRIPTION
DEPT.M                                             : DEPT
ГК.у.е.                                            : 
ПС.мВ                                              : 
############################################
~ASCII
# ...
2425.0  6.31989 91.0511
2425.1  6.26883 91.2123
2425.2  6.25354 91.3452
2425.3  6.55891 91.2276
2425.4  6.8203  91.0845
2425.5  6.6933  90.7101
2425.6  6.57009 90.2045
2425.7  6.4812  88.5241
2425.8  6.42263 86.8837
2425.9  6.63836 85.6432
2426.0  6.80757 84.2383
2426.1  6.55326 81.3819
2426.2  6.33261 78.5962
2426.3  6.4087  76.378
2426.4  6.47445 74.1801
2426.5  6.44895 72.1111
2426.6  6.41203 70.4156
2426.7  6.2727  72.0776
2426.8  6.12282 73.6374
2426.9  5.88162 74.2396
2427.0  5.68052 74.9575
2427.1  5.84572 76.7021
2427.2  5.97112 78.3643
2427.3  5.74234 79.3275
2427.4  5.55985 80.3645
2427.5  5.78835 82.0895
2427.6  6.01437 83.719
2427.7  6.21763 84.4876
2427.8  6.38828 85.3082
2427.9  6.26144 86.5766
2428.0  6.15591 87.8009
2428.1  6.24502 88.6004
2428.2  6.35043 89.3681
2428.3  6.60474 89.8692
2428.4  6.82535 90.2336
2428.5  6.74885 89.3791
2428.6  6.68255 88.5554
2428.7  6.70802 88.0106
2428.8  6.71068 87.3709
2428.9  6.50792 85.8937
2429.0  6.35549 84.4915
2429.1  6.66036 83.7967
2429.2  6.92259 82.9622
2429.3  6.80845 80.8541
2429.4  6.7187  79.0611
2429.5  6.8457  80.0527
2429.6  6.94093 81.0444
2429.7  6.75066 82.0357
2429.8  6.58661 83.0292
2429.9  6.66252 84.019
2430.0  6.71828 85.0271
2430.1  6.59113 86.1785
2430.2  6.46048 87.1298
2430.3  6.29528 86.3083
2430.4  6.1762  85.5533
2430.5  6.4682  85.3763
2430.6  6.76024 85.146
2430.7  7.05188 84.4379
2430.8  7.29848 83.7634
2430.9  7.13368 83.4083
2431.0  6.99011 82.9802
2431.1  7.04117 81.9024
2431.2  7.05771 80.9654
2431.3  6.76486 81.2698
2431.4  6.50585 81.5733
2431.5  6.54435 81.8769
2431.6  6.58661 82.1804
2431.7  6.66252 82.4835
2431.8  6.71954 82.6325
2431.9  6.60518 81.39
2432.0  6.46896 80.129
2432.1  6.13856 78.7288
2432.2  5.85216 77.4304
2432.3  5.95379 77.0144
2432.4  6.05265 76.4464
2432.5  6.12915 74.5009
2432.6  6.21072 72.746
2432.7  6.33756 72.706
2432.8  6.45325 72.741
2432.9  6.46574 73.4491
2433.0  6.45032 74.1858
2433.1  6.18349 75.164
2433.2  5.96432 76.1037
2433.3  6.16757 76.7204
2433.4  6.36525 77.3855
2433.5  6.51775 78.4999
2433.6  6.64989 79.5778
2433.7  6.59896 80.3244
2433.8  6.53903 81.0257
2433.9  6.3997  81.3024
2434.0  6.28541 81.5321
2434.1  6.39955 81.3328
2434.2  6.51857 81.142
2434.3  6.68427 81.0224
2434.4  6.833   80.9189
2434.5  6.833   80.9579
2434.6  6.85077 80.9969
2434.7  7.02806 81.0364
2434.8  7.16002 80.924
2434.9  6.88086 79.4478
2435.0  6.62775 77.8166
2435.1  6.61523 74.8224
2435.2  6.60145 71.9315
2435.3  6.57592 69.896
2435.4  6.52635 67.5994
2435.5  6.25985 62.9039
2435.6  6.03777 58.4461
2435.7  6.21505 56.1324
2435.8  6.33941 53.6358
2435.9  5.98434 49.5543
2436.0  5.63476 45.7066
2436.1  5.34241 44.0531
2436.2  5.08    42.3057
2436.3  5.08    39.673
2436.4  5.0965  37.1375
2436.5  5.2615  35.412
2436.6  5.37951 33.8094
2436.7  5.07538 33.315
2436.8  4.77937 32.8296
2436.9  4.56364 32.4366
2437.0  4.38932 32.0895
2437.1  4.59257 32.1641
2437.2  4.79918 32.2799
2437.3  5.04097 32.7685
2437.4  5.24655 33.3069
2437.5  5.13205 34.3064
2437.6  5.04937 35.2833
2437.7  5.25263 36.0549
2437.8  5.45252 36.9652
2437.9  5.61732 39.1015
2438.0  5.75073 41.1713
2438.1  5.59804 42.5946
2438.2  5.45464 44.202
2438.3  5.39106 47.5015
2438.4  5.37085 50.639
2438.5  5.73935 52.3984
2438.6  6.08622 54.3131
2438.7  6.23803 57.6161
2438.8  6.40809 60.881
2438.9  6.73819 63.724
2439.0  7.03089 66.4165
2439.1  6.97983 67.691
2439.2  6.91368 69.0482
2439.3  6.71043 71.1803
2439.4  6.53435 73.1775
2439.5  6.59785 74.0119
2439.6  6.64098 74.8587
2439.7  6.50115 75.813
2439.8  6.34071 76.7733
2439.9  5.99863 77.7641
2440.0  5.69506 78.5665
2440.1  5.74562 77.6519
2440.2  5.82154 76.7395
2440.3  6.12691 75.8249
2440.4  6.43145 75.1308
2440.5  6.73595 76.3988
2440.6  7.03929 77.6361
2440.7  7.33143 78.5944
2440.8  7.57973 79.5074
2440.9  7.42742 79.9903
2441.0  7.29506 80.4723
2441.1  7.34562 80.9348
2441.2  7.37578 81.3232
2441.3  7.2236  81.0548
2441.4  7.09335 80.7837
2441.5  7.15685 80.4807
2441.6  7.20634 80.0702
2441.7  7.12993 78.6959
2441.8  7.07502 77.4758
2441.9  7.21485 77.6736
2442.0  7.31171 77.7393
2442.1  7.01886 76.6124
2442.2  6.75094 75.5226
2442.3  6.70038 74.7386
2442.4  6.6385  73.8318
2442.5  6.4735  71.7998
2442.6  6.32245 69.8407
2442.7  6.29698 68.5408
2442.8  6.2702  67.2607
2442.9  6.23224 66.19
2443.0  6.18398 65.1166
2443.1  6.04381 64.0428
2443.2  5.91039 63.2508
2443.3  5.8343  64.9684
2443.4  5.78885 66.6188
2443.5  6.01735 67.7068
2443.6  6.25479 68.7227
2443.7  6.5719  69.0887
2443.8  6.83257 69.3621
2443.9  6.57888 68.7943
2444.0  6.31566 67.9256
2444.1  5.97224 64.3618
2444.2  5.68307 60.8706
2444.3  5.87381 57.9465
2444.4  6.0501  54.6572
2444.5  6.1011  48.0092
2444.6  6.16607 41.7505
2444.7  6.35634 39.0018
2444.8  6.49746 36.1794
2444.9  6.19284 32.7616
2445.0  5.93202 29.5576
2445.1  6.07219 28.3536
2445.2  6.18654 27.2452
2445.3  6.0719  26.9668
2445.4  5.96265 26.6669
2445.5  5.89915 26.1659
2445.6  5.82168 25.6916
2445.7  5.61892 25.4584
2445.8  5.41563 25.1918
2445.9  5.21237 24.6315
2446.0  5.02775 24.0965
2446.1  5.01523 23.8011
2446.2  5.02177 23.4705
2446.3  5.19949 22.8157
2446.4  5.359   22.1729
2446.5  5.359   21.6219
2446.6  5.32851 21.1079
2446.7  5.02438 20.9276
2446.8  4.76272 20.7404
2446.9  4.88956 20.4947
2447.0  4.99509 20.2683
2447.1  4.90598 20.2218
2447.2  4.82345 20.1746
2447.3  4.79792 20.1211
2447.4  4.7636  20.0816
2447.5  4.6496  20.1681
2447.6  4.55461 20.2572
2447.7  4.63052 20.3691
2447.8  4.69139 20.4905
2447.9  4.61548 20.6947
2448.0  4.56858 20.8872
2448.1  4.78434 20.9693
2448.2  4.96659 21.0409
2448.3  4.85245 21.0204
2448.4  4.76525 20.9971
2448.5  4.91775 20.9475
2448.6  5.07407 20.8895
2448.7  5.26434 20.7546
2448.8  5.43215 20.6363
2448.9  5.39369 20.6693
2449.0  5.3552  20.711
2449.1  5.31715 20.8312
2449.2  5.28175 20.9715
2449.3  5.26923 21.2964
2449.4  5.2618  21.6112
2449.5  5.2998  21.8438
2449.6  5.32254 22.1201
2449.7  5.20818 22.7893
2449.8  5.11011 23.5379
2449.9  5.16104 24.9831
2450.0  5.19939 26.4082
2450.1  5.1233  27.6207
2450.2  5.06641 29.0424
2450.3  5.18055 32.3759
2450.4  5.28175 35.5669
2450.5  5.26925 37.5559
2450.6  5.27197 39.7406
2450.7  5.4113  43.6773
2450.8  5.54336 47.4102
2450.9  5.60678 49.218
2451.0  5.67416 51.1627
2451.1  5.77579 54.3001
2451.2  5.85684 57.391
2451.3  5.75521 60.1414
2451.4  5.678   62.7382
2451.5  5.818   64.0196
2451.6  5.93254 65.397
2451.7  5.81818 67.6318
2451.8  5.7112  69.742
2451.9  5.67324 70.6799
2452.0  5.639   71.6634
2452.1  5.639   73.0376
2452.2  5.67204 74.3149
2452.3  6.00244 74.7539
2452.4  6.2914  75.1664
2452.5  6.2154  75.3504
2452.6  6.15972 75.4924
2452.7  6.28656 75.2567
2452.8  6.42388 74.9316
2452.9  6.6521  73.8099
2453.0  6.87707 72.6171
2453.1  7.06781 70.8084
2453.2  7.22118 69.0679
2453.3  7.04296 67.8964
2453.4  6.8576  66.5392
2453.5  6.6036  63.4807
2453.6  6.35087 60.5499
2453.7  6.11016 58.7736
2453.8  5.89936 56.81
2453.9  5.96278 53.2089
2454.0  6.01109 49.8013
2454.1  5.92198 48.2144
2454.2  5.85852 46.4417
2454.3  6.02372 42.9584
2454.4  6.1631  39.7486
2454.5  6.0741  38.9146
2454.6  5.99655 38.0804
2454.7  6.02202 37.247
2454.8  6.06407 36.6825
2454.9  6.25434 38.5527
2455.0  6.43236 40.3314
2455.1  6.49594 41.2455
2455.2  6.53012 42.3094
2455.3  6.30134 44.7439
2455.4  6.0668  47.069
2455.5  5.7748  48.469
2455.6  5.49037 50.0025
2455.7  5.27464 52.7306
2455.8  5.06473 55.3156
2455.9  4.91242 56.548
2456.0  4.7763  57.8411
2456.1  4.78932 59.6523
2456.2  4.78954 61.372
2456.3  4.6749  62.3116
2456.4  4.5631  63.1306
2456.5  4.4741  62.8871
2456.6  4.3978  62.5841
2456.7  4.43576 61.7477
2456.8  4.46114 60.9228
2456.9  4.37275 60.2227
2457.0  4.30441 59.401
2457.1  4.41855 57.5006
2457.2  4.49687 55.6836
2457.3  4.25558 54.5698
2457.4  4.0682  53.3223
2457.5  4.3602  50.8447
2457.6  4.61789 48.4918
2457.7  4.56696 47.2623
2457.8  4.53372 45.9366
2457.9  4.66056 43.7783
2458.0  4.81315 41.7002
2458.1  5.19461 40.3921
2458.2  5.54846 39.1362
2458.3  5.6631  38.3182
2458.4  5.72025 37.694
