# Выгружено из ПО "Атлас - Подсчет запасов"
############################################
~VERSION INFORMATION
#MNEM.UNIT                                    DATA : TYPE DESCRIPTION
VERS.                                         1.20 : CWLS LOG ASCII STANDARD_VERSION 1.20
WRAP.                                           NO : One line per depth step
############################################
~WELL INFORMATION
#MNEM.UNIT                                    DATA : TYPE DESCRIPTION
STRT.M                                      1000.0 : Start depth
STOP.M                                      2793.9 : Stop depth
STEP.M                                         0.1 : Step
NULL.                                      -999.25 : Null Value
WELL.                                            9 : 9
X.                                        12549674 : X-coordinate of Well Head
Y.                                         8024531 : Y-coordinate of Well Head
RKB.                                          34.8 : RKB
############################################
~CURVE INFORMATION
#MNEM.UNIT                                    DATA : TYPE DESCRIPTION
DEPT.M                                             : DEPT
ГК.у.е.                                            : 
ПС.мВ                                              : 
############################################
~ASCII
# ...
1134.1  8.50141 84.5848
1134.2  8.5579  92.374
1134.3  8.54689 94.6544
1134.4  8.5344  96.2833
1134.5  8.5084  92.0818
1134.6  8.50076 87.7223
1134.7  8.65816 81.9423
1134.8  8.78749 76.3176
1134.9  8.66249 72.1586
1135.0  8.53078 67.9724
1135.1  8.33878 63.5414
1135.2  8.17721 59.2718
1135.3  8.28928 56.4501
1135.4  8.38795 53.9178
1135.5  8.36745 53.9558
1135.6  8.33384 54.2603
1135.7  8.18243 56.9596
1135.8  8.03338 60.1061
1135.9  7.90738 67.2381
1136.0  7.80006 73.8343
1136.1  7.86056 75.6148
1136.2  7.91905 77.1806
1136.3  7.95958 76.8164
1136.4  7.99084 76.5484
1136.5  7.93934 77.1419
1136.6  7.8872  78.1688
1136.7  7.82923 83.0902
1136.8  7.77139 87.9693
1136.9  7.71539 92.4068
1137.0  7.66825 96.5845
1137.1  7.70075 98.427
1137.2  7.73881 100.05
1137.3  7.82686 99.7003
1137.4  7.92097 99.1656
1137.5  8.07047 96.9641
1137.6  8.22036 94.4326
1137.7  8.37377 88.9355
1137.8  8.52602 83.3342
1137.9  8.66602 76.8642
1138.0  8.80587 70.6053
1138.1  8.94437 66.2433
1138.2  9.08736 62.04
1138.3  9.27097 59.2603
1138.4  9.43114 56.7154
1138.5  9.38264 56.2504
1138.6  9.32984 56.1345
1138.7  9.2384  59.1556
1138.8  9.16036 62.498
1138.9  9.20386 68.69
1139.0  9.21912 74.5363
1139.1  8.98062 77.2763
1139.2  8.73613 79.7139
1139.3  8.43745 79.4333
1139.4  8.14587 79.4504
1139.5  7.91487 82.1414
1139.6  7.67253 84.8987
1139.7  7.32824 88.2517
1139.8  7.02611 91.5171
1139.9  7.10711 93.9546
1140.0  7.178   96.2436
1140.1  7.158   97.1981
1140.2  7.14135 98.0429
1140.3  7.15486 97.9018
1140.4  7.17911 97.716
1140.5  7.30011 97.1265
1140.6  7.4055  96.5608
1140.7  7.37052 96.2095
1140.8  7.34526 95.9152
1140.9  7.40776 96.1367
1141.0  7.48708 96.4206
1141.1  7.71758 97.2656
1141.2  7.95612 98.0922
1141.3  8.26731 98.7546
1141.4  8.56202 99.204
1141.5  8.71202 97.746
1141.6  8.85701 96.2937
1141.7  8.95695 94.8926
1141.8  9.03033 93.6287
1141.9  8.86383 93.6162
1142.0  8.70389 93.5289
1142.1  8.60289 92.7689
1142.2  8.518   91.8995
1142.3  8.57804 90.0449
1142.4  8.64381 88.4259
1142.5  8.76181 88.9044
1142.6  8.8622  89.4402
1142.7  8.80423 90.4905
1142.8  8.73823 91.6006
1142.9  8.60073 93.2346
1143.0  8.481   94.7196
1143.1  8.521   94.8656
1143.2  8.55555 94.8736
1143.3  8.54104 93.6399
1143.4  8.52129 92.4374
1143.5  8.45429 91.5029
1143.6  8.41096 90.7347
1143.7  8.58036 91.4613
1143.8  8.74501 92.311
1143.9  8.86501 94.259
1144.0  8.98967 96.1963
1144.1  9.15617 98.0373
1144.2  9.28264 99.5278
1144.3  9.04899 97.8663
1144.4  8.82538 96.0512
1144.5  8.68938 92.8372
1144.6  8.60948 90.0057
1144.7  9.03372 90.6118
1144.8  9.40484 91.3334
1144.9  9.29334 93.0849
1145.0  9.16497 94.5688
1145.1  8.88497 93.6478
1145.2  8.61209 92.5681
1145.3  8.40296 90.0591
1145.4  8.20714 87.5389
1145.5  8.12864 84.8914
1145.6  8.07276 82.2672
1145.7  8.22017 79.8522
1145.8  8.36171 77.8777
1145.9  8.44871 79.8922
1146.0  8.51684 82.0412
1146.1  8.41534 85.3987
1146.2  8.31505 88.7132
1146.3  8.22549 91.645
1146.4  8.14665 94.4485
1146.5  8.16315 96.1315
1146.6  8.17125 97.5428
1146.7  8.10379 96.5119
1146.8  8.05532 95.4988
1146.9  8.17832 94.6583
1147.0  8.29831 94.0042
1147.1  8.39131 95.0252
1147.2  8.4704  96.0041
1147.3  8.42437 96.6049
1147.4  8.3835  96.9324
1147.5  8.3885  94.8089
1147.6  8.39585 92.6437
1147.7  8.42433 90.1037
1147.8  8.4481  87.8133
1147.9  8.4291  87.7968
1148.0  8.44189 87.8219
1148.1  8.74039 88.2209
1148.2  8.99849 88.5221
1148.3  8.89343 87.9427
1148.4  8.79745 87.6381
1148.5  8.78195 89.7961
1148.6  8.77035 91.5311
1148.7  8.79384 89.4643
1148.8  8.80324 87.5554
1148.9  8.68574 87.0899
1149.0  8.55312 86.3828
1149.1  8.28462 83.5048
1149.2  8.05746 80.4471
1149.3  8.20205 75.7683
1149.4  8.34291 71.5355
1149.5  8.45191 71.261
1149.6  8.53824 71.1822
1149.7  8.42081 72.8622
1149.8  8.29998 74.3509
1149.9  8.14998 74.0999
1150.0  8.0151  73.7976
1150.1  8.0161  73.0346
1150.2  8.03266 72.305
1150.3  8.18925 71.8747
1150.4  8.32349 71.3628
1150.5  8.25849 70.1123
1150.6  8.18384 68.7694
1150.7  8.02244 66.5957
1150.8  7.86423 64.4833
1150.9  7.73673 62.9483
1151.0  7.62165 61.4931
1151.1  7.61815 60.7546
1151.2  7.61165 60.1195
1151.3  7.57813 60.4147
1151.4  7.5444  60.8248
1151.5  7.5084  62.2713
1151.6  7.4744  63.6076
1151.7  7.45841 63.9529
1151.8  7.44345 64.0649
1151.9  7.43795 62.0764
1152.0  7.43485 60.2294
1152.1  7.45335 59.6539
1152.2  7.4683  59.1243
1152.3  7.45129 59.0078
1152.4  7.42849 58.7606
1152.5  7.35349 57.3386
1152.6  7.27804 55.9166
1152.7  7.19859 54.4945
1152.8  7.11584 52.9856
1152.9  7.00434 50.7146
1153.0  6.89289 48.4635
1153.1  6.78189 46.391
1153.2  6.66884 44.3504
1153.3  6.53726 42.5949
1153.4  6.40228 41.1864
1153.5  6.23528 42.8784
1153.6  6.09411 44.3963
1153.7  6.18505 44.3493
1153.8  6.28457 44.327
1153.9  6.46007 44.527
1154.0  6.61099 44.8974
1154.1  6.54099 46.7994
1154.2  6.4705  48.8401
1154.3  6.39545 52.1306
1154.4  6.3271  55.7234
1154.5  6.3181  62.0699
1154.6  6.3154  68.5836
1154.7  6.36937 76.6002
1154.8  6.43021 84.4082
1154.9  6.55222 90.2432
1155.0  6.68237 95.7044
1155.1  6.88587 97.8059
1155.2  7.09066 99.6809
1155.3  7.3073  99.5203
1155.4  7.52518 99.1421
1155.5  7.75668 96.8061
1155.6  7.98656 94.189
1155.7  8.20193 89.0451
1155.8  8.39445 83.5372
1155.9  8.37895 74.8202
1156.0  8.34848 66.2187
1156.1  8.18348 58.6552
1156.2  8.01594 51.6032
1156.3  7.82532 49.1452
1156.4  7.63408 46.9122
1156.5  7.43508 46.6742
1156.6  7.23539 46.4457
1156.7  7.02951 46.3033
1156.8  6.84055 46.144
1156.9  6.80605 45.8345
1157.0  6.79022 45.4919
1157.1  6.94222 44.8514
1157.2  7.08135 44.2135
1157.3  7.10487 43.5981
1157.4  7.11664 42.9949
1157.5  7.02314 42.4949
1157.6  6.9379  42.0374
1157.7  6.92691 41.9614
1157.8  6.92911 41.9324
1157.9  7.05011 42.3259
1158.0  7.16746 42.8275
1158.1  7.25196 44.301
1158.2  7.31804 45.8717
1158.3  7.21848 48.3187
1158.4  7.12234 51.0603
1158.5  7.05584 56.4763
1158.6  7.00215 61.4571
1158.7  7.06362 62.527
1158.8  7.13797 63.1039
1158.9  7.32747 59.2374
1159.0  7.50306 55.4526
1159.1  7.55356 52.4021
1159.2  7.57779 49.5573
1159.3  7.36566 48.5602
1159.4  7.15588 47.6565
1159.5  6.96488 47.5815
1159.6  6.77179 47.5223
1159.7  6.55992 47.6053
1159.8  6.36149 47.6751
1159.9  6.28649 47.6261
1160.0  6.23902 47.5493
1160.1  6.43902 47.2228
1160.2  6.62485 46.8834
1160.3  6.68339 46.4276
1160.4  6.72904 45.9471
1160.5  6.65954 45.2391
1160.6  6.58554 44.5609
1160.7  6.47111 44.1501
1160.8  6.37766 43.7624
1160.9  6.47416 43.5869
1161.0  6.57532 43.4429
1161.1  6.71832 43.5819
1161.2  6.8475  43.7681
1161.3  6.8525  44.379
1161.4  6.84479 45.0046
1161.5  6.72278 45.7696
1161.6  6.6115  46.4955
1161.7  6.59651 46.8703
1161.8  6.57869 47.2225
1161.9  6.5357  47.3675
1162.0  6.49119 47.4667
1162.1  6.43319 47.1542
1162.2  6.3859  46.7612
1162.3  6.43493 45.643
1162.4  6.49232 44.5715
1162.5  6.62532 43.9075
1162.6  6.74825 43.303
1162.7  6.78073 43.2336
1162.8  6.79713 43.211
1162.9  6.66863 43.6105
1163.0  6.54774 44.0218
1163.1  6.49524 44.5393
1163.2  6.45836 45.0607
1163.3  6.56192 45.6181
1163.4  6.6572  46.1159
1163.5  6.6792  46.0849
1163.6  6.69019 46.0334
1163.7  6.60225 45.7981
1163.8  6.5199  45.5516
1163.9  6.4889  45.2076
1164.0  6.47166 44.9278
1164.1  6.57816 45.2253
1164.2  6.66294 45.6115
1164.3  6.55238 46.7962
1164.4  6.45025 47.9822
1164.5  6.42275 49.1932
1164.6  6.40936 50.3055
1164.7  6.52279 50.5298
1164.8  6.6215  50.8731
1164.9  6.5865  52.2826
1165.0  6.54474 54.0436
1165.1  6.44224 58.9636
1165.2  6.3497  63.3336
1165.3  6.3467  62.7592
1165.4  6.35326 61.9244
1165.5  6.44576 58.7424
1165.6  6.54386 55.6172
1165.7  6.69227 53.0028
1165.8  6.84362 50.4209
1165.9  7.01962 48.1624
1166.0  7.17119 45.9621
1166.1  7.10319 44.2851
1166.2  7.02289 42.8153
1166.3  6.83177 43.2086
1166.4  6.63607 43.6027
1166.5  6.39707 44.0092
1166.6  6.16279 44.362
1166.7  5.97091 44.2326
1166.8  5.77652 44.0881
1166.9  5.56202 43.8096
1167.0  5.35288 43.6037
1167.1  5.19188 44.0497
1167.2  5.05496 44.5974
1167.3  5.1345  46.0618
1167.4  5.20555 47.6453
1167.5  5.20105 50.3153
