# Выгружено из ПО "Атлас - Подсчет запасов"
############################################
~VERSION INFORMATION
#MNEM.UNIT                                    DATA : TYPE DESCRIPTION
VERS.                                         1.20 : CWLS LOG ASCII STANDARD_VERSION 1.20
WRAP.                                           NO : One line per depth step
############################################
~WELL INFORMATION
#MNEM.UNIT                                    DATA : TYPE DESCRIPTION
STRT.M                                      1000.0 : Start depth
STOP.M                                      2793.9 : Stop depth
STEP.M                                         0.1 : Step
NULL.                                      -999.25 : Null Value
WELL.                                            9 : 9
X.                                        12549674 : X-coordinate of Well Head
Y.                                         8024531 : Y-coordinate of Well Head
RKB.                                          34.8 : RKB
############################################
~CURVE INFORMATION
#MNEM.UNIT                                    DATA : TYPE DESCRIPTION
DEPT.M                                             : DEPT
ГК.у.е.                                            : 
ПС.мВ                                              : 
############################################
~ASCII
# ...
1704.0  4.26959 51.3068
1704.1  4.17559 52.3133
1704.2  4.09035 53.4056
1704.3  4.08385 55.2712
1704.4  4.08065 57.2012
1704.5  4.10715 59.7297
1704.6  4.13245 62.3266
1704.7  4.14694 65.5386
1704.8  4.16    68.7123
1704.9  4.16    71.5023
1705.0  4.15089 73.8917
1705.1  4.05989 72.6796
1705.2  3.98726 71.4466
1705.3  4.07981 70.0222
1705.4  4.19584 68.5919
1705.5  4.52384 67.0924
1705.6  4.83426 65.7836
1705.7  4.98667 66.1888
1705.8  5.10398 66.8665
1705.9  4.90398 69.9875
1706.0  4.71083 73.1997
1706.1  4.57933 77.2322
1706.2  4.4688  81.2444
1706.3  4.54685 85.0782
1706.4  4.61109 88.7479
1706.5  4.55209 90.9839
1706.6  4.52031 93.039
1706.7  4.73318 93.4688
1706.8  4.92024 93.7896
1706.9  4.87274 93.1261
1707.0  4.84872 92.5012
1707.1  5.03572 92.2237
1707.2  5.22681 92.0156
1707.3  5.45495 92.4319
1707.4  5.64904 92.8827
1707.5  5.53954 93.6487
1707.6  5.45796 94.4162
1707.7  5.62736 95.1972
1707.8  5.80833 95.9237
1707.9  6.09133 96.1502
1708.0  6.32082 96.4321
1708.1  6.06932 97.2121
1708.2  5.82374 97.9464
1708.3  5.63112 98.2701
1708.4  5.44564 98.5546
1708.5  5.32213 98.4906
1708.6  5.22846 98.4228
1708.7  5.40285 98.3209
1708.8  5.5591  98.2445
1708.9  5.5501  98.3995
1709.0  5.55306 98.4484
1709.1  5.66356 97.5439
1709.2  5.7691  96.653
1709.3  5.83014 95.8825
1709.4  5.90668 95.2289
1709.5  6.12318 95.6174
1709.6  6.28568 96.018
1709.7  5.96288 96.5272
1709.8  5.65518 96.9984
1709.9  5.48718 97.1219
1710.0  5.3346  97.2168
1710.1  5.3206  97.0548
1710.2  5.3046  96.9007
1710.3  5.27058 96.8176
1710.4  5.25507 96.7531
1710.5  5.40557 96.8541
1710.6  5.55971 96.982
1710.7  5.7466  97.3512
1710.8  5.88842 97.7155
1710.9  5.62292 98.03
1711.0  5.38861 98.3286
1711.1  5.43461 98.4841
1711.2  5.4842  98.6555
1711.3  5.56626 98.9702
1711.4  5.64746 99.1472
1711.5  5.72196 98.0902
1711.6  5.77889 97.093
1711.7  5.67796 96.6333
1711.8  5.61353 96.2426
1711.9  5.87853 96.4781
1712.0  6.06409 96.6683
1712.1  5.53559 96.4513
1712.2  5.06345 96.1135
1712.3  5.09797 94.6886
1712.4  5.12459 92.8711
1712.5  5.08059 87.5091
1712.6  5.04145 82.1386
1712.7  5.04595 76.6909
1712.8  5.04645 71.1928
1712.9  5.01095 65.3083
1713.0  4.98025 59.573
1713.1  4.99275 55.1785
1713.2  5.01065 51.0161
1713.3  5.07719 48.9374
1713.4  5.14881 46.9764
1713.5  5.26681 46.0519
1713.6  5.36294 45.1777
1713.7  5.26251 44.7555
1713.8  5.17315 44.3399
1713.9  5.18465 43.9894
1714.0  5.18899 43.6971
1714.1  5.12899 43.9281
1714.2  5.0692  44.2548
1714.3  5.01116 45.4431
1714.4  4.96035 46.7359
1714.5  4.97385 48.9824
1714.6  5.02192 51.332
1714.7  5.3807  54.608
1714.8  5.67521 57.9785
1714.9  5.38771 62.1585
1715.0  5.15518 66.4244
1715.1  5.41668 71.4619
1715.2  5.63349 76.3839
1715.3  5.44838 80.2733
1715.4  5.30768 84.0092
1715.5  5.56418 86.4082
1715.6  5.78584 88.7073
1715.7  5.6944  90.109
1715.8  5.60629 91.4571
1715.9  5.54929 92.3066
1716.0  5.54135 93.1263
1716.1  5.97435 93.6788
1716.2  6.34874 94.1962
1716.3  6.19615 94.3978
1716.4  6.05229 94.5543
1716.5  5.98529 94.3073
1716.6  5.91805 94.0602
1716.7  5.84859 93.8129
1716.8  5.7824  93.6066
1716.9  5.7464  93.7726
1717.0  5.74904 93.9836
1717.1  6.09904 94.5986
1717.2  6.39034 95.2059
1717.3  6.15369 95.7447
1717.4  5.9397  96.2743
1717.5  5.9267  96.7263
1717.6  5.93606 97.1578
1717.7  6.14643 97.4051
1717.8  6.31362 97.6291
1717.9  6.09012 97.6401
1718.0  5.90267 97.6123
1718.1  6.03917 97.2358
1718.2  6.16305 96.8623
1718.3  6.17356 96.5156
1718.4  6.1801  96.1843
1718.5  6.1511  95.9873
1718.6  6.10214 95.825
1718.7  5.87378 95.9749
1718.8  5.67211 96.1161
1718.9  5.71311 96.1771
1719.0  5.73523 96.2509
1719.1  5.58773 96.4394
1719.2  5.44735 96.6393
1719.3  5.3708  96.942
1719.4  5.346   97.2442
1719.5  5.7855  97.5462
1719.6  6.14593 97.8549
1719.7  5.79564 98.2237
1719.8  5.49532 98.5717
1719.9  5.64832 98.7287
1720.0  5.79501 98.8925
1720.1  5.88501 99.1175
1720.2  5.95194 99.3195
1720.3  5.81136 99.315
1720.4  5.67354 99.2868
1720.5  5.55904 99.0448
1720.6  5.52039 98.8107
1720.7  6.1635  98.6478
1720.8  6.68753 98.4847
1720.9  6.13353 98.3217
1721.0  5.64011 98.1746
1721.1  5.69111 98.1701
1721.2  5.73015 98.179
1721.3  5.6616  98.3085
1721.4  5.58393 98.4428
1721.5  5.42343 98.6203
1721.6  5.2801  98.7705
1721.7  5.29109 98.6761
1721.8  5.29364 98.5679
1721.9  5.22014 98.3369
1722.0  5.1574  98.1285
1722.1  5.1914  98.1235
1722.2  5.21354 98.1265
1722.3  5.12899 98.2016
1722.4  5.06902 98.2922
1722.5  5.22902 98.5242
1722.6  5.3767  98.7484
1722.7  5.41368 98.9018
1722.8  5.43373 99.057
1722.9  5.30123 99.2265
1723.0  5.20002 99.3951
1723.1  5.38002 99.5556
1723.2  5.56166 99.7129
1723.3  5.75828 99.842
1723.4  5.89605 99.9573
1723.5  5.50705 99.9498
1723.6  5.17431 99.9192
1723.7  5.3472  99.6819
1723.8  5.48443 99.4436
1723.9  5.29893 99.1996
1724.0  5.16339 98.9118
1724.1  5.47689 98.2303
1724.2  5.75975 97.5611
1724.3  5.76725 97.0023
1724.4  5.75573 96.4531
1724.5  5.57323 95.9846
1724.6  5.4147  95.5956
1724.7  5.47167 95.9209
1724.8  5.52585 96.3151
1724.9  5.55435 97.3251
1725.0  5.55352 98.225
1725.1  5.28902 98.135
1725.2  5.07241 97.9403
1725.3  5.28654 96.8031
1725.4  5.47359 95.6542
1725.5  5.41959 94.3877
1725.6  5.37295 93.2861
1725.7  5.39244 93.6663
1725.8  5.4121  94.1253
1725.9  5.4331  95.2873
1726.0  5.45415 96.4387
1726.1  5.47565 97.4947
1726.2  5.50951 98.4837
1726.3  5.6546  98.8704
1726.4  5.76983 99.2322
1726.5  5.61833 99.3742
1726.6  5.48215 99.486
1726.7  5.48365 99.3266
1726.8  5.47128 99.1826
1726.9  5.33428 99.1792
1727.0  5.22572 99.1676
1727.1  5.37272 99.0836
1727.2  5.49284 98.9873
1727.3  5.37127 98.7807
1727.4  5.27927 98.5638
1727.5  5.45177 98.2523
1727.6  5.60235 97.8775
1727.7  5.55588 96.9341
1727.8  5.51055 95.909
1727.9  5.47605 94.1615
1728.0  5.42693 92.345
1728.1  5.24643 89.9086
1728.2  5.10086 87.8018
1728.3  5.26946 88.6593
1728.4  5.42966 89.481
1728.5  5.51616 89.9905
1728.6  5.61246 90.3721
1728.7  5.79685 89.6041
1728.8  5.94593 88.8024
1728.9  5.77543 87.7079
1729.0  5.62891 86.6304
1729.1  5.69791 85.7054
1729.2  5.73889 84.8786
1729.3  5.52776 84.9346
1729.4  5.36168 85.0723
1729.5  5.59818 85.9443
1729.6  5.79369 86.8141
1729.7  5.6208  87.6641
1729.8  5.48998 88.5226
1729.9  5.73948 89.4476
1730.0  5.95048 90.3498
1730.1  5.81548 91.0473
1730.2  5.71411 91.7369
1730.3  5.91524 92.3563
1730.4  6.0953  92.952
1730.5  6.0883  93.342
1730.6  6.0891  93.7236
1730.7  6.16006 94.0294
1730.8  6.20102 94.3136
1730.9  5.97152 94.3996
1731.0  5.76575 94.4763
1731.1  5.77325 94.4693
1731.2  5.77625 94.4543
1731.3  5.73872 94.3672
1731.4  5.70405 94.2626
1731.5  5.69455 93.9991
1731.6  5.68715 93.7312
1731.7  5.69864 93.4239
1731.8  5.69493 93.1463
1731.9  5.55443 93.1388
1732.0  5.41198 93.1816
1732.1  5.25198 93.6771
1732.2  5.09394 94.2296
1732.3  4.95336 95.2958
1732.4  4.84557 96.3191
1732.5  5.03107 96.9691
1732.6  5.17278 97.5374
1732.7  4.92094 97.3715
1732.8  4.67768 97.2055
1732.9  4.51468 97.0405
1733.0  4.3711  96.8914
1733.1  4.4021  96.8854
1733.2  4.41894 96.8953
1733.3  4.30838 97.0484
1733.4  4.22197 97.2246
1733.5  4.35147 97.6106
1733.6  4.4681  98.0046
1733.7  4.4691  98.4698
1733.8  4.46965 98.9196
1733.9  4.46615 99.2256
1734.0  4.48548 99.5262
1734.1  4.70998 99.7777
1734.2  4.92876 99.9824
1734.3  5.09636 99.7668
1734.4  5.2483  99.5126
1734.5  5.2613  98.9091
1734.6  5.23708 98.3505
1734.7  4.8783  98.1961
1734.8  4.5536  98.0883
1734.9  4.5396  98.4008
1735.0  4.52975 98.6546
1735.1  4.55725 98.3811
1735.2  4.5816  98.1156
1735.3  4.5776  97.922
1735.4  4.59237 97.7867
1735.5  4.77587 98.1732
1735.6  4.91989 98.5767
1735.7  4.70902 99.1329
1735.8  4.53121 99.671
1735.9  4.65321 100.04
1736.0  4.75659 100.357
1736.1  4.69259 100.195
1736.2  4.6317  100.002
1736.3  4.59868 99.5278
1736.4  4.56835 99.0387
1736.5  4.56185 98.4067
1736.6  4.56015 97.7224
1736.7  4.60163 96.5676
1736.8  4.67119 95.3914
1736.9  4.99269 94.0369
1737.0  5.30808 92.6834
1737.1  5.56858 91.3394
1737.2  5.79795 89.9715
1737.3  5.74742 88.386
1737.4  5.7048  86.7563
