# Выгружено из ПО "Атлас - Подсчет запасов"
############################################
~VERSION INFORMATION
#MNEM.UNIT                                    DATA : TYPE DESCRIPTION
VERS.                                         1.20 : CWLS LOG ASCII STANDARD_VERSION 1.20
WRAP.                                           NO : One line per depth step
############################################
~WELL INFORMATION
#MNEM.UNIT                                    DATA : TYPE DESCRIPTION
STRT.M                                      1000.0 : Start depth
STOP.M                                      2793.9 : Stop depth
STEP.M                                         0.1 : Step
NULL.                                      -999.25 : Null Value
WELL.                                            9 : 9
X.                                        12549674 : X-coordinate of Well Head
Y.                                         8024531 : Y-coordinate of Well Head
RKB.                                          34.8 : RKB
############################################
~CURVE INFORMATION
#MNEM.UNIT                                    DATA : TYPE DESCRIPTION
DEPT.M                                             : DEPT
ГК.у.е.                                            : 
ПС.мВ                                              : 
############################################
~ASCII
# ...
1368.7  5.54682 94.2898
1368.8  5.53427 93.2454
1368.9  5.69677 92.8299
1369.0  5.86578 92.4302
1369.1  6.09328 92.1727
1369.2  6.30681 91.9743
1369.3  6.39486 92.3075
1369.4  6.45823 92.6409
1369.5  6.30073 92.9799
1369.6  6.16185 93.3574
1369.7  6.19033 94.0805
1369.8  6.20258 94.8011
1369.9  6.06858 95.4916
1370.0  5.95816 96.1826
1370.1  6.05966 96.8776
1370.2  6.1541  97.5441
1370.3  6.18512 97.9554
1370.4  6.2107  98.3385
1370.5  6.1877  98.4735
1370.6  6.15484 98.5851
1370.7  6.03342 98.4862
1370.8  5.91384 98.4081
1370.9  5.81234 98.5186
1371.0  5.73732 98.6531
1371.1  5.90032 99.0036
1371.2  6.0505  99.337
1371.3  6.08552 99.5171
1371.4  6.1184  99.5885
1371.5  6.1324  98.685
1371.6  6.12429 97.658
1371.7  5.91741 95.5208
1371.8  5.73345 93.2755
1371.9  5.75795 90.084
1372.0  5.7808  86.7366
1372.1  5.7888  81.9886
1372.2  5.78749 77.3363
1372.3  5.70244 73.539
1372.4  5.6231  69.7882
1372.5  5.5941  66.4142
1372.6  5.5664  63.2554
1372.7  5.55041 62.0312
1372.8  5.52734 60.8295
1372.9  5.44084 59.846
1373.0  5.35915 58.9111
1373.1  5.32065 58.4126
1373.2  5.27955 57.9421
1373.3  5.21501 57.7235
1373.4  5.17472 57.5046
1373.5  5.35172 57.2811
1373.6  5.49979 57.0929
1373.7  5.38786 57.2213
1373.8  5.2883  57.327
1373.9  5.3013  57.2275
1374.0  5.30054 57.2998
1374.1  5.17603 58.9163
1374.2  5.08036 60.542
1374.3  5.24396 62.252
1374.4  5.37843 64.0124
1374.5  5.25293 66.2439
1374.6  5.1378  68.5815
1374.7  5.11581 71.8719
1374.8  5.09515 75.1952
1374.9  5.08665 78.7732
1375.0  5.06428 82.3425
1375.1  4.91728 85.8335
1375.2  4.78665 89.2193
1375.3  4.80316 91.6628
1375.4  4.81605 93.7578
1375.5  4.79655 92.7468
1375.6  4.78921 91.6774
1375.7  4.89114 90.0834
1375.8  4.97874 88.6703
1375.9  4.93624 88.9033
1376.0  4.92168 89.3581
1376.1  5.15818 91.8061
1376.2  5.38551 93.8666
1376.3  5.5306  92.4427
1376.4  5.64778 90.9832
1376.5  5.51578 89.1877
1376.6  5.3989  87.3025
1376.7  5.41789 84.6106
1376.8  5.45788 82.2056
1376.9  5.68638 82.4111
1377.0  5.8955  82.3682
1377.1  5.9305  80.0932
1377.2  5.9702  78.1318
1377.3  6.05226 78.9893
1377.4  6.12164 79.8412
1377.5  6.07814 80.6527
1377.6  6.0406  81.4686
1377.7  6.05659 82.323
1377.8  6.05628 83.2168
1377.9  5.90928 84.4528
1378.0  5.77069 85.6407
1378.1  5.70769 86.3967
1378.2  5.66401 87.186
1378.3  5.79409 88.2762
1378.4  5.92432 89.3735
1378.5  6.05732 90.5475
1378.6  6.15919 91.8549
1378.7  5.9813  94.3609
1378.8  5.80728 96.6295
1378.9  5.67028 96.734
1379.0  5.56808 96.8171
1379.1  5.77858 96.7086
1379.2  5.95619 96.5077
1379.3  5.83812 95.4751
1379.4  5.73871 94.4125
1379.5  5.80571 93.0695
1379.6  5.85254 91.771
1379.7  5.71812 90.872
1379.8  5.61788 90.0457
1379.9  5.82638 89.8832
1380.0  6.01265 89.7155
1380.1  5.99915 89.501
1380.2  5.9822  89.3765
1380.3  5.93417 90.0614
1380.4  5.89275 90.7462
1380.5  5.91025 91.4377
1380.6  5.93576 92.1284
1380.7  6.0332  92.812
1380.8  6.11134 93.4752
1380.9  6.01484 93.9467
1381.0  5.93636 94.3268
1381.1  6.01986 93.8848
1381.2  6.09155 93.3911
1381.3  6.05703 92.432
1381.4  6.0244  91.4426
1381.5  6.0084  90.1701
1381.6  5.98044 88.8977
1381.7  5.84502 87.626
1381.8  5.7251  86.3634
1381.9  5.7461  85.1989
1382.0  5.75409 84.0294
1382.1  5.64509 82.8144
1382.2  5.55791 81.6166
1382.3  5.66697 80.573
1382.4  5.75258 79.5303
1382.5  5.62858 78.4848
1382.6  5.50499 77.4554
1382.7  5.38507 76.5704
1382.8  5.27014 75.6614
1382.9  5.20164 74.5464
1383.0  5.15632 73.4787
1383.1  5.31932 72.8362
1383.2  5.4587  72.1748
1383.3  5.38565 71.3428
1383.4  5.31299 70.5173
1383.5  5.24299 69.7408
1383.6  5.16529 68.9838
1383.7  5.01838 68.4027
1383.8  4.89892 67.8843
1383.9  5.02792 67.9373
1384.0  5.13854 68.0919
1384.1  5.08404 69.1599
1384.2  5.02664 70.2102
1384.3  4.94309 71.1022
1384.4  4.86214 71.9922
1384.5  4.80364 72.8732
1384.6  4.76016 73.756
1384.7  4.8516  74.6544
1384.8  4.92774 75.6163
1384.9  4.86524 77.1373
1385.0  4.83028 78.5528
1385.1  5.04278 79.0203
1385.2  5.2415  79.5346
1385.3  5.31655 80.4701
1385.4  5.37999 81.3967
1385.5  5.33999 82.2527
1385.6  5.32006 83.1338
1385.7  5.48046 84.2401
1385.8  5.64307 85.3464
1385.9  5.82357 86.4394
1386.0  5.99746 87.4588
1386.1  6.11196 87.8168
1386.2  6.20519 88.0224
1386.3  6.10713 86.8562
1386.4  6.00108 85.7009
1386.5  5.82208 84.6309
1386.6  5.64009 83.742
1386.7  5.43121 84.4816
1386.8  5.22923 85.2417
1386.9  5.09173 86.1777
1387.0  4.97946 87.1084
1387.1  5.09396 87.9914
1387.2  5.21266 88.8852
1387.3  5.36926 89.8773
1387.4  5.4704  90.8843
1387.5  5.0749  92.0358
1387.6  4.69403 93.1578
1387.7  4.44469 94.0142
1387.8  4.22315 94.8712
1387.9  4.25465 95.7222
1388.0  4.29752 96.4932
1388.1  4.44252 96.5447
1388.2  4.59311 96.4758
1388.3  4.79423 95.3236
1388.4  4.96484 94.1461
1388.5  4.86334 92.7291
1388.6  4.77555 91.3797
1388.7  4.81103 90.6377
1388.8  4.86112 89.9755
1388.9  5.04212 90.04
1389.0  5.22227 90.2014
1389.1  5.39477 91.2339
1389.2  5.57497 92.3417
1389.3  5.82462 94.1288
1389.4  6.01841 95.8396
1389.5  5.71291 96.8841
1389.6  5.41359 97.9391
1389.7  5.16973 99.0889
1389.8  4.92852 100.004
1389.9  4.71402 98.7944
1390.0  4.50478 97.3932
1390.1  4.34278 94.2687
1390.2  4.21926 91.4925
1390.3  4.4419  91.8472
1390.4  4.66678 92.2043
1390.5  4.91428 92.5873
1390.6  5.16197 92.9737
1390.7  5.41131 93.3905
1390.8  5.65632 93.8105
1390.9  5.85932 94.2545
1391.0  6.03244 94.4225
1391.1  5.93694 92.1105
1391.2  5.86651 89.6636
1391.3  6.0216  85.9999
1391.4  6.18448 82.3407
1391.5  6.41898 78.6817
1391.6  6.59908 75.0312
1391.7  6.29027 71.4574
1391.8  5.98827 68.0307
1391.9  5.75127 65.9702
1392.0  5.50942 64.0189
1392.1  5.22392 63.0489
1392.2  4.95915 62.1245
1392.3  4.8806  61.6092
1392.4  4.8125  61.1109
1392.5  4.8375  60.7599
1392.6  4.84214 60.404
1392.7  4.66375 60.0048
1392.8  4.51036 59.6134
1392.9  4.58386 59.2979
1393.0  4.6476  58.9923
1393.1  4.6236  58.7753
1393.2  4.61431 58.5433
1393.3  4.73738 58.1761
1393.4  4.83583 57.8093
1393.5  4.71434 57.4428
1393.6  4.6088  57.1064
1393.7  4.64678 57.0404
1393.8  4.70768 56.9771
1393.9  4.97418 56.9386
1394.0  5.21725 56.8159
1394.1  5.24975 55.9359
1394.2  5.27495 55.1435
1394.3  5.23442 55.1385
1394.4  5.19099 55.1145
1394.5  5.12099 54.92
1394.6  5.04399 54.7452
1394.7  4.90408 54.7472
1394.8  4.78376 54.8009
1394.9  4.84126 55.3189
1395.0  4.88529 55.8435
1395.1  4.80829 56.428
1395.2  4.73335 57.0214
1395.3  4.67681 57.6953
1395.4  4.61619 58.3605
1395.5  4.51819 58.955
1395.6  4.4291  59.5652
1395.7  4.4201  60.3168
1395.8  4.42497 61.0369
1395.9  4.55447 61.4654
1396.0  4.66264 61.9146
1396.1  4.57914 62.5496
1396.2  4.51491 63.0271
1396.3  4.62397 62.088
1396.4  4.7256  61.1541
1396.5  4.7616  60.2566
1396.6  4.81706 59.3744
1396.7  5.04742 58.6294
1396.8  5.22897 57.9437
1396.9  4.96897 57.8007
1397.0  4.72329 57.7365
1397.1  4.60629 58.381
1397.2  4.51526 59.185
1397.3  4.65785 61.4249
1397.4  4.7845  63.707
1397.5  4.7695  66.394
1397.6  4.7601  69.1527
1397.7  4.80108 72.5556
1397.8  4.85452 75.9116
1397.9  5.01952 78.8036
1398.0  5.17971 81.564
1398.1  5.29671 83.1425
1398.2  5.38099 84.2909
1398.3  5.17086 81.5703
1398.4  4.97114 78.8283
1398.5  4.86264 75.8648
1398.6  4.75755 72.8561
1398.7  4.68309 69.4412
1398.8  4.61996 66.0699
1398.9  4.65945 63.1329
1399.0  4.69971 60.3067
1399.1  4.74671 58.4757
1399.2  4.77944 56.7417
1399.3  4.68389 55.8792
1399.4  4.60266 55.0957
1399.5  4.64916 55.0127
1399.6  4.70451 54.9572
1399.7  4.83943 55.1485
1399.8  4.99294 55.3412
1399.9  5.31194 55.5432
1400.0  5.57322 55.743
1400.1  5.31572 55.923
1400.2  5.07459 56.1053
1400.3  4.98054 56.3079
1400.4  4.90676 56.4956
1400.5  5.01426 56.5516
1400.6  5.12271 56.5985
1400.7  5.23964 56.5641
1400.8  5.33153 56.5125
1400.9  5.19703 56.308
1401.0  5.07009 56.0475
1401.1  5.01109 55.2835
1401.2  4.9548  54.5584
1401.3  4.92278 54.1827
1401.4  4.894   53.8085
1401.5  4.894   53.4435
1401.6  4.8972  53.1056
1401.7  4.92918 53.0122
1401.8  4.9604  52.9621
1401.9  4.9844  53.3026
1402.0  5.00495 53.6719
1402.1  4.99445 54.2999
