# Выгружено из ПО "Атлас - Подсчет запасов"
############################################
~VERSION INFORMATION
#MNEM.UNIT                                    DATA : TYPE DESCRIPTION
VERS.                                         1.20 : CWLS LOG ASCII STANDARD_VERSION 1.20
WRAP.                                           NO : One line per depth step
############################################
~WELL INFORMATION
#MNEM.UNIT                                    DATA : TYPE DESCRIPTION
STRT.M                                      1000.0 : Start depth
STOP.M                                      2793.9 : Stop depth
STEP.M                                         0.1 : Step
NULL.                                      -999.25 : Null Value
WELL.                                            9 : 9
X.                                        12549674 : X-coordinate of Well Head
Y.                                         8024531 : Y-coordinate of Well Head
RKB.                                          34.8 : RKB
############################################
~CURVE INFORMATION
#MNEM.UNIT                                    DATA : TYPE DESCRIPTION
DEPT.M                                             : DEPT
ГК.у.е.                                            : 
ПС.мВ                                              : 
############################################
~ASCII
# ...
1234.6  4.8406  97.9697
1234.7  4.76664 97.7868
1234.8  4.71056 97.6245
1234.9  4.81606 97.6495
1235.0  4.90239 97.702
1235.1  4.81639 98.002
1235.2  4.75356 98.3204
1235.3  4.89915 98.8047
1235.4  5.03906 99.2893
1235.5  5.12956 99.7818
1235.6  5.2088  100.262
1235.7  5.18681 100.635
1235.8  5.15103 100.978
1235.9  4.99153 101.047
1236.0  4.89075 101.097
1236.1  5.31775 100.971
1236.2  5.69179 100.841
1236.3  5.58973 100.679
1236.4  5.5005  100.531
1236.5  5.5255  100.512
1236.6  5.53969 100.507
1236.7  5.45675 100.632
1236.8  5.36798 100.757
1236.9  5.22798 100.89
1237.0  5.1019  101.041
1237.1  5.1009  101.355
1237.2  5.08354 101.599
1237.3  4.91894 101.223
1237.4  4.78577 100.838
1237.5  4.93327 100.379
1237.6  5.08481 99.9027
1237.7  5.2727  99.2706
1237.8  5.45837 98.5635
1237.9  5.62187 97.19
1238.0  5.74672 95.9632
1238.1  5.52422 96.0547
1238.2  5.33791 96.0848
1238.3  5.47699 95.5625
1238.4  5.59634 95.0994
1238.5  5.53984 95.1629
1238.6  5.48104 95.2513
1238.7  5.40159 95.5641
1238.8  5.32174 95.8861
1238.9  5.23924 96.2866
1239.0  5.15404 96.7282
1239.1  5.04454 97.5397
1239.2  4.9522  98.2921
1239.3  5.01424 98.5132
1239.4  5.08997 98.7604
1239.5  5.28947 99.2439
1239.6  5.45584 99.7126
1239.7  5.32442 100.048
1239.8  5.20595 100.375
1239.9  5.20545 100.628
1240.0  5.19964 100.86
1240.1  5.14614 100.902
1240.2  5.12972 100.94
1240.3  5.44691 100.938
1240.4  5.76634 100.936
1240.5  6.10934 100.934
1240.6  6.39158 100.931
1240.7  6.12775 100.92
1240.8  5.88574 100.898
1240.9  5.84324 100.771
1241.0  5.79023 100.654
1241.1  5.64273 100.628
1241.2  5.5118  100.591
1241.3  5.52981 100.456
1241.4  5.52773 100.332
1241.5  5.34523 100.304
1241.6  5.19071 100.261
1241.7  5.28765 100.086
1241.8  5.37175 99.9328
1241.9  5.33925 99.9808
1242.0  5.32096 100.018
1242.1  5.43046 99.9574
1242.2  5.54571 99.8887
1242.3  5.71281 99.7456
1242.4  5.8623  99.6165
1242.5  5.8553  99.612
1242.6  5.83379 99.6075
1242.7  5.68188 99.6025
1242.8  5.56613 99.5861
1242.9  5.77713 99.4676
1243.0  5.95233 99.3559
1243.1  5.80583 99.3054
1243.2  5.6776  99.247
1243.3  5.71362 99.1169
1243.4  5.74705 98.9778
1243.5  5.75755 98.7563
1243.6  5.74599 98.5352
1243.7  5.53612 98.3173
1243.8  5.35666 98.1333
1243.9  5.45316 98.2563
1244.0  5.53424 98.3845
1244.1  5.47674 98.559
1244.2  5.46137 98.7436
1244.3  5.82509 99.0198
1244.4  6.14134 99.2635
1244.5  6.03484 99.219
1244.6  5.9348  99.1107
1244.7  5.89282 98.4281
1244.8  5.85275 97.6932
1244.9  5.83025 96.4967
1245.0  5.80189 95.299
1245.1  5.72089 94.091
1245.2  5.63904 92.9544
1245.3  5.54949 92.4581
1245.4  5.45528 92.0963
1245.5  5.31828 92.9378
1245.6  5.21336 93.7529
1245.7  5.39675 94.3316
1245.8  5.58763 94.8796
1245.9  5.84363 95.1451
1246.0  6.04777 95.4329
1246.1  5.78577 95.9209
1246.2  5.56471 96.3736
1246.3  5.7118  96.5097
1246.4  5.82928 96.6564
1246.5  5.68228 96.8999
1246.6  5.56216 97.1651
1246.7  5.68358 97.6253
1246.8  5.791   98.0269
1246.9  5.771   97.8959
1247.0  5.75806 97.7216
1247.1  5.80856 97.1581
1247.2  5.86236 96.2471
1247.3  5.94591 92.2076
1247.4  6.02861 88.2144
1247.5  6.10461 84.5929
1247.6  6.13408 81.0265
1247.7  5.74531 77.9554
1247.8  5.397   74.9428
1247.9  5.417   72.4933
1248.0  5.41207 70.0576
1248.1  5.18307 67.7461
1248.2  4.96714 65.5652
1248.3  4.86858 64.5576
1248.4  4.78385 63.5757
1248.5  4.82235 62.8132
1248.6  4.84829 62.0702
1248.7  4.76135 61.5031
1248.8  4.70027 60.9623
1248.9  4.87277 60.6653
1249.0  5.00918 60.3774
1249.1  4.82118 60.1719
1249.2  4.6558  59.9644
1249.3  4.69383 59.7382
1249.4  4.71569 59.522
1249.5  4.59268 59.392
1249.6  4.4873  59.2635
1249.7  4.54027 59.1491
1249.8  4.5885  59.0406
1249.9  4.5935  58.9866
1250.0  4.60281 58.9575
1250.1  4.65081 59.1525
1250.2  4.6909  59.348
1250.3  4.65988 59.5481
1250.4  4.63651 59.7401
1250.5  4.68151 59.8606
1250.6  4.7225  59.9894
1250.7  4.7275  60.1927
1250.8  4.73791 60.3742
1250.9  4.79691 60.3567
1251.0  4.84645 60.3001
1251.1  4.81095 59.8922
1251.2  4.78275 59.4904
1251.3  4.82028 59.1447
1251.4  4.85821 58.793
1251.5  4.90021 58.384
1251.6  4.94015 57.9799
1251.7  4.96164 57.6196
1251.8  4.98811 57.294
1251.9  5.05911 57.2845
1252.0  5.12335 57.2693
1252.1  5.12685 57.2028
1252.2  5.11934 57.1551
1252.3  5.01278 57.2756
1252.4  4.9152  57.3881
1252.5  4.8972  57.4291
1252.6  4.88065 57.4781
1252.7  4.87715 57.5985
1252.8  4.87795 57.7131
1252.9  4.91745 57.7741
1253.0  4.94204 57.8285
1253.1  4.83254 57.8235
1253.2  4.72514 57.8185
1253.3  4.63659 57.8135
1253.4  4.56791 57.8085
1253.5  4.67691 57.8035
1253.6  4.76129 57.7968
1253.7  4.62438 57.7748
1253.8  4.51121 57.7482
1253.9  4.61321 57.6802
1254.0  4.70655 57.6004
1254.1  4.72205 57.4149
1254.2  4.73855 57.2348
1254.3  4.76407 57.1033
1254.4  4.79276 56.9754
1254.5  4.85026 56.8799
1254.6  4.9008  56.7938
1254.7  4.88881 56.7918
1254.8  4.86974 56.8021
1254.9  4.78724 56.9226
1255.0  4.70724 57.043
1255.1  4.64974 57.163
1255.2  4.5987  57.2831
1255.3  4.6057  57.4036
1255.4  4.63933 57.5349
1255.5  4.91233 57.7639
1255.6  5.12928 57.9871
1255.7  4.84246 58.1575
1255.8  4.59982 58.3189
1255.9  4.75782 58.3979
1256.0  4.90345 58.4604
1256.1  4.93795 58.3749
1256.2  4.9645  58.2918
1256.3  4.91947 58.2298
1256.4  4.86814 58.1632
1256.5  4.75964 58.0557
1256.6  4.6611  57.9443
1256.7  4.6521  57.7974
1256.8  4.63499 57.6586
1256.9  4.54499 57.5951
1257.0  4.45584 57.5417
1257.1  4.37434 57.5782
1257.2  4.31571 57.6053
1257.3  4.4628  57.5483
1257.4  4.60261 57.4857
1257.5  4.67861 57.3732
1257.6  4.73935 57.2583
1257.7  4.66289 57.1214
1257.8  4.59285 57.0014
1257.9  4.58135 57.0354
1258.0  4.56209 57.0748
1258.1  4.47309 57.1623
1258.2  4.3929  57.2451
1258.3  4.3919  57.2861
1258.4  4.40016 57.3351
1258.5  4.49166 57.4556
1258.6  4.60852 57.5761
1258.7  4.95331 57.6965
1258.8  5.25003 57.8276
1258.9  5.11053 58.0536
1259.0  4.96518 58.2512
1259.1  4.76718 58.1932
1259.2  4.59871 58.1404
1259.3  4.69577 58.1349
1259.4  4.7868  58.1287
1259.5  4.8248  58.1157
1259.6  4.8551  58.0963
1259.7  4.81612 58.0193
1259.8  4.78275 57.9256
1259.9  4.80025 57.6821
1260.0  4.80574 57.4556
1260.1  4.70324 57.3821
1260.2  4.6186  57.3064
1260.3  4.69465 57.2103
1260.4  4.759   57.1155
1260.5  4.719   57.0305
1260.6  4.66934 56.9534
1260.7  4.53293 56.948
1260.8  4.42437 56.9454
1260.9  4.56787 56.9689
1261.0  4.71082 57.0025
1261.1  4.84882 57.1275
1261.2  4.97465 57.2607
1261.3  4.99116 57.4673
1261.4  4.98598 57.6775
1261.5  4.78598 57.9225
1261.6  4.59734 58.1636
1261.7  4.5109  58.3695
1261.8  4.44211 58.5686
1261.9  4.53311 58.7046
1262.0  4.60454 58.8612
1262.1  4.50004 59.2027
1262.2  4.4087  59.522
1262.3  4.43572 59.6421
1262.4  4.45384 59.7557
1262.5  4.39234 59.8122
1262.6  4.34866 59.8564
1262.7  4.46509 59.7904
1262.8  4.58202 59.7206
1262.9  4.70201 59.6171
1263.0  4.79779 59.5234
1263.1  4.67579 59.5179
1263.2  4.566   59.5125
1263.3  4.566   59.5069
1263.4  4.55794 59.5014
1263.5  4.47744 59.4959
1263.6  4.41025 59.4905
1263.7  4.46272 59.485
1263.8  4.50785 59.4795
1263.9  4.48635 59.4739
1264.0  4.46495 59.4525
1264.1  4.44445 59.288
1264.2  4.4325  59.1395
1264.3  4.49754 59.1339
1264.4  4.54128 59.1285
1264.5  4.39428 59.123
1264.6  4.27296 59.119
1264.7  4.38239 59.129
1264.8  4.47694 59.1344
1264.9  4.43645 59.0984
1265.0  4.40456 59.0834
1265.1  4.45006 59.2569
1265.2  4.47634 59.4573
1265.3  4.32975 59.9
1265.4  4.20436 60.3513
1265.5  4.26786 60.8833
1265.6  4.34051 61.4075
1265.7  4.49541 61.8623
1265.8  4.63755 62.3214
1265.9  4.66305 62.8144
1266.0  4.71534 63.2962
1266.1  5.00834 63.6782
1266.2  5.25039 64.0527
1266.3  5.03426 64.3599
1266.4  4.82919 64.6435
1266.5  4.72119 64.7185
1266.6  4.63    64.798
1266.7  4.68997 64.9179
1266.8  4.76152 65.046
1266.9  4.93652 65.2455
1267.0  5.09565 65.4701
1267.1  5.11215 65.9206
1267.2  5.11304 66.3578
1267.3  4.97346 66.6755
1267.4  4.84039 67.0148
1267.5  4.76439 67.5518
1267.6  4.70235 68.128
1267.7  4.76582 69.0569
1267.8  4.84713 69.9937
1267.9  5.08813 70.9897
1268.0  5.32653 72.0234
