# Выгружено из ПО "Атлас - Подсчет запасов"
############################################
~VERSION INFORMATION
#MNEM.UNIT                                    DATA : TYPE DESCRIPTION
VERS.                                         1.20 : CWLS LOG ASCII STANDARD_VERSION 1.20
WRAP.                                           NO : One line per depth step
############################################
~WELL INFORMATION
#MNEM.UNIT                                    DATA : TYPE DESCRIPTION
STRT.M                                      1000.0 : Start depth
STOP.M                                      2793.9 : Stop depth
STEP.M                                         0.1 : Step
NULL.                                      -999.25 : Null Value
WELL.                                            9 : 9
X.                                        12549674 : X-coordinate of Well Head
Y.                                         8024531 : Y-coordinate of Well Head
RKB.                                          34.8 : RKB
############################################
~CURVE INFORMATION
#MNEM.UNIT                                    DATA : TYPE DESCRIPTION
DEPT.M                                             : DEPT
ГК.у.е.                                            : 
ПС.мВ                                              : 
############################################
~ASCII
1000.0  7.23506 97.2516
1000.1  7.37552 96.8882
1000.2  7.49099 96.53
1000.3  7.38102 96.2206
1000.4  7.28722 95.9128
1000.5  7.33976 95.6191
1000.6  7.38109 95.3464
1000.7  7.32208 95.2609
1000.8  7.26284 95.1754
1000.9  7.20136 95.0894
1001.0  7.15176 95.026
1001.1  7.20924 95.1654
1001.2  7.25469 95.3076
1001.3  7.19171 95.473
1001.4  7.1455  95.6609
1001.5  7.25106 96.0521
1001.6  7.38754 96.4347
1001.7  7.80266 96.7413
1001.8  8.15593 97.0554
1001.9  7.95549 97.4393
1002.0  7.7769  97.8173
1002.1  7.7959  98.1397
1002.2  7.82721 98.4532
1002.3  7.96917 98.6846
1002.4  8.0875  98.8714
1002.5  7.99194 98.6537
1002.6  7.90395 98.421
1002.7  7.88344 98.0509
1002.8  7.86615 97.675
1002.9  7.87765 97.2451
1003.0  7.87899 96.8216
1003.1  7.78902 96.4582
1003.2  7.69083 96.1311
1003.3  7.51939 96.1316
1003.4  7.33475 96.1504
1003.5  7.03056 96.3355
1003.6  6.77887 96.5326
1003.7  6.99744 96.8382
1003.8  7.20801 97.1535
1003.9  7.34797 97.5579
1004.0  7.47835 97.9498
1004.1  7.52184 98.2277
1004.2  7.54879 98.4781
1004.3  7.42683 98.4797
1004.4  7.32387 98.4732
1004.5  7.39291 98.3946
1004.6  7.46336 98.3009
1004.7  7.54688 98.0698
1004.8  7.6183  97.8457
1004.9  7.58131 97.6827
1005.0  7.53604 97.5076
1005.1  7.41658 97.2242
1005.2  7.29644 96.9578
1005.3  7.17098 96.8464
1005.4  7.047   96.7224
1005.5  6.93644 96.4853
1005.6  6.85191 96.2641
1005.7  7.00096 96.1856
1005.8  7.14736 96.111
1005.9  7.27082 96.071
1006.0  7.39596 96.0392
1006.1  7.53542 96.0806
1006.2  7.6625  96.1365
1006.3  7.6775  96.3209
1006.4  7.68403 96.51
1006.5  7.61399 96.7417
1006.6  7.55095 96.9653
1006.7  7.55045 97.1178
1006.8  7.5533  97.2938
1006.9  7.58629 97.6812
1007.0  7.6146  98.0608
1007.1  7.6006  98.3687
1007.2  7.57954 98.663
1007.3  7.49507 98.8324
1007.4  7.40586 98.979
1007.5  7.27378 98.9184
1007.6  7.13288 98.8384
1007.7  6.91181 98.5823
1007.8  6.72461 98.3232
1007.9  6.84058 98.0353
1008.0  6.94675 97.7367
1008.1  6.96425 97.3443
1008.2  6.9748  96.9639
1008.3  6.92281 96.693
1008.4  6.89098 96.4174
1008.5  7.04157 96.1003
1008.6  7.19071 95.823
1008.7  7.32775 95.903
1008.8  7.43734 96.0094
1008.9  7.30088 96.3528
1009.0  7.16249 96.7012
1009.1  7.00753 97.0926
1009.2  6.87856 97.4842
1009.3  6.98403 97.8756
1009.4  7.08786 98.2512
1009.5  7.17691 98.4843
1009.6  7.25875 98.7095
1009.7  7.27626 98.8646
1009.8  7.27714 99.0047
1009.9  7.12868 99.0122
1010.0  6.9954  98.9968
1010.1  6.9994  98.7754
1010.2  7.01721 98.5371
1010.3  7.15917 98.1487
1010.4  7.28212 97.7802
1010.5  7.23309 97.5911
1010.6  7.18189 97.4131
1010.7  7.11087 97.3346
1010.8  7.04455 97.2816
1010.9  7.02006 97.4576
1011.0  6.99475 97.6463
1011.1  6.96226 97.9487
1011.2  6.92719 98.245
1011.3  6.86921 98.4844
1011.4  6.8177  98.7397
1011.5  6.8247  99.1384
1011.6  6.84651 99.513
1011.7  7.00156 99.6731
1011.8  7.15016 99.8171
1011.9  7.24163 99.8176
1012.0  7.31504 99.8
1012.1  7.22557 99.62
1012.2  7.1502  99.4412
1012.3  7.20219 99.2732
1012.4  7.24432 99.0903
1012.5  7.19729 98.7716
1012.6  7.13743 98.4607
1012.7  6.96188 98.2176
1012.8  6.82112 97.9814
1012.9  6.99206 97.806
1013.0  7.1417  97.6549
1013.1  7.09871 97.7239
1013.2  7.05575 97.793
1013.3  7.01326 97.8624
1013.4  6.95699 97.9411
1013.5  6.77588 98.1032
1013.6  6.63122 98.2785
1013.7  6.81327 98.5731
1013.8  6.98796 98.8718
1013.9  7.09743 99.2097
1014.0  7.17863 99.5417
1014.1  7.00519 99.8186
1014.2  6.82718 100.089
1014.3  6.60925 100.302
1014.4  6.42977 100.501
1014.5  6.59837 100.587
1014.6  6.75315 100.662
1014.7  6.78466 100.652
1014.8  6.8086  100.634
1014.9  6.76461 100.549
1015.0  6.73696 100.448
1015.1  6.85642 100.205
1015.2  6.98317 99.9612
1015.3  7.17461 99.7033
1015.4  7.32919 99.4405
1015.5  7.15008 99.1338
1015.6  6.97809 98.8311
1015.7  6.86906 98.5625
1015.8  6.77811 98.2963
1015.9  6.84908 98.0494
1016.0  6.91375 97.8144
1016.1  6.92125 97.6884
1016.2  6.92194 97.5714
1016.3  6.86146 97.536
1016.4  6.79899 97.5079
1016.5  6.71844 97.5469
1016.6  6.64765 97.6016
1016.7  6.66416 97.7977
1016.8  6.69777 98.0056
1016.9  6.88521 98.3215
1017.0  7.05595 98.6297
1017.1  7.07545 98.8661
1017.2  7.08734 99.0868
1017.3  7.03086 99.1648
1017.4  6.9892  99.2427
1017.5  7.08176 99.3203
1017.6  7.1078  99.3722
1017.7  6.53612 99.1941
1017.8  6.03821 99.0038
1017.9  6.20017 98.7024
1018.0  6.35806 98.3977
1018.1  6.47852 98.0653
1018.2  6.59761 97.7196
1018.3  6.70358 97.2557
1018.4  6.8093  96.8141
1018.5  6.91286 96.574
1018.6  6.99744 96.3578
1018.7  6.91192 96.3558
1018.8  6.84296 96.3697
1018.9  6.92243 96.5261
1019.0  7.00741 96.6906
1019.1  7.14137 96.926
1019.2  7.26851 97.1691
1019.3  7.33349 97.4795
1019.4  7.3819  97.7899
1019.5  7.28034 98.1011
1019.6  7.1849  98.3976
1019.7  7.14388 98.5631
1019.8  7.112   98.7069
1019.9  7.16199 98.6559
1020.0  7.19339 98.6084
1020.1  7.05743 98.5924
1020.2  6.9404  98.5564
1020.3  6.99439 98.3404
1020.4  7.04494 98.1198
1020.5  7.06445 97.8567
1020.6  7.07519 97.5931
1020.7  7.00717 97.324
1020.8  6.95276 97.069
1020.9  7.02024 96.939
1021.0  7.0797  96.8181
1021.1  7.0667  96.7797
1021.2  7.05035 96.7525
1021.3  7.00386 96.8269
1021.4  6.96727 96.9014
1021.5  7.02031 96.976
1021.6  7.07941 97.0691
1021.7  7.19345 97.3297
1021.8  7.30426 97.5891
1021.9  7.38673 97.8395
1022.0  7.45665 98.0998
1022.1  7.41316 98.4472
1022.2  7.37625 98.7754
1022.3  7.39875 98.9294
1022.4  7.41592 99.0676
1022.5  7.3849  99.063
1022.6  7.34214 99.0499
1022.7  7.19359 98.9589
1022.8  7.0578  98.8375
1022.9  7.0358  98.4426
1023.0  7.02676 98.0551
1023.1  7.13423 97.7362
1023.2  7.2292  97.4245
1023.3  7.2112  97.1796
1023.4  7.18142 96.9348
1023.5  7.04483 96.6917
1023.6  6.9231  96.4792
1023.7  6.9341  96.5407
1023.8  6.95371 96.6128
1023.9  7.05068 96.7808
1024.0  7.1374  96.9558
1024.1  7.1314  97.1938
1024.2  7.11089 97.4239
1024.3  6.9598  97.583
1024.4  6.81699 97.734
1024.5  6.74699 97.8135
1024.6  6.692   97.885
1024.7  6.77196 97.885
1024.8  6.85566 97.8771
1024.9  6.97216 97.7981
1025.0  7.07865 97.7032
1025.1  7.09515 97.4652
1025.2  7.1058  97.2272
1025.3  7.06377 96.989
1025.4  7.03141 96.7462
1025.5  7.08541 96.4582
1025.6  7.13955 96.1701
1025.7  7.19502 95.8813
1025.8  7.23168 95.5913
1025.9  7.09868 95.2948
1026.0  6.95853 95.028
1026.1  6.75402 95.028
1026.2  6.56575 95.0367
1026.3  6.52322 95.1238
1026.4  6.49721 95.2332
1026.5  6.61922 95.5447
1026.6  6.73836 95.8483
1026.7  6.8318  96.0806
1026.8  6.92611 96.3045
1026.9  7.02711 96.449
1027.0  7.11164 96.5887
1027.1  7.04814 96.6857
1027.2  6.97959 96.7729
1027.3  6.86552 96.7725
1027.4  6.77311 96.7583
1027.5  6.87411 96.6218
1027.6  6.97531 96.4808
1027.7  7.07824 96.2995
1027.8  7.17215 96.1023
1027.9  7.18365 95.7653
1028.0  7.18669 95.4196
1028.1  7.11369 94.9961
1028.2  7.06411 94.5719
1028.3  7.22521 94.1412
1028.4  7.38267 93.7343
1028.5  7.50917 93.5373
1028.6  7.61735 93.3639
1028.7  7.56088 93.4023
1028.8  7.50895 93.4717
1028.9  7.49845 93.8182
1029.0  7.49095 94.1967
1029.1  7.51045 94.8627
1029.2  7.51929 95.5707
1029.3  7.43224 96.6579
1029.4  7.33443 97.7115
1029.5  7.13893 98.476
1029.6  6.94964 99.1796
1029.7  6.81622 99.335
1029.8  6.70671 99.4909
1029.9  6.81371 99.6499
1030.0  6.91601 99.7772
1030.1  6.97601 99.6192
1030.2  7.02385 99.4388
1030.3  6.96231 99.0565
1030.4  6.90059 98.6515
1030.5  6.83659 98.037
1030.6  6.78435 97.4049
1030.7  6.83782 96.6149
1030.8  6.88029 95.8225
1030.9  6.82329 95.0185
1031.0  6.76379 94.2683
1031.1  6.68179 94.0013
1031.2  6.60765 93.7659
1031.3  6.60415 93.8149
1031.4  6.61001 93.8787
1031.5  6.70001 94.0752
1031.6  6.79181 94.2869
1031.7  6.89974 94.6357
1031.8  6.99855 94.9733
1031.9  7.01405 95.2063
1032.0  7.01383 95.41
1032.1  6.87233 95.35
1032.2  6.72829 95.2679
1032.3  6.56119 94.9867
1032.4  6.42412 94.671
1032.5  6.55512 94.0415
1032.6  6.69271 93.4039
1032.7  6.88959 92.6938
1032.8  7.06905 91.9574
1032.9  7.08955 90.9929
1033.0  7.10995 89.995
1033.1  7.12945 88.697
1033.2  7.15981 87.3466
1033.3  7.28789 85.5225
1033.4  7.37847 83.8214
1033.5  7.13347 83.2064
