# Выгружено из ПО "Атлас - Подсчет запасов"
############################################
~VERSION INFORMATION
#MNEM.UNIT                                    DATA : TYPE DESCRIPTION
VERS.                                         1.20 : CWLS LOG ASCII STANDARD_VERSION 1.20
WRAP.                                           NO : One line per depth step
############################################
~WELL INFORMATION
#MNEM.UNIT                                    DATA : TYPE DESCRIPTION
STRT.M                                      1000.0 : Start depth
STOP.M                                      2793.9 : Stop depth
STEP.M                                         0.1 : Step
NULL.                                      -999.25 : Null Value
WELL.                                            9 : 9
X.                                        12549674 : X-coordinate of Well Head
Y.                                         8024531 : Y-coordinate of Well Head
RKB.                                          34.8 : RKB
############################################
~CURVE INFORMATION
#MNEM.UNIT                                    DATA : TYPE DESCRIPTION
DEPT.M                                             : DEPT
ГК.у.е.                                            : 
ПС.мВ                                              : 
############################################
~ASCII
# ...
2776.5  3.3498  -999.25
2776.6  3.27532 -999.25
2776.7  3.44811 -999.25
2776.8  3.58818 -999.25
2776.9  3.43037 -999.25
2777.0  3.27569 -999.25
2777.1  3.15253 -999.25
2777.2  3.02738 -999.25
2777.3  2.8812  -999.25
2777.4  2.78025 -999.25
2777.5  3.08275 -999.25
2777.6  3.35345 -999.25
2777.7  3.33797 -999.25
2777.8  3.3233  -999.25
2777.9  3.31631 -999.25
2778.0  3.3111  -999.25
2778.1  3.32211 -999.25
2778.2  3.32594 -999.25
2778.3  3.26537 -999.25
2778.4  3.2233  -999.25
2778.5  3.3463  -999.25
2778.6  3.45129 -999.25
2778.7  3.39436 -999.25
2778.8  3.35612 -999.25
2778.9  3.48696 -999.25
2779.0  3.63874 -999.25
2779.1  3.97615 -999.25
2779.2  4.33617 -999.25
2779.3  4.90787 -999.25
2779.4  5.4628  -999.25
2779.5  5.8808  -999.25
2779.6  6.24298 -999.25
2779.7  6.10315 -999.25
2779.8  5.99963 -999.25
2779.9  6.22535 -999.25
2780.0  6.3861  -999.25
2780.1  5.95707 -999.25
2780.2  5.5314  -999.25
2780.3  5.12541 -999.25
2780.4  4.777   -999.25
2780.5  4.937   -999.25
2780.6  5.05987 -999.25
2780.7  4.84913 -999.25
2780.8  4.67121 -999.25
2780.9  4.79307 -999.25
2781.0  4.89459 -999.25
2781.1  4.81049 -999.25
2781.2  4.75558 -999.25
2781.3  4.96133 -999.25
2781.4  5.17705 -999.25
2781.5  5.48755 -999.25
2781.6  5.70643 -999.25
2781.7  5.10217 -999.25
2781.8  4.59084 -999.25
2781.9  4.92843 -999.25
2782.0  5.20081 -999.25
2782.1  4.87892 -999.25
2782.2  4.592   -999.25
2782.3  4.61203 -999.25
2782.4  4.6277  -999.25
2782.5  4.6047  -999.25
2782.6  4.56883 -999.25
2782.7  4.41752 -999.25
2782.8  4.2781  -999.25
2782.9  4.24913 -999.25
2783.0  4.24062 -999.25
2783.1  4.41684 -999.25
2783.2  4.59522 -999.25
2783.3  4.79747 -999.25
2783.4  4.9523  -999.25
2783.5  4.6853  -999.25
2783.6  4.44165 -999.25
2783.7  4.40819 -999.25
2783.8  4.40814 -999.25
2783.9  4.70877 -999.25
2784.0  5.00628 -999.25
2784.1  5.2691  -999.25
2784.2  5.53063 -999.25
2784.3  5.78694 -999.25
2784.4  6.00925 -999.25
2784.5  5.93175 -999.25
2784.6  5.83612 -999.25
2784.7  5.57793 -999.25
2784.8  5.36953 -999.25
2784.9  5.61423 -999.25
2785.0  5.86213 -999.25
2785.1  6.13346 -999.25
2785.2  6.36338 -999.25
2785.3  6.22722 -999.25
2785.4  6.0899  -999.25
2785.5  5.9389  -999.25
2785.6  5.81416 -999.25
2785.7  5.92553 -999.25
2785.8  6.00763 -999.25
2785.9  5.82435 -999.25
2786.0  5.65755 -999.25
2786.1  5.64303 -999.25
2786.2  5.62334 -999.25
2786.3  5.55676 -999.25
2786.4  5.5041  -999.25
2786.5  5.5751  -999.25
2786.6  5.62483 -999.25
2786.7  5.48351 -999.25
2786.8  5.34829 -999.25
2786.9  5.27138 -999.25
2787.0  5.22137 -999.25
2787.1  5.41511 -999.25
2787.2  5.59656 -999.25
2787.3  5.67215 -999.25
2787.4  5.74805 -999.25
2787.5  5.82855 -999.25
2787.6  5.89604 -999.25
2787.7  5.8466  -999.25
2787.8  5.81542 -999.25
2787.9  5.94925 -999.25
2788.0  6.05658 -999.25
2788.1  5.92242 -999.25
2788.2  5.82052 -999.25
2788.3  6.00575 -999.25
2788.4  6.1698  -999.25
2788.5  6.1478  -999.25
2788.6  6.15058 -999.25
2788.7  6.3758  -999.25
2788.8  6.57189 -999.25
2788.9  6.50098 -999.25
2789.0  6.45302 -999.25
2789.1  6.61321 -999.25
2789.2  6.74183 -999.25
2789.3  6.59015 -999.25
2789.4  6.4427  -999.25
2789.5  6.3297  -999.25
2789.6  6.22239 -999.25
2789.7  6.16646 -999.25
2789.8  6.12061 -999.25
2789.9  6.16655 -999.25
2790.0  6.22152 -999.25
2790.1  6.35668 -999.25
2790.2  6.47244 -999.25
2790.3  6.41688 -999.25
2790.4  6.368   -999.25
2790.5  6.378   -999.25
2790.6  6.40302 -999.25
2790.7  6.56282 -999.25
2790.8  6.69008 -999.25
2790.9  6.52129 -999.25
2791.0  6.34632 -999.25
2791.1  6.11955 -999.25
2791.2  5.91515 -999.25
2791.3  5.90664 -999.25
2791.4  5.9253  -999.25
2791.5  6.1883  -999.25
2791.6  6.45018 -999.25
2791.7  6.70137 -999.25
2791.8  6.91939 -999.25
2791.9  6.83349 -999.25
2792.0  6.7182  -999.25
2792.1  6.34024 -999.25
2792.2  6.00961 -999.25
2792.3  6.09572 -999.25
2792.4  6.15255 -999.25
2792.5  5.94805 -999.25
2792.6  5.76465 -999.25
2792.7  5.77114 -999.25
2792.8  5.79833 -999.25
2792.9  6.01107 -999.25
2793.0  6.19759 -999.25
2793.1  6.14353 -999.25
2793.2  6.10236 -999.25
2793.3  6.17595 -999.25
2793.4  6.2465  -999.25
2793.5  6.2915  -999.25
2793.6  6.33245 -999.25
2793.7  6.33695 -999.25
2793.8  6.34105 -999.25
