# Выгружено из ПО "Атлас - Подсчет запасов"
############################################
~VERSION INFORMATION
#MNEM.UNIT                                    DATA : TYPE DESCRIPTION
VERS.                                         1.20 : CWLS LOG ASCII STANDARD_VERSION 1.20
WRAP.                                           NO : One line per depth step
############################################
~WELL INFORMATION
#MNEM.UNIT                                    DATA : TYPE DESCRIPTION
STRT.M                                      1000.0 : Start depth
STOP.M                                      2793.9 : Stop depth
STEP.M                                         0.1 : Step
NULL.                                      -999.25 : Null Value
WELL.                                            9 : 9
X.                                        12549674 : X-coordinate of Well Head
Y.                                         8024531 : Y-coordinate of Well Head
RKB.                                          34.8 : RKB
############################################
~CURVE INFORMATION
#MNEM.UNIT                                    DATA : TYPE DESCRIPTION
DEPT.M                                             : DEPT
ГК.у.е.                                            : 
ПС.мВ                                              : 
############################################
~ASCII
# ...
2173.3  4.88775 93.2163
2173.4  5.04565 93.4976
2173.5  4.96215 93.3536
2173.6  4.89566 93.1948
2173.7  4.98206 92.9037
2173.8  5.0587  92.6199
2173.9  5.04571 92.4097
2174.0  5.05107 92.2037
2174.1  5.22178 92.0405
2174.2  5.36324 91.8936
2174.3  5.24559 91.8896
2174.4  5.10145 91.9352
2174.5  4.71595 92.4272
2174.6  4.33376 92.9708
2174.7  3.98219 93.9766
2174.8  3.64698 95.0271
2174.9  3.4672  96.4549
2175.0  3.31186 97.8558
2175.1  3.38044 98.9837
2175.2  3.44681 99.8599
2175.3  3.49486 98.4993
2175.4  3.54455 97.1212
2175.5  3.61005 95.5537
2175.6  3.69598 94.0585
2175.7  3.96515 93.2161
2175.8  4.22777 91.6412
2175.9  4.42503 83.5126
2176.0  4.59739 75.7217
2176.1  4.54133 71.1486
2176.2  4.48284 67.2644
2176.3  4.40124 69.4686
2176.4  4.3404  71.6982
2176.5  4.4644  74.2102
2176.6  4.59998 76.6618
2176.7  4.83919 78.565
2176.8  5.04098 80.4017
2176.9  4.90115 81.5963
2177.0  4.77775 82.7605
2177.1  4.80529 83.625
2177.2  4.82234 84.4833
2177.3  4.74575 85.3063
2177.4  4.70225 86.1086
2177.5  4.95475 86.7446
2177.6  5.15146 87.3448
2177.7  4.84684 87.6225
2177.8  4.55213 87.8826
2177.9  4.35387 87.9779
2178.0  4.15222 88.0513
2178.1  3.92444 87.9241
2178.2  3.72015 87.7862
2178.3  3.72165 87.5479
2178.4  3.74985 87.3039
2178.5  4.01835 87.0034
2178.6  4.28338 86.6987
2178.7  4.51659 86.3566
2178.8  4.74778 86.0221
2178.9  4.95502 85.7634
2179.0  5.1441  85.5342
2179.1  5.16513 85.5763
2179.2  5.16533 85.6289
2179.3  4.9786  85.7781
2179.4  4.82445 85.8969
2179.5  4.95895 85.7459
2179.6  5.07054 85.572
2179.7  4.97615 85.1924
2179.8  4.87934 84.7499
2179.9  4.76298 83.7516
2180.0  4.66696 82.8213
2180.1  4.75657 82.5239
2180.2  4.82564 82.3342
2180.3  4.712   83.1061
2180.4  4.60065 83.8583
2180.5  4.50715 84.4513
2180.6  4.42115 85.0348
2180.7  4.40267 85.5317
2180.8  4.37924 86.0302
2180.9  4.31182 86.5306
2181.0  4.23833 87.0342
2181.1  4.11168 87.5564
2181.2  3.99905 88.0725
2181.3  4.00956 88.5476
2181.4  4.02045 89.0177
2181.5  4.03495 89.4547
2181.6  4.03388 89.8824
2181.7  3.89305 90.226
2181.8  3.75338 90.5453
2181.9  3.62754 90.6382
2182.0  3.50379 90.7216
2182.1  3.40166 90.7181
2182.2  3.39966 90.6863
2182.3  4.29625 90.3995
2182.4  5.13735 90.11
2182.5  5.50085 89.7906
2182.6  5.8267  89.4576
2182.7  5.81371 89.0052
2182.8  5.78538 88.5516
2182.9  5.61958 88.0992
2183.0  5.45383 87.661
2183.1  5.29213 87.3612
2183.2  5.13268 87.0611
2183.3  4.98951 86.7522
2183.4  4.88845 86.446
2183.5  5.16295 86.1566
2183.6  5.38762 85.8801
2183.7  5.1644  85.7213
2183.8  4.97011 85.5793
2183.9  5.04102 85.5923
2184.0  5.09409 85.6179
2184.1  4.98495 85.7571
2184.2  4.88159 85.9101
2184.3  4.82753 86.1915
2184.4  4.7788  86.4759
2184.5  4.7768  86.7943
2184.6  4.75703 87.1177
2184.7  4.57775 87.4837
2184.8  4.4187  87.8462
2184.9  4.44567 88.1673
2185.0  4.45398 88.472
2185.1  4.29379 88.6217
2185.2  4.17053 88.7318
2185.3  4.37578 88.49
2185.4  4.5611  88.2441
2185.5  4.5721  87.9551
2185.6  4.60348 87.6962
2185.7  4.81771 87.7082
2185.8  5.01626 87.7508
2185.9  5.06869 88.0685
2186.0  5.14248 88.3951
2186.1  5.40731 88.7961
2186.2  5.62528 89.167
2186.3  5.42804 89.2766
2186.4  5.2493  89.3456
2186.5  5.2323  89.0516
2186.6  5.20373 88.6662
2186.7  5.0714  87.4612
2186.8  4.95756 86.1984
2186.9  5.01299 84.4465
2187.0  5.04663 82.7764
2187.1  4.88293 81.8809
2187.2  4.73159 81.1471
2187.3  4.68754 81.8485
2187.4  4.6378  82.5668
2187.5  4.5358  83.4553
2187.6  4.43189 84.3386
2187.7  4.31103 85.1731
2187.8  4.23834 85.9978
2187.9  4.6009  86.7145
2188.0  4.91298 87.4333
2188.1  4.7628  88.1562
2188.2  4.65949 88.8461
2188.3  4.97437 89.2571
2188.4  5.24515 89.5518
2188.5  5.12665 88.8098
2188.6  5.01119 88.1241
2188.7  4.9233  87.9458
2188.8  4.82342 87.8163
2188.9  4.61818 88.129
2189.0  4.41227 88.4768
2189.1  4.20502 89.1346
2189.2  4.02511 89.6622
2189.3  4.08618 89.0345
2189.4  4.1811  88.1762
2189.5  4.5821  85.2282
2189.6  4.94736 82.2274
2189.7  4.9908  78.7602
2189.8  5.0302  75.1948
2189.9  5.0322  70.8331
2190.0  5.00922 66.5553
2190.1  4.76142 63.1281
2190.2  4.53454 59.7952
2190.3  4.48999 57.2276
2190.4  4.4511  54.651
2190.5  4.4621  51.9305
2190.6  4.45198 49.2729
2190.7  4.25222 47.1875
2190.8  4.10564 45.721
2190.9  4.44123 49.8604
2191.0  4.75571 54.2418
2191.1  4.87286 60.7102
2191.2  4.9799  67.0128
2191.3  4.99893 71.9809
2191.4  5.03955 76.7304
2191.5  5.27505 79.6344
2191.6  5.46823 82.4838
2191.7  5.28096 84.8365
2191.8  5.11691 86.9925
2191.9  5.16585 87.3271
2192.0  5.2104  87.4939
2192.1  5.21441 86.1433
2192.2  5.23442 84.7082
2192.3  5.39862 82.48
2192.4  5.5158  80.2035
2192.5  5.2138  77.438
2192.6  4.93805 74.7332
2192.7  4.89859 72.5803
2192.8  4.85579 70.8769
2192.9  4.78388 73.26
2193.0  4.7167  75.7022
2193.1  4.69367 78.6243
2193.2  4.66304 81.4435
2193.3  4.56342 83.4089
2193.4  4.46455 85.3332
2193.5  4.37005 86.9352
2193.6  4.29857 88.4692
2193.7  4.4339  89.3891
2193.8  4.55996 90.2628
2193.9  4.59941 90.6998
2194.0  4.65993 91.0704
2194.1  4.90923 90.8341
2194.2  5.13045 90.5206
2194.3  5.10492 89.5069
2194.4  5.0955  88.3857
2194.5  5.2305  86.2727
2194.6  5.33979 84.1047
2194.7  5.21793 81.4479
2194.8  5.08858 78.6351
2194.9  4.89481 74.4867
2195.0  4.72105 70.1979
2195.1  4.73156 64.7367
2195.2  4.77464 59.4354
2195.3  5.11105 55.4395
2195.4  5.35685 51.6259
2195.5  4.79535 49.3544
2195.6  4.28549 47.0685
2195.7  4.24055 44.6589
2195.8  4.18373 42.5959
2195.9  4.02143 43.702
2196.0  3.90489 44.6772
2196.1  4.20375 44.4494
2196.2  4.468   44.0115
2196.3  4.42795 41.6761
2196.4  4.38015 39.4334
2196.5  4.26165 37.9669
2196.6  4.16616 36.5776
2196.7  4.27753 35.8849
2196.8  4.36528 35.2685
2196.9  4.23844 35.3534
2197.0  4.11414 35.5269
2197.1  4.01552 36.4961
2197.2  3.95063 37.6498
2197.3  4.18692 40.4883
2197.4  4.3793  43.257
2197.5  4.1823  45.4664
2197.6  4.00946 47.4829
2197.7  4.0539  47.761
2197.8  4.08169 47.8326
2197.9  3.95884 46.0433
2198.0  3.83669 44.3014
2198.1  3.72355 43.0259
2198.2  3.64438 42.149
2198.3  3.86815 44.8293
2198.4  4.05625 47.7617
2198.5  3.92875 53.0287
2198.6  3.79468 57.3315
2198.7  3.60191 52.9674
2198.8  3.41103 48.6836
2198.9  3.24174 45.2278
2199.0  3.10792 41.8266
2199.1  3.29715 38.9926
2199.2  3.49203 36.2926
2199.3  3.74234 34.7287
2199.4  3.96535 33.2079
2199.5  3.94885 32.0369
2199.6  3.91202 30.8679
2199.7  3.69279 29.7198
2199.8  3.50691 28.6121
2199.9  3.62577 27.895
2200.0  3.69951 27.2152
2200.1  3.3646  26.8873
2200.2  3.07616 26.5649
2200.3  3.19781 26.2841
2200.4  3.28725 25.9995
2200.5  3.08975 25.6745
2200.6  2.92927 25.4329
2200.7  3.10156 25.9402
2200.8  3.24609 26.4703
2200.9  3.13722 27.192
2201.0  3.04105 27.946
2201.1  3.06158 28.9763
2201.2  3.07264 29.9222
2201.3  2.99905 30.1345
2201.4  2.93895 30.3788
2201.5  2.99845 30.9168
2201.6  3.06897 31.6512
2201.7  3.23826 34.1466
2201.8  3.3872  36.9955
2201.9  3.34924 42.9557
2202.0  3.32772 48.9647
2202.1  3.45487 55.2814
2202.2  3.56469 61.3657
2202.3  3.52164 65.5128
2202.4  3.4819  69.623
2202.5  3.4709  73.5036
2202.6  3.47657 77.3727
2202.7  3.63188 81.1306
2202.8  3.79698 84.673
2202.9  4.04618 86.1891
2203.0  4.29783 87.5775
2203.1  4.56616 87.7822
2203.2  4.83894 87.9484
2203.3  5.15833 87.7722
2203.4  5.41255 87.5831
2203.5  5.08805 87.2741
2203.6  4.80591 86.9659
2203.7  4.90479 86.6652
2203.8  4.98259 86.4102
2203.9  4.86873 86.5715
2204.0  4.77331 86.7629
2204.1  4.8464  87.2214
2204.2  4.89984 87.6469
2204.3  4.77819 87.7855
2204.4  4.6751  87.8946
2204.5  4.7361  87.7406
2204.6  4.78264 87.5793
2204.7  4.69924 87.3525
2204.8  4.6275  87.0947
2204.9  4.66246 86.5628
2205.0  4.71417 86.0838
2205.1  4.91592 86.0918
2205.2  5.0958  86.1634
2205.3  5.08378 86.8077
2205.4  5.0733  87.4917
2205.5  5.0763  88.5481
2205.6  5.08416 89.5677
2205.7  5.13559 90.2528
2205.8  5.17289 90.9124
2205.9  5.082   91.3248
2206.0  5.0403  91.7154
2206.1  5.44329 91.8997
2206.2  5.77882 92.0809
2206.3  5.517   92.2396
2206.4  5.28785 92.374
2206.5  5.34635 92.2934
2206.6  5.39224 92.1936
2206.7  5.32482 91.9199
