# Выгружено из ПО "Атлас - Подсчет запасов"
############################################
~VERSION INFORMATION
#MNEM.UNIT                                    DATA : TYPE DESCRIPTION
VERS.                                         1.20 : CWLS LOG ASCII STANDARD_VERSION 1.20
WRAP.                                           NO : One line per depth step
############################################
~WELL INFORMATION
#MNEM.UNIT                                    DATA : TYPE DESCRIPTION
STRT.M                                      1000.0 : Start depth
STOP.M                                      2793.9 : Stop depth
STEP.M                                         0.1 : Step
NULL.                                      -999.25 : Null Value
WELL.                                            9 : 9
X.                                        12549674 : X-coordinate of Well Head
Y.                                         8024531 : Y-coordinate of Well Head
RKB.                                          34.8 : RKB
############################################
~CURVE INFORMATION
#MNEM.UNIT                                    DATA : TYPE DESCRIPTION
DEPT.M                                             : DEPT
ГК.у.е.                                            : 
ПС.мВ                                              : 
############################################
~ASCII
# ...
2408.0  4.91023 95.5122
2408.1  4.76255 94.8744
2408.2  4.64797 94.2233
2408.3  4.82769 93.4363
2408.4  4.99865 92.6396
2408.5  5.09515 91.7356
2408.6  5.16713 90.9724
2408.7  5.01881 91.4747
2408.8  4.89211 92.0466
2408.9  4.96302 93.2302
2409.0  5.01599 94.3929
2409.1  4.90585 95.3421
2409.2  4.80279 96.2505
2409.3  4.76074 96.8157
2409.4  4.75065 97.3424
2409.5  5.02715 97.5369
2409.6  5.32341 97.6697
2409.7  5.79633 97.2483
2409.8  6.20268 96.8144
2409.9  5.99992 96.2795
2410.0  5.7755  95.7324
2410.1  5.36049 95.0866
2410.2  5.02439 94.4486
2410.3  5.38834 93.8649
2410.4  5.68265 93.3349
2410.5  5.35915 93.2734
2410.6  5.06054 93.274
2410.7  4.98613 93.8323
2410.8  4.91535 94.4107
2410.9  4.87889 95.1558
2411.0  4.83278 95.9025
2411.1  4.70062 96.6479
2411.2  4.6223  97.3318
2411.3  5.02529 97.48
2411.4  5.3802  97.6049
2411.5  5.3122  97.5233
2411.6  5.28444 97.3872
2411.7  5.61803 96.7604
2411.8  5.86098 96.1265
2411.9  5.28219 95.4428
2412.0  4.77322 94.7954
2412.1  4.90538 94.4895
2412.2  5.01834 94.2008
2412.3  4.96177 94.0586
2412.4  4.9133  93.9319
2412.5  4.9363  93.9409
2412.6  4.95675 93.9662
2412.7  4.95425 94.138
2412.8  4.9516  94.3165
2412.9  4.9476  94.5507
2413.0  4.97148 94.8039
2413.1  5.24632 95.2229
2413.2  5.53495 95.6225
2413.3  5.95446 95.8573
2413.4  6.29795 96.1087
2413.5  5.96745 96.5163
2413.6  5.66474 96.9034
2413.7  5.61231 97.1072
2413.8  5.55484 97.2924
2413.9  5.45346 97.3064
2414.0  5.3606  97.3318
2414.1  5.34658 97.4594
2414.2  5.34546 97.5988
2414.3  5.4601  97.8466
2414.4  5.51885 98.1018
2414.5  5.07735 98.4298
2414.6  4.66213 98.7578
2414.7  4.48385 99.0849
2414.8  4.3253  99.3954
2414.9  4.34827 99.5492
2415.0  4.35013 99.6636
2415.1  4.1614  99.4193
2415.2  4.00151 99.1125
2415.3  4.09663 98.238
2415.4  4.2067  97.2892
2415.5  4.4537  95.6507
2415.6  4.66238 94.1398
2415.7  4.52655 93.7787
2415.8  4.43529 93.4862
2415.9  4.74741 93.8173
2416.0  5.02414 94.1477
2416.1  4.97558 94.4651
2416.2  4.92719 94.6905
2416.3  4.87914 94.0953
2416.4  4.8794  93.5439
2416.5  5.3134  93.3729
2416.6  5.71181 93.2798
2416.7  5.78971 93.8866
2416.8  5.84178 94.5216
2416.9  5.66    95.395
2417.0  5.4963  96.1885
2417.1  5.4993  96.243
2417.2  5.50636 96.282
2417.3  5.54991 96.1819
2417.4  5.5979  96.1335
2417.5  5.6869  96.548
2417.6  5.75609 96.976
2417.7  5.64722 97.5248
2417.8  5.55736 98.0555
2417.9  5.64076 98.4101
2418.0  5.70253 98.642
2418.1  5.56787 97.7619
2418.2  5.45921 96.9547
2418.3  5.58136 96.7815
2418.4  5.69695 96.685
2418.5  5.75645 97.2745
2418.6  5.77656 97.864
2418.7  5.44297 98.4528
2418.8  5.1411  98.943
2418.9  5.13211 98.534
2419.0  5.12725 97.9293
2419.1  5.15979 95.5719
2419.2  5.18805 93.2205
2419.3  5.17854 90.8651
2419.4  5.1665  88.6447
2419.5  5.1315  87.5817
2419.6  5.08553 86.7542
2419.7  4.94121 88.0431
2419.8  4.81736 89.3299
2419.9  4.88078 90.5659
2420.0  4.96929 91.7523
2420.1  5.28217 92.4652
2420.2  5.52956 93.1537
2420.3  5.19515 93.6403
2420.4  4.88815 94.11
2420.5  4.81965 94.4395
2420.6  4.78423 94.7691
2420.7  5.04591 95.0992
2420.8  5.2818  95.4159
2420.9  5.2798  95.6041
2421.0  5.24816 95.8052
2421.1  4.9498  96.1176
2421.2  4.70978 96.41
2421.3  4.98762 96.5296
2421.4  5.25275 96.6626
2421.5  5.41025 96.9186
2421.6  5.56211 97.1507
2421.7  5.66299 97.1677
2421.8  5.76281 97.1609
2421.9  5.8507  96.9401
2422.0  5.9319  96.7039
2422.1  5.95093 96.333
2422.2  5.94687 95.9611
2422.3  5.73562 95.5716
2422.4  5.5747  95.2051
2422.5  5.8617  95.0361
2422.6  6.09126 94.8828
2422.7  5.80462 94.8708
2422.8  5.56838 94.8852
2422.9  5.7916  95.1364
2423.0  5.98184 95.396
2423.1  5.8702  95.7264
2423.2  5.76765 96.056
2423.3  5.74412 96.3864
2423.4  5.725   96.7
2423.5  5.745   96.8695
2423.6  5.75509 97.0078
2423.7  5.67619 96.8665
2423.8  5.63203 96.7014
2423.9  5.9017  96.3264
2424.0  6.12262 95.9485
2424.1  5.89885 95.5541
2424.2  5.71021 95.1849
2424.3  5.83236 95.0337
2424.4  5.9243  94.913
2424.5  5.7473  95.063
2424.6  5.59085 95.2324
2424.7  5.61932 95.5755
2424.8  5.65446 95.9331
2424.9  5.74885 96.413
2425.0  5.81893 96.8951
2425.1  5.66825 97.3862
2425.2  5.50692 97.8637
2425.3  5.2461  98.2306
2425.4  5.03495 98.5726
2425.5  5.26445 98.6992
2425.6  5.52772 98.8107
2425.7  6.09353 98.7877
2425.8  6.56901 98.7524
2425.9  6.21993 98.6066
2426.0  5.88067 98.4444
2426.1  5.63737 98.1385
2426.2  5.45414 97.8335
2426.3  5.80557 97.5281
2426.4  6.07705 97.1898
2426.5  5.63755 96.5483
2426.6  5.24085 95.8807
2426.7  5.22936 94.9798
2426.8  5.21705 94.0577
2426.9  5.19757 92.967
2427.0  5.1782  91.9162
2427.1  5.16018 91.2484
2427.2  5.15626 90.8428
2427.3  5.27891 92.7806
2427.4  5.4068  94.615
2427.5  5.5848  95.5655
2427.6  5.73208 96.4458
2427.7  5.60324 96.6935
2427.8  5.46833 96.935
2427.9  5.28205 97.1148
2428.0  5.10514 97.2543
2428.1  5.01653 97.0275
2428.2  4.94921 96.8546
2428.3  5.07136 97.161
2428.4  5.1697  97.5181
2428.5  5.0567  98.3391
2428.6  4.94979 99.1281
2428.7  4.89786 99.6275
2428.8  4.86246 100.019
2428.9  4.97682 99.4291
2429.0  5.06964 98.8233
2429.1  4.96601 98.0864
2429.2  4.86874 97.4024
2429.3  4.82619 97.1761
2429.4  4.8162  96.9902
2429.5  5.0982  97.1622
2429.6  5.34584 97.3074
2429.7  5.28442 97.2121
2429.8  5.20938 97.0745
2429.9  5.01362 96.5612
2430.0  4.83965 95.9696
2430.1  4.86619 94.6855
2430.2  4.88414 93.3457
2430.3  4.82557 91.4724
2430.4  4.79985 89.6168
2430.5  5.06835 87.8743
2430.6  5.27616 86.0722
2430.7  4.93857 83.7395
2430.8  4.64001 81.1805
2430.9  4.69993 76.6471
2431.0  4.74239 71.6689
2431.1  4.62624 62.7875
2431.2  4.51039 54.4411
2431.3  4.39424 50.6926
2431.4  4.2905  47.1839
2431.5  4.2955  45.7429
2431.6  4.32133 44.3539
2431.7  4.53407 43.435
2431.8  4.69817 42.5655
2431.9  4.42051 42.1615
2432.0  4.17491 41.7608
2432.1  4.22397 41.3989
2432.2  4.25383 41.0299
2432.3  4.11216 40.5894
2432.4  3.9877  40.089
2432.5  4.0147  39.0384
2432.6  4.02683 38.0304
2432.7  3.90548 37.4062
2432.8  3.80972 36.7885
2432.9  3.94655 36.2452
2433.0  4.06284 35.7796
2433.1  3.99125 36.0254
2433.2  3.929   36.2837
2433.3  3.94903 36.6612
2433.4  3.96495 36.9024
2433.5  3.94445 35.9258
2433.6  3.91384 35.0911
2433.7  3.79248 35.5305
2433.8  3.679   35.9057
2433.9  3.63904 35.6929
2434.0  3.61572 35.4234
2434.1  3.74287 34.6475
2434.2  3.8992  34.0009
2434.3  4.32122 34.4995
2434.4  4.67185 35.0577
2434.5  4.39035 36.1652
2434.6  4.14891 37.2082
2434.7  4.26777 37.6691
2434.8  4.34471 38.0561
2434.9  4.04258 37.7674
2435.0  3.8089  37.4446
2435.1  4.19787 36.8203
2435.2  4.51211 36.1915
2435.3  4.16318 35.5061
2435.4  3.8469  34.8044
2435.5  3.8159  33.9389
2435.6  3.79165 33.0379
2435.7  3.82811 31.8199
2435.8  3.82731 30.5699
2435.9  3.49122 29.0628
2436.0  3.19115 27.5957
2436.1  3.22269 26.5229
2436.2  3.23628 25.5279
2436.3  3.0891  25.207
2436.4  2.99585 24.9302
2436.5  3.38435 25.0422
2436.6  3.70787 25.134
2436.7  3.44719 25.0441
2436.8  3.22552 24.946
2436.9  3.36035 24.7762
2437.0  3.48601 24.5864
2437.1  3.52605 24.2199
2437.2  3.57321 23.9547
2437.3  3.68535 24.5915
2437.4  3.77775 25.3155
2437.5  3.69525 26.8411
2437.6  3.65219 28.3579
2437.7  3.96331 29.7931
2437.8  4.23984 31.2264
2437.9  4.1984  32.6072
2438.0  4.17882 34.0329
2438.1  4.35704 35.8316
2438.2  4.52166 37.6755
2438.3  4.56821 39.9703
2438.4  4.63565 42.3654
2438.5  4.89215 45.7199
2438.6  5.13466 49.1228
2438.7  5.25102 52.9511
2438.8  5.33532 56.9361
2438.9  5.12908 62.2347
2439.0  4.95692 67.3735
2439.1  5.09609 70.9584
2439.2  5.2247  74.6979
2439.3  5.26175 79.9167
2439.4  5.27995 84.8455
2439.5  5.12945 87.2905
2439.6  4.99785 89.6088
2439.7  5.03631 90.7839
2439.8  5.13413 91.8717
2439.9  5.76386 92.1484
2440.0  6.29801 92.3451
2440.1  5.95809 91.8159
2440.2  5.6504  91.3001
2440.3  5.62436 90.8906
2440.4  5.649   90.4948
2440.5  6.129   90.2122
2440.6  6.54108 89.9608
2440.7  6.34232 89.9888
2440.8  6.13041 90.054
2440.9  5.80531 90.453
2441.0  5.47916 90.8834
2441.1  5.15076 91.5878
2441.2  4.84429 92.2851
2441.3  4.72714 92.9364
2441.4  4.62275 93.5551
