# Выгружено из ПО "Атлас - Подсчет запасов"
############################################
~VERSION INFORMATION
#MNEM.UNIT                                    DATA : TYPE DESCRIPTION
VERS.                                         1.20 : CWLS LOG ASCII STANDARD_VERSION 1.20
WRAP.                                           NO : One line per depth step
############################################
~WELL INFORMATION
#MNEM.UNIT                                    DATA : TYPE DESCRIPTION
STRT.M                                      1000.0 : Start depth
STOP.M                                      2793.9 : Stop depth
STEP.M                                         0.1 : Step
NULL.                                      -999.25 : Null Value
WELL.                                            9 : 9
X.                                        12549674 : X-coordinate of Well Head
Y.                                         8024531 : Y-coordinate of Well Head
RKB.                                          34.8 : RKB
############################################
~CURVE INFORMATION
#MNEM.UNIT                                    DATA : TYPE DESCRIPTION
DEPT.M                                             : DEPT
ГК.у.е.                                            : 
ПС.мВ                                              : 
############################################
~ASCII
# ...
2642.7  5.60423 99.6451
2642.8  5.59963 99.4192
2642.9  5.39637 98.9328
2643.0  5.21831 98.4577
2643.1  5.27137 98.0948
2643.2  5.30969 97.7593
2643.3  5.21658 97.6622
2643.4  5.12955 97.5884
2643.5  5.09505 97.7229
2643.6  5.07021 97.8884
2643.7  5.13213 98.3308
2643.8  5.18299 98.7867
2643.9  5.13305 99.3525
2644.0  5.09471 99.9055
2644.1  5.16179 100.331
2644.2  5.25834 100.721
2644.3  5.62179 100.799
2644.4  5.96645 100.792
2644.5  6.15095 100.026
2644.6  6.29552 99.269
2644.7  6.08129 98.6003
2644.8  5.91679 98.0091
2644.9  6.20393 98.1294
2645.0  6.43041 98.2964
2645.1  6.10451 98.8806
2645.2  5.82161 99.4472
2645.3  5.91773 99.8692
2645.4  5.9759  100.29
2645.5  5.6949  100.713
2645.6  5.45231 101.106
2645.7  5.55519 101.226
2645.8  5.62818 101.361
2645.9  5.43042 101.629
2646.0  5.29095 101.85
2646.1  5.68042 101.654
2646.2  6.01553 101.435
2646.3  5.87086 101.001
2646.4  5.7546  100.551
2646.5  5.8906  99.9454
2646.6  6.02491 99.3168
2646.7  6.14377 98.4868
2646.8  6.24955 97.6679
2646.9  6.23507 96.9688
2647.0  6.20087 96.2615
2647.1  5.98962 95.496
2647.2  5.77512 94.7786
2647.3  5.52632 94.4742
2647.4  5.32025 94.23
2647.5  5.49275 94.52
2647.6  5.63198 94.8335
2647.7  5.47218 95.3568
2647.8  5.33696 95.8978
2647.9  5.42635 96.5839
2648.0  5.50895 97.2635
2648.1  5.52848 97.8682
2648.2  5.53128 98.4295
2648.3  5.3841  98.6142
2648.4  5.2667  98.7596
2648.5  5.4137  98.5556
2648.6  5.54179 98.3441
2648.7  5.49985 98.0654
2648.8  5.48938 97.8011
2648.9  5.76255 97.6722
2649.0  6.00169 97.5924
2649.1  5.9286  97.9569
2649.2  5.83366 98.3186
2649.3  5.54031 98.6651
2649.4  5.307   98.995
2649.5  5.607   99.1855
2649.6  5.86634 99.3375
2649.7  5.75997 99.1433
2649.8  5.65764 98.9419
2649.9  5.59422 98.6812
2650.0  5.54511 98.4463
2650.1  5.62621 98.4488
2650.2  5.67021 98.4625
2650.3  5.38236 98.5771
2650.4  5.14945 98.692
2650.5  5.40395 98.8125
2650.6  5.65668 98.9319
2650.7  5.89289 99.0402
2650.8  6.07596 99.1574
2650.9  5.77633 99.3512
2651.0  5.52482 99.5454
2651.1  5.71305 99.7397
2651.2  5.85026 99.8936
2651.3  5.53287 99.6893
2651.4  5.24635 99.4936
2651.5  5.22985 99.3696
2651.6  5.19292 99.2532
2651.7  4.97269 99.2053
2651.8  4.74496 99.1342
2651.9  4.45532 98.8571
2652.0  4.18048 98.5621
2652.1  4.04532 98.113
2652.2  3.93601 97.6893
2652.3  4.05616 97.4826
2652.4  4.2066  97.2683
2652.5  4.6326  96.9818
2652.6  4.99678 96.6795
2652.7  4.80501 96.2355
2652.8  4.66544 95.8074
2652.9  4.99903 95.5322
2653.0  5.32248 95.3021
2653.1  5.54725 95.4833
2653.2  5.71826 95.6851
2653.3  5.41089 96.0761
2653.4  5.1138  96.4615
2653.5  4.9018  96.8065
2653.6  4.69338 97.1595
2653.7  4.51759 97.5835
2653.8  4.37177 98.0004
2653.9  4.49911 98.344
2654.0  4.64514 98.674
2654.1  4.95652 98.8743
2654.2  5.28846 99.0623
2654.3  5.8131  99.1454
2654.4  6.27455 99.2553
2654.5  6.18005 99.6088
2654.6  6.08404 99.9538
2654.7  5.97467 100.222
2654.8  5.86894 100.458
2654.9  5.79853 100.411
2655.0  5.73725 100.359
2655.1  5.75978 100.259
2655.2  5.77249 100.108
2655.3  5.6974  99.4928
2655.4  5.62245 98.8752
2655.5  5.54695 98.2167
2655.6  5.47324 97.6095
2655.7  5.41581 97.4652
2655.8  5.3624  97.3434
2655.9  5.34642 97.4273
2656.0  5.3304  97.5548
2656.1  5.31438 98.0724
2656.2  5.29625 98.5875
2656.3  5.2587  99.0926
2656.4  5.23385 99.5652
2656.5  5.32235 99.7578
2656.6  5.41076 99.9343
2656.7  5.49815 99.9667
2656.8  5.57885 99.9526
2656.9  5.59733 99.5196
2657.0  5.61891 99.0767
2657.1  5.66797 98.5541
2657.2  5.68301 98.0469
2657.3  5.39316 97.6659
2657.4  5.13145 97.3113
2657.5  5.11595 97.1843
2657.6  5.10621 97.0653
2657.7  5.14815 97.0183
2657.8  5.18335 97.0055
2657.9  5.15688 97.2996
2658.0  5.14782 97.602
2658.1  5.296   97.9719
2658.2  5.45423 98.3269
2658.3  5.70654 98.5557
2658.4  5.9404  98.7658
2658.5  6.0144  98.8138
2658.6  6.09151 98.8666
2658.7  6.19638 98.9619
2658.8  6.29986 99.0499
2658.9  6.38825 99.0694
2659.0  6.44307 99.0754
2659.1  6.19377 98.9592
2659.2  5.98477 98.8422
2659.3  6.13245 98.7146
2659.4  6.25455 98.6111
2659.5  6.15005 98.7221
2659.6  6.07312 98.8088
2659.7  6.24391 98.6775
2659.8  6.36141 98.5545
2659.9  5.99635 98.5096
2660.0  5.68047 98.4485
2660.1  5.81513 98.2432
2660.2  5.91487 98.0545
2660.3  5.70362 98.0094
2660.4  5.514   97.9725
2660.5  5.514   98.007
2660.6  5.52621 98.0334
2660.7  5.64807 97.988
2660.8  5.73107 97.9425
2660.9  5.4624  97.8981
2661.0  5.22436 97.8216
2661.1  5.26791 97.4571
2661.2  5.33293 97.1
2661.3  5.59225 96.7996
2661.4  5.8527  96.5112
2661.5  6.1297  96.3232
2661.6  6.38856 96.1415
2661.7  6.48395 96.0172
2661.8  6.55733 95.9245
2661.9  6.43099 96.1187
2662.0  6.31965 96.2975
2662.1  6.34619 96.332
2662.2  6.37426 96.3561
2662.3  6.41681 96.287
2662.4  6.46555 96.2229
2662.5  6.57105 96.2024
2662.6  6.65198 96.1875
2662.7  6.51215 96.2225
2662.8  6.40292 96.2575
2662.9  6.57171 96.2925
2663.0  6.71439 96.3355
2663.1  6.61827 96.4507
2663.2  6.49506 96.5495
2663.3  6.1256  96.5044
2663.4  5.78    96.4524
2663.5  5.64    96.337
2663.6  5.53858 96.2357
2663.7  5.78378 96.2627
2663.8  5.99619 96.284
2663.9  5.9083  96.2535
2664.0  5.81679 96.2361
2664.1  5.69464 96.3372
2664.2  5.56748 96.4315
2664.3  5.39226 96.4665
2664.4  5.27915 96.5137
2664.5  5.72065 96.6712
2664.6  6.14173 96.8476
2664.7  6.37844 97.1927
2664.8  6.55861 97.5358
2664.9  6.22552 97.8529
2665.0  5.9282  98.1504
2665.1  5.96024 98.2645
2665.2  5.94475 98.4115
2665.3  5.50221 98.856
2665.4  5.12945 99.2652
2665.5  5.37395 99.3672
2665.6  5.57893 99.4701
2665.7  5.42862 99.581
2665.8  5.29866 99.6927
2665.9  5.35509 99.809
2666.0  5.38913 99.9134
2666.1  5.22042 99.9074
2666.2  5.07295 99.9015
2666.3  5.1125  99.8959
2666.4  5.18515 99.9023
2666.5  5.55665 100.015
2666.6  5.87268 100.112
2666.7  5.6899  100.066
2666.8  5.53316 100.036
2666.9  5.61456 100.15
2667.0  5.65166 100.263
2667.1  5.28821 100.376
2667.2  4.99204 100.472
2667.3  5.2924  100.426
2667.4  5.513   100.372
2667.5  5.023   100.247
2667.6  4.58455 100.137
2667.7  4.61002 100.17
2667.8  4.60086 100.195
2667.9  4.28025 100.149
2668.0  3.99    100.119
2668.1  3.97999 100.234
2668.2  4.0138  100.34
2668.3  4.44182 100.376
2668.4  4.81435 100.426
2668.5  4.69785 100.621
2668.6  4.62434 100.816
2668.7  4.93696 101.01
2668.8  5.20824 101.185
2668.9  5.10087 101.183
2669.0  5.00475 101.189
2669.1  5.01226 101.262
2669.2  5.03762 101.331
2669.3  5.22385 101.366
2669.4  5.41025 101.402
2669.5  5.60275 101.437
2669.6  5.78121 101.469
2669.7  5.83314 101.469
2669.8  5.85237 101.46
2669.9  5.5767  101.373
2670.0  5.29952 101.258
2670.1  5.01467 100.897
2670.2  4.72721 100.577
2670.3  4.40932 100.613
2670.4  4.15785 100.626
2670.5  4.49635 100.421
2670.6  4.83109 100.225
2670.7  5.13122 100.102
2670.8  5.43089 100.011
2670.9  5.71903 100.206
2671.0  5.9822  100.4
2671.1  6.01424 100.595
2671.2  6.02172 100.79
2671.3  5.80896 100.985
2671.4  5.60985 101.164
2671.5  5.52835 101.2
2671.6  5.45615 101.236
2671.7  5.46764 101.271
2671.8  5.45472 101.307
2671.9  5.22251 101.343
2672.0  5.01996 101.379
2672.1  5.08954 101.414
2672.2  5.16131 101.447
2672.3  5.25442 101.462
2672.4  5.344   101.465
2672.5  5.404   101.36
2672.6  5.47727 101.261
2672.7  5.66954 101.206
2672.8  5.85061 101.154
2672.9  5.92652 101.119
2673.0  5.97903 101.076
2673.1  5.81934 100.951
2673.2  5.713   100.827
2673.3  6.08295 100.711
2673.4  6.40545 100.587
2673.5  6.30995 100.384
2673.6  6.20142 100.181
2673.7  5.9762  99.9818
2673.8  5.75588 99.7759
2673.9  5.58509 99.5157
2674.0  5.41573 99.2241
2674.1  5.26305 98.6554
2674.2  5.10768 98.0942
2674.3  4.92445 97.5861
2674.4  4.74585 97.0919
2674.5  4.60435 96.7114
2674.6  4.46318 96.3459
2674.7  4.32535 96.1152
2674.8  4.20596 95.883
2674.9  4.2554  95.6433
2675.0  4.28338 95.4371
2675.1  4.11718 95.5382
2675.2  3.97145 95.6473
2675.3  4.006   95.8305
2675.4  4.0459  96.0246
2675.5  4.1349  96.3201
2675.6  4.19648 96.5974
2675.7  4.0117  96.7113
2675.8  3.85982 96.8333
2675.9  4.00764 97.0255
2676.0  4.15952 97.2102
2676.1  4.34475 97.3223
