# Выгружено из ПО "Атлас - Подсчет запасов"
############################################
~VERSION INFORMATION
#MNEM.UNIT                                    DATA : TYPE DESCRIPTION
VERS.                                         1.20 : CWLS LOG ASCII STANDARD_VERSION 1.20
WRAP.                                           NO : One line per depth step
############################################
~WELL INFORMATION
#MNEM.UNIT                                    DATA : TYPE DESCRIPTION
STRT.M                                      1000.0 : Start depth
STOP.M                                      2793.9 : Stop depth
STEP.M                                         0.1 : Step
NULL.                                      -999.25 : Null Value
WELL.                                            9 : 9
X.                                        12549674 : X-coordinate of Well Head
Y.                                         8024531 : Y-coordinate of Well Head
RKB.                                          34.8 : RKB
############################################
~CURVE INFORMATION
#MNEM.UNIT                                    DATA : TYPE DESCRIPTION
DEPT.M                                             : DEPT
ГК.у.е.                                            : 
ПС.мВ                                              : 
############################################
~ASCII
# ...
1603.5  5.39624 74.1017
1603.6  5.38517 75.9273
1603.7  5.6565  78.7066
1603.8  5.89389 81.4617
1603.9  5.82289 83.9652
1604.0  5.761   86.4142
1604.1  5.781   88.3737
1604.2  5.8028  90.0378
1604.3  5.84083 89.0462
1604.4  5.86409 87.9347
1604.5  5.75509 85.7347
1604.6  5.65545 83.784
1604.7  5.63996 84.0733
1604.8  5.64412 84.5883
1604.9  5.82512 87.1283
1605.0  5.98795 -999.25
1605.1  5.98745 -999.25
1605.2  5.98435 -999.25
1605.3  5.95783 -999.25
1605.4  5.91117 -999.25
1605.5  5.68317 -999.25
1605.6  5.46779 95.6963
1605.7  5.36586 95.6188
1605.8  5.29883 95.6027
1605.9  5.54683 96.1387
1606.0  5.75363 96.6695
1606.1  5.59013 97.1535
1606.2  5.43785 97.6148
1606.3  5.38632 97.873
1606.4  5.32523 98.0922
1606.5  5.17773 97.9642
1606.6  5.06491 97.7499
1606.7  5.26379 96.76
1606.8  5.45181 95.6383
1606.9  5.53981 93.3438
1607.0  5.60558 90.6134
1607.1  5.47158 83.9654
1607.2  5.33864 77.4027
1607.3  5.21507 71.5997
1607.4  5.1043  66.1307
1607.5  5.1073  63.6012
1607.6  5.10109 61.2071
1607.7  5.01215 60.0299
1607.8  4.92564 58.9075
1607.9  4.86214 58.2935
1608.0  4.79894 57.7176
1608.1  4.73844 57.4836
1608.2  4.68605 57.2952
1608.3  4.70656 57.5173
1608.4  4.7239  57.7751
1608.5  4.7129  58.3551
1608.6  4.71791 58.9573
1608.7  4.86682 59.7599
1608.8  5.01286 60.5787
1608.9  5.13136 61.5347
1609.0  5.22964 62.4865
1609.1  5.14614 63.4
1609.2  5.0731  64.2104
1609.3  5.09411 64.0949
1609.4  5.10794 63.918
1609.5  5.05744 63.1885
1609.6  5.012   62.5285
1609.7  5.012   62.4941
1609.8  5.01631 62.6354
1609.9  5.05931 64.3574
1610.0  5.10566 66.0862
1610.1  5.18216 67.8762
1610.2  5.2445  69.6776
1610.3  5.17946 71.5832
1610.4  5.13462 73.4637
1610.5  5.27062 75.1382
1610.6  5.38975 76.7118
1610.7  5.35727 77.3789
1610.8  5.32254 77.9823
1610.9  5.26804 78.0053
1611.0  5.22381 78.0989
1611.1  5.27181 78.8269
1611.2  5.30619 79.5172
1611.3  5.21814 79.8689
1611.4  5.1386  80.0821
1611.5  5.1346  79.0546
1611.6  5.14341 78.2296
1611.7  5.26733 79.224
1611.8  5.39387 80.3447
1611.9  5.54237 82.5887
1612.0  5.66474 84.7033
1612.1  5.55224 85.6548
1612.2  5.4429  86.4515
1612.3  5.36185 85.8561
1612.4  5.26662 85.4467
1612.5  5.04312 86.7022
1612.6  4.80318 88.0317
1612.7  4.41541 90.026
1612.8  4.03967 91.96
1612.9  3.77667 93.328
1613.0  3.52163 94.6461
1613.1  3.33813 95.5161
1613.2  3.1806  96.2932
1613.3  3.25665 96.2346
1613.4  3.36545 96.0528
1613.5  3.76945 94.7628
1613.6  4.12504 93.4231
1613.7  4.04559 91.6362
1613.8  3.98176 89.6003
1613.9  4.05926 85.3488
1614.0  4.13275 81.2428
1614.1  4.17025 78.4438
1614.2  4.20765 75.6385
1614.3  4.24417 72.7732
1614.4  4.29137 70.016
1614.5  4.43487 68.1985
1614.6  4.58621 66.4222
1614.7  4.80808 65.0161
1614.8  4.99704 63.6709
1614.9  4.88754 62.8909
1615.0  4.80096 62.2015
1615.1  4.92046 62.3265
1615.2  5.0326  62.565
1615.3  5.07863 63.8247
1615.4  5.12756 65.1302
1615.5  5.20306 66.8597
1615.6  5.27105 68.6144
1615.7  5.27155 70.5957
1615.8  5.2692  72.2252
1615.9  5.2412  70.6692
1616.0  5.22821 68.8834
1616.1  5.35021 65.0319
1616.2  5.43764 61.3496
1616.3  5.214   59.1858
1616.4  5.03923 57.1355
1616.5  5.30123 56.0815
1616.6  5.51153 55.1191
1616.7  5.25719 54.9807
1616.8  5.01809 54.8381
1616.9  4.91909 54.6591
1617.0  4.84186 54.4573
1617.1  4.96036 54.0508
1617.2  5.07015 53.6514
1617.3  5.10167 53.3157
1617.4  5.12985 53.089
1617.5  5.12835 53.838
1617.6  5.12935 54.6766
1617.7  5.15284 56.32
1617.8  5.16324 58.0021
1617.9  5.05574 60.0111
1618.0  4.96045 61.9979
1618.1  4.97495 63.7849
1618.2  5.00536 65.5572
1618.3  5.17897 67.1987
1618.4  5.31518 68.8454
1618.5  5.11718 70.5574
1618.6  4.96392 72.0599
1618.7  5.21276 71.6797
1618.8  5.42353 71.2598
1618.9  5.28903 70.4883
1619.0  5.17511 69.7373
1619.1  5.24611 69.1713
1619.2  5.28634 68.6536
1619.3  5.04969 68.5695
1619.4  4.85007 68.6524
1619.5  4.98057 70.2344
1619.6  5.10605 71.8907
1619.7  5.18651 74.2153
1619.8  5.23607 76.5372
1619.9  5.00707 78.8067
1620.0  4.78173 81.1413
1620.1  4.58923 84.0608
1620.2  4.39003 86.9206
1620.3  4.13038 89.2465
1620.4  3.88163 91.5022
1620.5  3.72813 93.1516
1620.6  3.61061 94.5667
1620.7  3.81649 93.8741
1620.8  4.02998 92.9261
1620.9  4.30948 89.6911
1621.0  4.59069 86.3308
1621.1  4.88719 81.8448
1621.2  5.16681 77.346
1621.3  5.29489 72.7256
1621.4  5.40114 68.288
1621.5  5.31264 65.4415
1621.6  5.2352  62.6856
1621.7  5.25719 60.7443
1621.8  5.26223 58.9461
1621.9  5.11473 58.4576
1622.0  4.98415 58.0392
1622.1  5.00565 58.2507
1622.2  5.02385 58.5141
1622.3  5.01234 59.245
1622.4  4.98723 59.876
1622.5  4.83973 59.6165
1622.6  4.69804 59.3181
1622.7  4.6086  58.6695
1622.8  4.55293 58.0362
1622.9  4.80193 57.5487
1623.0  5.00718 57.1901
1623.1  4.81918 57.9901
1623.2  4.65605 58.987
1623.3  4.71659 61.7572
1623.4  4.76845 64.6383
1623.5  4.74295 68.5463
1623.6  4.74386 72.3716
1623.7  4.98222 75.4543
1623.8  5.22153 78.4608
1623.9  5.46653 80.7458
1624.0  5.688   83.009
1624.1  5.698   85.076
1624.2  5.69359 87.1184
1624.3  5.55951 88.9425
1624.4  5.44946 90.7404
1624.5  5.55396 92.3224
1624.6  5.67927 93.8533
1624.7  5.99158 94.9246
1624.8  6.24937 95.9589
1624.9  6.01337 96.6474
1625.0  5.80811 97.2904
1625.1  5.87911 97.5244
1625.2  5.92624 97.7126
1625.3  5.75864 97.4884
1625.4  5.61075 97.2588
1625.5  5.63825 96.9773
1625.6  5.6559  96.7146
1625.7  5.58494 96.6207
1625.8  5.53091 96.5608
1625.9  5.62991 96.8088
1626.0  5.72466 97.1009
1626.1  5.78116 97.7894
1626.2  5.8381  98.458
1626.3  5.89914 98.9478
1626.4  5.94764 99.4221
1626.5  5.88414 99.7631
1626.6  5.84041 100.084
1626.7  5.97433 100.227
1626.8  6.07137 100.336
1626.9  5.83537 100.135
1627.0  5.62665 99.9198
1627.1  5.66315 99.5678
1627.2  5.69115 99.2185
1627.3  5.64262 98.8933
1627.4  5.61076 98.5781
1627.5  5.72826 98.3496
1627.6  5.86492 98.1203
1627.7  6.17373 97.8834
1627.8  6.43743 97.6678
1627.9  6.29193 97.6458
1628.0  6.15509 97.6174
1628.1  6.09609 97.5319
1628.2  6.0389  97.4696
1628.3  5.99787 97.6157
1628.4  5.94538 97.7458
1628.5  5.78938 97.7332
1628.6  5.66056 97.7438
1628.7  5.77599 97.9611
1628.8  5.8838  98.1711
1628.9  5.9218  98.3121
1629.0  5.94053 98.4453
1629.1  5.78603 98.5083
1629.2  5.64145 98.5733
1629.3  5.58591 98.6564
1629.4  5.53209 98.7297
1629.5  5.4931  98.7167
1629.6  5.44439 98.6878
1629.7  5.30847 98.5164
1629.8  5.17353 98.3448
1629.9  5.04903 98.1733
1630.0  4.97339 98.0098
1630.1  5.33689 97.9178
1630.2  5.63553 97.8497
1630.3  5.35086 97.9962
1630.4  5.09485 98.1187
1630.5  5.09335 98.0262
1630.6  5.08855 97.8997
1630.7  5.05407 97.4675
1630.8  5.0214  96.9755
1630.9  5.0054  95.952
1631.0  5.00897 94.8085
1631.1  5.18847 92.586
1631.2  5.36216 90.687
1631.3  5.48373 91.6971
1631.4  5.56907 92.7133
1631.5  5.33007 93.7948
1631.6  5.12736 94.8605
1631.7  5.25078 95.7839
1631.8  5.35594 96.6847
1631.9  5.29544 97.3707
1632.0  5.24936 98.0403
1632.1  5.33286 98.5623
1632.2  5.38944 99.0693
1632.3  5.20383 99.4426
1632.4  5.081   99.7767
1632.5  5.5205  99.7637
1632.6  5.88313 99.7506
1632.7  5.55483 99.7366
1632.8  5.25414 99.7159
1632.9  5.20564 99.6349
1633.0  5.14643 99.5516
1633.1  4.99093 99.4481
1633.2  4.85505 99.3378
1633.3  4.89558 99.1657
1633.4  4.9354  99.0176
1633.5  4.9694  99.0831
1633.6  5.0037  99.1327
1633.7  5.04068 99.0403
1633.8  5.06083 98.9764
1633.9  4.92933 99.1704
1634.0  4.82412 99.3627
1634.1  4.95512 99.5392
1634.2  5.066   99.7126
1634.3  4.99595 99.8581
1634.4  4.93846 99.9877
1634.5  4.99296 99.9747
1634.6  5.02744 99.9537
1634.7  4.88203 99.8607
1634.8  4.77718 99.7649
1634.9  5.03868 99.6439
1635.0  5.26309 99.5206
1635.1  5.15409 99.3771
1635.2  5.0628  99.2467
1635.3  5.13085 99.2331
1635.4  5.16987 99.2451
1635.5  4.94887 99.4856
1635.6  4.76601 99.7229
1635.7  4.92591 99.9318
1635.8  5.05528 100.135
1635.9  4.90828 100.288
1636.0  4.78181 100.439
1636.1  4.83981 100.576
1636.2  4.88324 100.699
1636.3  4.79569 100.685
1636.4  4.72156 100.655
1636.5  4.76706 100.481
1636.6  4.80645 100.293
1636.7  4.79096 99.9759
1636.8  4.80023 99.6265
1636.9  5.03223 98.9925
