# Выгружено из ПО "Атлас - Подсчет запасов"
############################################
~VERSION INFORMATION
#MNEM.UNIT                                    DATA : TYPE DESCRIPTION
VERS.                                         1.20 : CWLS LOG ASCII STANDARD_VERSION 1.20
WRAP.                                           NO : One line per depth step
############################################
~WELL INFORMATION
#MNEM.UNIT                                    DATA : TYPE DESCRIPTION
STRT.M                                      1000.0 : Start depth
STOP.M                                      2793.9 : Stop depth
STEP.M                                         0.1 : Step
NULL.                                      -999.25 : Null Value
WELL.                                            9 : 9
X.                                        12549674 : X-coordinate of Well Head
Y.                                         8024531 : Y-coordinate of Well Head
RKB.                                          34.8 : RKB
############################################
~CURVE INFORMATION
#MNEM.UNIT                                    DATA : TYPE DESCRIPTION
DEPT.M                                             : DEPT
ГК.у.е.                                            : 
ПС.мВ                                              : 
############################################
~ASCII
# ...
1838.0  5.94935 95.9698
1838.1  5.93285 96.2178
1838.2  5.88928 96.4769
1838.3  5.60211 96.8356
1838.4  5.36513 97.1747
1838.5  5.57613 97.3412
1838.6  5.75124 97.519
1838.7  5.60383 97.7988
1838.8  5.49883 98.0655
1838.9  5.77683 98.21
1839.0  6.01879 98.3385
1839.1  5.93679 98.324
1839.2  5.85615 98.3095
1839.3  5.7876  98.295
1839.4  5.72565 98.2583
1839.5  5.72215 98.0213
1839.6  5.73281 97.7753
1839.7  5.87072 97.4485
1839.8  5.98283 97.1346
1839.9  5.86133 96.9411
1840.0  5.75791 96.7425
1840.1  5.81691 96.498
1840.2  5.8712  96.2899
1840.3  5.88321 96.4084
1840.4  5.87353 96.5337
1840.5  5.66902 96.7202
1840.6  5.4836  96.8874
1840.7  5.46961 96.8814
1840.8  5.46576 96.853
1840.9  5.55326 96.6235
1841.0  5.62779 96.4229
1841.1  5.58579 96.4814
1841.2  5.55585 96.5753
1841.3  5.6344  96.9886
1841.4  5.72608 97.4162
1841.5  5.93658 97.9772
1841.6  6.14366 98.5098
1841.7  6.32005 98.7877
1841.8  6.47905 99.0374
1841.9  6.47955 99.0314
1842.0  6.47615 98.9936
1842.1  6.43765 98.6701
1842.2  6.38974 98.3465
1842.3  6.25716 98.0218
1842.4  6.13505 97.6977
1842.5  6.10555 97.3747
1842.6  6.07415 97.0834
1842.7  6.02568 97.0774
1842.8  6.00603 97.0782
1842.9  6.24603 97.1402
1843.0  6.44057 97.2188
1843.1  6.22657 97.4463
1843.2  6.04941 97.6839
1843.3  6.2035  98.0126
1843.4  6.37013 98.3365
1843.5  6.65113 98.6215
1843.6  6.87288 98.8705
1843.7  6.56207 98.7955
1843.8  6.28686 98.6585
1843.9  6.33536 97.9645
1844.0  6.35662 97.2742
1844.1  6.13312 96.6172
1844.2  5.93805 96.0248
1844.3  5.99859 96.0133
1844.4  6.03673 96.0337
1844.5  5.87423 96.3407
1844.6  5.75392 96.6423
1844.7  6.01276 96.8952
1844.8  6.2456  97.1353
1844.9  6.2416  97.2583
1845.0  6.21627 97.3665
1845.1  5.99927 97.3415
1845.2  5.7959  97.2945
1845.3  5.71485 97.0493
1845.4  5.64545 96.7965
1845.5  5.67995 96.472
1845.6  5.71805 96.1474
1845.7  5.78851 95.8221
1845.8  5.85826 95.5122
1845.9  5.92076 95.3447
1846.0  5.98786 95.1928
1846.1  6.09636 95.1814
1846.2  6.17799 95.1859
1846.3  6.01789 95.3344
1846.4  5.89172 95.4829
1846.5  6.06872 95.6314
1846.6  6.2264  95.7719
1846.7  6.21041 95.8403
1846.8  6.18484 95.9089
1846.9  6.07334 95.9779
1847.0  5.98186 96.023
1847.1  6.07036 95.853
1847.2  6.14455 95.6752
1847.3  6.09001 95.427
1847.4  6.04746 95.1515
1847.5  6.11196 94.6275
1847.6  6.15779 94.1076
1847.7  6.03587 93.6244
1847.8  5.90648 93.1271
1847.9  5.71148 92.5086
1848.0  5.51112 91.9474
1848.1  5.26262 91.9014
1848.2  5.06397 91.9764
1848.3  5.31362 93.1401
1848.4  5.5384  94.2205
1848.5  5.5424  94.565
1848.6  5.56851 94.8273
1848.7  5.79338 94.3511
1848.8  5.96857 93.9359
1848.9  5.69457 94.0744
1849.0  5.44825 94.2452
1849.1  5.45075 94.7062
1849.2  5.45425 95.1464
1849.3  5.46676 95.4
1849.4  5.50273 95.4955
1849.5  5.74973 94.1725
1849.6  5.94949 92.7842
1849.7  5.72462 90.8084
1849.8  5.52676 89.0475
1849.9  5.57426 89.2425
1850.0  5.60113 89.6157
1850.1  5.44263 91.5902
1850.2  5.30015 93.4787
1850.3  5.30165 94.5953
1850.4  5.33554 95.6041
1850.5  5.66054 95.6551
1850.6  5.96075 95.6786
1850.7  6.03821 95.4553
1850.8  6.08022 95.2526
1850.9  5.80272 95.2391
1851.0  5.55595 95.2427
1851.1  5.58545 95.3997
1851.2  5.58874 95.5713
1851.3  5.35609 95.8745
1851.4  5.17293 96.1844
1851.5  5.43193 96.5579
1851.6  5.65695 96.9168
1851.7  5.57649 97.1441
1851.8  5.52513 97.3397
1851.9  5.73613 97.2467
1852.0  5.92124 97.1696
1852.1  5.87374 97.2351
1852.2  5.80573 97.2767
1852.3  5.55308 97.1041
1852.4  5.33691 96.9317
1852.5  5.44591 96.7587
1852.6  5.53244 96.5767
1852.7  5.41701 96.3138
1852.8  5.32331 96.0607
1852.9  5.42631 95.8982
1853.0  5.52366 95.7426
1853.1  5.57016 95.6486
1853.2  5.61045 95.5626
1853.3  5.59494 95.5486
1853.4  5.60848 95.5505
1853.5  5.88298 95.6955
1853.6  6.09718 95.8405
1853.7  5.76938 95.9849
1853.8  5.48391 96.1306
1853.9  5.58291 96.2861
1854.0  5.66389 96.4404
1854.1  5.58289 96.5844
1854.2  5.5115  96.7354
1854.3  5.52651 96.949
1854.4  5.53685 97.1475
1854.5  5.50535 97.2125
1854.6  5.49571 97.2696
1854.7  5.6826  97.2551
1854.8  5.83118 97.2405
1854.9  5.63318 97.226
1855.0  5.46746 97.2116
1855.1  5.59197 97.1976
1855.2  5.70265 97.1756
1855.3  5.68914 97.0821
1855.4  5.66464 96.9887
1855.5  5.54113 96.8957
1855.6  5.44726 96.8263
1855.7  5.61966 96.9692
1855.8  5.75392 97.1193
1855.9  5.54342 97.3323
1856.0  5.3537  97.5381
1856.1  5.3507  97.6786
1856.2  5.3452  97.8245
1856.3  5.31718 98.0196
1856.4  5.30907 98.1995
1856.5  5.47957 98.2445
1856.6  5.63615 98.284
1856.7  5.66763 98.2746
1856.8  5.68268 98.2638
1856.9  5.54968 98.2418
1857.0  5.43861 98.2145
1857.1  5.52461 98.1395
1857.2  5.59209 98.0631
1857.3  5.49303 97.9746
1857.4  5.40795 97.8939
1857.5  5.44745 97.8834
1857.6  5.50776 97.8733
1857.7  5.75511 97.8658
1857.8  5.95057 97.8581
1857.9  5.67657 97.8491
1858.0  5.45743 97.8331
1858.1  5.73143 97.7546
1858.2  5.95569 97.69
1858.3  5.73255 97.7506
1858.4  5.53225 97.8041
1858.5  5.53475 97.7951
1858.6  5.5363  97.794
1858.7  5.5293  97.864
1858.8  5.51454 97.9314
1858.9  5.43004 97.9754
1859.0  5.36872 98.0168
1859.1  5.51572 98.0348
1859.2  5.61168 98.0421
1859.3  5.24846 97.9536
1859.4  4.91579 97.861
1859.5  4.85379 97.731
1859.6  4.7916  97.6013
1859.7  4.72763 97.4749
1859.8  4.6704  97.3374
1859.9  4.6744  97.1019
1860.0  4.68531 96.864
1860.1  4.75831 96.6045
1860.2  4.81529 96.3596
1860.3  4.72824 96.2461
1860.4  4.6504  96.1374
1860.5  4.6544  96.0719
1860.6  4.67606 96.0279
1860.7  4.85645 96.1763
1860.8  5.02611 96.3249
1860.9  5.09711 96.4739
1861.0  5.14583 96.607
1861.1  4.99433 96.597
1861.2  4.8583  96.6021
1861.3  4.8613  96.7432
1861.4  4.86255 96.8837
1861.5  4.84805 97.0202
1861.6  4.84095 97.1439
1861.7  4.90042 97.1529
1861.8  4.95235 97.16
1861.9  4.93585 97.15
1862.0  4.91619 97.14
1862.1  4.86819 97.13
1862.2  4.84866 97.1121
1862.3  5.08531 97.023
1862.4  5.27818 96.9583
1862.5  5.08018 97.1113
1862.6  4.90955 97.2749
1862.7  4.98501 97.5338
1862.8  5.07302 97.7941
1862.9  5.27302 98.0646
1863.0  5.42166 98.307
1863.1  5.10866 98.297
1863.2  4.8306  98.2671
1863.3  4.86662 98.0585
1863.4  4.90636 97.8247
1863.5  4.97986 97.3627
1863.6  5.02184 96.9317
1863.7  4.78048 96.7788
1863.8  4.54693 96.6484
1863.9  4.38643 96.7224
1864.0  4.26953 96.8264
1864.1  4.54453 97.2004
1864.2  4.77979 97.5364
1864.3  4.65772 97.5298
1864.4  4.56913 97.5229
1864.5  4.78013 97.5114
1864.6  4.96375 97.4681
1864.7  4.90128 97.1398
1864.8  4.84385 96.8321
1864.9  4.83235 96.7131
1865.0  4.81795 96.6279
1865.1  4.77745 96.8469
1865.2  4.73395 97.078
1865.3  4.6634  97.4177
1865.4  4.61502 97.7377
1865.5  4.76502 97.8842
1865.6  4.89555 97.9966
1865.7  4.85107 97.8027
1865.8  4.82046 97.5939
1865.9  4.91496 97.2529
1866.0  5.01161 96.9326
1866.1  5.12761 96.7991
1866.2  5.25081 96.6619
1866.3  5.43893 96.4908
1866.4  5.58177 96.3358
1866.5  5.31977 96.3243
1866.6  5.0864  96.3128
1866.7  5.11039 96.3008
1866.8  5.1303  96.2888
1866.9  5.1133  96.2774
1867.0  5.0959  96.2737
1867.1  5.0749  96.3407
1867.2  5.06586 96.4181
1867.3  5.16442 96.5887
1867.4  5.24204 96.7621
1867.5  5.13254 96.9631
1867.6  5.07042 97.1587
1867.7  5.4342  97.3051
1867.8  5.73992 97.4516
1867.9  5.51942 97.5976
1868.0  5.30568 97.7357
1868.1  5.15268 97.8027
1868.2  5.00679 97.8539
1868.3  4.92474 97.7634
1868.4  4.85015 97.6808
1868.5  4.84165 97.6693
1868.6  4.85766 97.6411
1868.7  5.09402 97.4622
1868.8  5.31075 97.2687
1868.9  5.34825 96.9457
1869.0  5.36328 96.5989
1869.1  5.17628 96.0384
1869.2  5.00415 95.415
1869.3  4.96562 94.2247
1869.4  4.95979 92.9813
1869.5  5.24729 91.2468
1869.6  5.49659 89.4353
1869.7  5.40265 86.9313
1869.8  5.3156  84.3986
1869.9  5.2916  81.6376
1870.0  5.26775 78.9419
1870.1  5.24525 76.8334
1870.2  5.19368 74.8988
1870.3  4.88049 74.5266
1870.4  4.62013 74.2699
1870.5  4.83113 75.0484
1870.6  5.02355 75.9043
1870.7  5.04904 77.4559
1870.8  5.08216 78.9809
1870.9  5.18366 80.2479
1871.0  5.26614 81.5114
1871.1  5.17764 82.7439
1871.2  5.12432 83.9634
1871.3  5.38748 85.067
1871.4  5.64102 86.1502
1871.5  5.81102 87.0612
