# Выгружено из ПО "Атлас - Подсчет запасов"
############################################
~VERSION INFORMATION
#MNEM.UNIT                                    DATA : TYPE DESCRIPTION
VERS.                                         1.20 : CWLS LOG ASCII STANDARD_VERSION 1.20
WRAP.                                           NO : One line per depth step
############################################
~WELL INFORMATION
#MNEM.UNIT                                    DATA : TYPE DESCRIPTION
STRT.M                                      1000.0 : Start depth
STOP.M                                      2793.9 : Stop depth
STEP.M                                         0.1 : Step
NULL.                                      -999.25 : Null Value
WELL.                                            9 : 9
X.                                        12549674 : X-coordinate of Well Head
Y.                                         8024531 : Y-coordinate of Well Head
RKB.                                          34.8 : RKB
############################################
~CURVE INFORMATION
#MNEM.UNIT                                    DATA : TYPE DESCRIPTION
DEPT.M                                             : DEPT
ГК.у.е.                                            : 
ПС.мВ                                              : 
############################################
~ASCII
# ...
1938.6  5.72184 96.2991
1938.7  5.59042 96.2996
1938.8  5.46284 96.2919
1938.9  5.37134 96.2109
1939.0  5.28039 96.1299
1939.1  5.19439 96.0489
1939.2  5.12601 96.0203
1939.3  5.21606 96.4636
1939.4  5.31868 96.9021
1939.5  5.53518 97.3031
1939.6  5.74986 97.6853
1939.7  5.94824 97.8982
1939.8  6.13481 98.0819
1939.9  6.21281 98.0009
1940.0  6.26067 97.8859
1940.1  6.03767 97.466
1940.2  5.83895 97.0329
1940.3  5.85846 96.4821
1940.4  5.86128 95.971
1940.5  5.71428 95.811
1940.6  5.59416 95.686
1940.7  5.71558 95.8753
1940.8  5.80072 96.0938
1940.9  5.55822 96.5713
1941.0  5.30786 97.0418
1941.1  4.98686 97.4493
1941.2  4.68949 97.8392
1941.3  4.60444 98.0714
1941.4  4.55844 98.2977
1941.5  4.86244 98.4742
1941.6  5.12164 98.64
1941.7  4.97823 98.7094
1941.8  4.83794 98.7709
1941.9  4.72744 98.7599
1942.0  4.62985 98.7269
1942.1  4.64835 98.4959
1942.2  4.66325 98.28
1942.3  4.64574 98.1999
1942.4  4.62499 98.1198
1942.5  4.57499 98.0383
1942.6  4.54371 97.9732
1942.7  4.68062 98.0546
1942.8  4.81271 98.1192
1942.9  4.89971 98.0312
1943.0  4.96158 97.9365
1943.1  4.79758 97.782
1943.2  4.6551  97.6429
1943.3  4.70613 97.6424
1943.4  4.74034 97.6587
1943.5  4.62384 97.8252
1943.6  4.5172  97.9917
1943.7  4.49921 98.1581
1943.8  4.48335 98.3636
1943.9  4.48685 98.9191
1944.0  4.4887  99.4271
1944.1  4.4757  99.5076
1944.2  4.4676  99.5962
1944.3  4.50362 99.7583
1944.4  4.54561 99.8725
1944.5  4.64161 99.5575
1944.6  4.73535 99.2257
1944.7  4.80881 98.743
1944.8  4.87044 98.2613
1944.9  4.82494 97.7953
1945.0  4.79521 97.3412
1945.1  4.90721 96.9932
1945.2  4.98539 96.6882
1945.3  4.75925 96.7697
1945.4  4.55375 96.8568
1945.5  4.53125 96.9948
1945.6  4.5186  97.1431
1945.7  4.59456 97.384
1945.8  4.65129 97.6359
1945.9  4.53429 97.9849
1946.0  4.43621 98.3445
1946.1  4.50821 98.799
1946.2  4.60497 99.2353
1946.3  4.92466 99.5079
1946.4  5.17666 99.7853
1946.5  4.82366 100.108
1946.6  4.51461 100.399
1946.7  4.60055 100.406
1946.8  4.66198 100.397
1946.9  4.50198 100.243
1947.0  4.36861 100.09
1947.1  4.47461 99.9361
1947.2  4.61108 99.7842
1947.3  5.02183 99.6467
1947.4  5.36607 99.4924
1947.5  5.11707 99.1869
1947.6  4.91947 98.8677
1947.7  5.1838  98.4255
1947.8  5.38656 97.9942
1947.9  5.03256 97.6662
1948.0  4.73898 97.3441
1948.1  4.98848 97.0751
1948.2  5.18553 96.8264
1948.3  4.91087 96.7609
1948.4  4.68508 96.7036
1948.5  4.89558 96.7191
1948.6  5.07314 96.7506
1948.7  4.95472 96.9265
1948.8  4.8515  97.094
1948.9  4.8865  97.1835
1949.0  4.93637 97.2742
1949.1  5.11987 97.3757
1949.2  5.27434 97.4766
1949.3  5.16778 97.5727
1949.4  5.10114 97.6605
1949.5  5.39214 97.6755
1949.6  5.66711 97.669
1949.7  5.79803 97.4691
1949.8  5.89352 97.249
1949.9  5.66902 96.849
1950.0  5.44818 96.4931
1950.1  5.26018 96.5341
1950.2  5.13588 96.5453
1950.3  5.58465 96.2881
1950.4  5.99291 96.0178
1950.5  6.04191 95.6263
1950.6  6.06689 95.2489
1950.7  5.876   94.998
1950.8  5.68252 94.7401
1950.9  5.46802 94.4211
1951.0  5.25683 94.1074
1951.1  5.07533 93.8414
1951.2  4.89359 93.6036
1951.3  4.70948 93.6196
1951.4  4.52232 93.6275
1951.5  4.30582 93.563
1951.6  4.08979 93.4669
1951.7  3.87792 93.0861
1951.8  3.66222 92.704
1951.9  3.41472 92.3145
1952.0  3.16812 91.9882
1952.1  2.92962 92.2302
1952.2  2.69119 92.4747
1952.3  2.45304 92.7419
1952.4  2.23394 92.9337
1952.5  2.18344 92.4517
1952.6  2.20239 91.9544
1952.7  2.8455  91.3187
1952.8  3.49333 90.7051
1952.9  4.17583 90.2961
1953.0  4.82955 89.9424
1953.1  5.22455 90.0864
1953.2  5.5861  90.2527
1953.3  5.64714 90.6194
1953.4  5.71937 91.0512
1953.5  5.89287 92.0717
1953.6  6.04009 92.996
1953.7  5.95115 93.056
1953.8  5.85924 93.0692
1953.9  5.74174 92.6611
1954.0  5.63595 92.2285
1954.1  5.63545 91.5745
1954.2  5.65111 90.9142
1954.3  5.81221 90.1957
1954.4  5.95795 89.5127
1954.5  5.96745 89.1402
1954.6  5.96779 88.8228
1954.7  5.88584 89.0007
1954.8  5.8145  89.2022
1954.9  5.8395  89.6137
1955.0  5.85895 90.0331
1955.1  5.82845 90.5231
1955.2  5.79169 91.0372
1955.3  5.69864 91.7691
1955.4  5.60228 92.4753
1955.5  5.47528 92.9578
1955.6  5.35269 93.4107
1955.7  5.26975 93.597
1955.8  5.18259 93.7516
1955.9  5.05859 93.6181
1956.0  4.92562 93.4979
1956.1  4.71212 93.4969
1956.2  4.48808 93.4517
1956.3  4.16889 93.009
1956.4  3.86403 92.5521
1956.5  3.68453 91.9641
1956.6  3.50554 91.4131
1956.7  3.33115 91.1948
1956.8  3.13796 91.0106
1956.9  2.77796 91.1361
1957.0  2.41285 91.2216
1957.1  2.00185 90.9476
1957.2  1.59658 90.557
1957.3  1.24236 89.1166
1957.4  0.898419 87.6388
1957.5  0.642919 85.8093
1957.6  0.408297 84.0226
1957.7  0.361326 82.6199
1957.8  0.322154 81.2398
1957.9  0.353654 80.0788
1958.0  0.386355 79.0085
1958.1  0.429855 78.754
1958.2  0.475254 78.534
1958.3  0.537792 78.6241
1958.4  0.605214 78.7577
1958.5  0.717214 79.2837
1958.6  0.836561 79.8163
1958.7  1.02195 80.409
1958.8  1.22965 81.0797
1958.9  1.63565 82.4447
1959.0  2.08585 83.7988
1959.1  2.93335 85.0547
1959.2  3.75699 86.3243
1959.3  4.36686 87.7171
1959.4  4.94604 89.1003
1959.5  5.25604 90.4113
1959.6  5.55791 91.7385
1959.7  5.78677 93.2116
1959.8  5.98038 94.6355
1959.9  5.85438 95.599
1960.0  5.72238 96.5056
1960.1  5.53638 96.9006
1960.2  5.39792 97.2175
1960.3  5.68709 96.8328
1960.4  5.93759 96.3748
1960.5  5.84359 95.2538
1960.6  5.7525  94.0878
1960.7  5.68754 92.5178
1960.8  5.61699 91.0037
1960.9  5.49699 90.0122
1961.0  5.36387 89.0383
1961.1  5.11287 88.2223
1961.2  4.91192 87.4759
1961.3  5.16107 87.3554
1961.4  5.36182 87.2723
1961.5  5.13032 87.5248
1961.6  4.89774 87.7933
1961.7  4.65538 88.2055
1961.8  4.40932 88.6349
1961.9  4.13282 89.2129
1962.0  3.86378 89.789
1962.1  3.66178 90.348
1962.2  3.50131 90.9081
1962.3  3.71444 91.4789
1962.4  3.95601 92.0331
1962.5  4.45551 92.443
1962.6  4.94683 92.8165
1962.7  5.36457 92.8615
1962.8  5.7792  92.9223
1962.9  6.1607  93.1253
1963.0  6.48498 93.2994
1963.1  6.29498 93.2139
1963.2  6.11745 93.1102
1963.3  6.05191 92.842
1963.4  5.97463 92.5994
1963.5  5.79113 92.5839
1963.6  5.64786 92.6076
1963.7  5.86623 92.9834
1963.8  6.05259 93.3864
1963.9  5.94859 94.0299
1964.0  -999.25 94.6822
1964.1  -999.25 95.4132
1964.2  -999.25 96.0743
1964.3  -999.25 96.1073
1964.4  -999.25 96.1239
1964.5  -999.25 95.9934
1964.6  -999.25 95.9026
1964.7  -999.25 96.1684
1964.8  -999.25 96.4801
1964.9  -999.25 97.2001
1965.0  -999.25 97.9271
1965.1  -999.25 98.7171
1965.2  4.89038 99.4843
1965.3  4.52415 100.048
1965.4  4.20411 100.547
1965.5  4.29511 100.472
1965.6  4.36289 100.36
1965.7  4.22198 99.9059
1965.8  4.08624 99.4796
1965.9  3.99874 99.3056
1966.0  3.94193 99.1702
1966.1  4.16093 99.3822
1966.2  4.3667  99.5809
1966.3  4.45376 99.6594
1966.4  4.52244 99.7779
1966.5  4.42694 100.256
1966.6  4.36912 100.719
1966.7  4.64995 101.038
1966.8  4.91316 101.331
1966.9  5.01466 101.386
1967.0  5.09158 101.436
1967.1  4.94758 101.44
1967.2  4.83251 101.429
1967.3  4.9776  101.264
1967.4  5.1083  101.062
1967.5  5.1113  100.516
1967.6  5.13806 99.9626
1967.7  5.37842 99.3389
1967.8  5.63009 98.7209
1967.9  5.98059 98.1604
1968.0  6.27988 97.6091
1968.1  6.11888 97.1406
1968.2  5.9816  96.6774
1968.3  6.05765 96.2611
1968.4  6.14232 95.8668
1968.5  6.30532 95.6648
1968.6  6.42713 95.4851
1968.7  6.17879 95.5055
1968.8  5.97993 95.6131
1968.9  6.22893 96.5031
1969.0  6.43573 97.4074
1969.1  6.26323 98.4404
1969.2  6.11385 99.387
1969.3  6.17239 99.5566
1969.4  6.21098 99.6941
1969.5  6.07098 99.5451
1969.6  5.92654 99.4061
1969.7  5.74215 99.3571
1969.8  5.61134 99.32
1969.9  5.96434 99.39
1970.0  6.24631 99.4541
1970.1  5.88981 99.4651
1970.2  5.57    99.4841
1970.3  5.58001 99.5746
1970.4  5.58745 99.6491
1970.5  5.57195 99.5801
1970.6  5.54539 99.4775
1970.7  5.41947 99.0733
1970.8  5.3047  98.6153
1970.9  5.2917  97.6798
1971.0  5.30453 96.7216
1971.1  5.54953 95.5586
1971.2  5.75654 94.4559
1971.3  5.62196 93.8945
1971.4  5.52448 93.3993
1971.5  5.75898 93.4918
1971.6  5.99041 93.5905
1971.7  6.19429 93.7449
1971.8  6.35282 93.9016
1971.9  6.10132 94.0771
1972.0  5.86534 94.1644
