# Выгружено из ПО "Атлас - Подсчет запасов"
############################################
~VERSION INFORMATION
#MNEM.UNIT                                    DATA : TYPE DESCRIPTION
VERS.                                         1.20 : CWLS LOG ASCII STANDARD_VERSION 1.20
WRAP.                                           NO : One line per depth step
############################################
~WELL INFORMATION
#MNEM.UNIT                                    DATA : TYPE DESCRIPTION
STRT.M                                      1000.0 : Start depth
STOP.M                                      2793.9 : Stop depth
STEP.M                                         0.1 : Step
NULL.                                      -999.25 : Null Value
WELL.                                            9 : 9
X.                                        12549674 : X-coordinate of Well Head
Y.                                         8024531 : Y-coordinate of Well Head
RKB.                                          34.8 : RKB
############################################
~CURVE INFORMATION
#MNEM.UNIT                                    DATA : TYPE DESCRIPTION
DEPT.M                                             : DEPT
ГК.у.е.                                            : 
ПС.мВ                                              : 
############################################
~ASCII
# ...
2542.1  5.94436 98.9012
2542.2  6.02697 99.1151
2542.3  5.75664 99.2858
2542.4  5.48935 99.4267
2542.5  5.24285 99.3037
2542.6  5.03572 99.1496
2542.7  5.18254 98.7161
2542.8  5.30779 98.2799
2542.9  5.23588 97.8305
2543.0  5.16654 97.4286
2543.1  5.12199 97.4647
2543.2  5.09331 97.5067
2543.3  5.20645 97.6038
2543.4  5.32185 97.7043
2543.5  5.46035 97.8373
2543.6  5.57964 97.9817
2543.7  5.52621 98.2284
2543.8  5.47129 98.4653
2543.9  5.40437 98.6076
2544.0  5.3475  98.7146
2544.1  5.38255 98.5009
2544.2  5.39458 98.2936
2544.3  5.20034 98.1394
2544.4  5.02715 97.981
2544.5  5.03865 97.781
2544.6  5.06096 97.5691
2544.7  5.18032 97.2505
2544.8  5.2886  96.9391
2544.9  5.29459 96.7004
2545.0  5.28593 96.4686
2545.1  5.14526 96.3049
2545.2  5.0228  96.1618
2545.3  5.06085 96.1993
2545.4  5.11385 96.2448
2545.5  5.30235 96.3623
2545.6  5.45568 96.4688
2545.7  5.29288 96.4762
2545.8  5.16202 96.4739
2545.9  5.32182 96.383
2546.0  5.46775 96.2942
2546.1  5.48527 96.2261
2546.2  5.51662 96.1427
2546.3  5.67281 95.9194
2546.4  5.80355 95.6492
2546.5  5.70905 94.9512
2546.6  5.60388 94.2659
2546.7  5.40312 93.6966
2546.8  5.23426 93.1513
2546.9  5.35662 92.8352
2547.0  5.44327 92.555
2547.1  5.20598 92.6045
2547.2  4.99445 92.6688
2547.3  5.00897 92.8671
2547.4  5.02895 93.1143
2547.5  5.09845 93.8078
2547.6  5.14683 94.507
2547.7  5.00551 95.2556
2547.8  4.88581 95.9802
2547.9  4.96371 96.4706
2548.0  5.02914 96.9086
2548.1  4.98058 96.8645
2548.2  4.937   96.8124
2548.3  4.937   96.6862
2548.4  4.95615 96.5215
2548.5  5.14765 96.007
2548.6  5.33327 95.469
2548.7  5.4656  94.7209
2548.8  5.57539 93.9704
2548.9  5.47951 93.2163
2549.0  5.3901  92.4698
2549.1  5.36106 91.808
2549.2  5.3318  91.1824
2549.3  5.29976 90.866
2549.4  5.2909  90.5696
2549.5  5.4899  90.4456
2549.6  5.65548 90.3592
2549.7  5.52065 90.6104
2549.8  5.4001  90.88
2549.9  5.41109 91.309
2550.0  5.40718 91.731
2550.1  5.26901 92.0809
2550.2  5.15957 92.4017
2550.3  5.30525 92.4688
2550.4  5.4199  92.5045
2550.5  5.2589  92.26
2550.6  5.11025 92.008
2550.7  5.07279 91.6884
2550.8  5.02108 91.3877
2550.9  4.8423  91.2648
2551.0  4.68205 91.1655
2551.1  4.69256 91.2807
2551.2  4.69014 91.4035
2551.3  4.57149 91.5982
2551.4  4.45585 91.8049
2551.5  4.36435 92.1239
2551.6  4.27875 92.4455
2551.7  4.24629 92.7901
2551.8  4.24654 93.1422
2551.9  4.54118 93.5532
2552.0  4.83999 93.9512
2552.1  5.16989 94.223
2552.2  5.45349 94.4779
2552.3  5.32833 94.5865
2552.4  5.21095 94.6642
2552.5  5.16045 94.4668
2552.6  5.11815 94.2847
2552.7  5.14962 94.2418
2552.8  5.16639 94.2216
2552.9  5.05053 94.4068
2553.0  4.95616 94.6028
2553.1  5.05779 94.8912
2553.2  5.14479 95.1857
2553.3  5.10274 95.5426
2553.4  5.05295 95.888
2553.5  4.93245 96.138
2553.6  4.81459 96.3934
2553.7  4.7207  96.6971
2553.8  4.65052 96.9828
2553.9  4.79534 97.1001
2554.0  4.93206 97.2257
2554.1  4.99263 97.423
2554.2  5.06913 97.5721
2554.3  5.2904  97.2927
2554.4  5.4719  97.0537
2554.5  5.3009  97.1707
2554.6  5.12993 97.2639
2554.7  4.95964 97.143
2554.8  4.80094 97.0378
2554.9  4.75051 97.0758
2555.0  4.71421 97.1297
2555.1  4.80632 97.327
2555.2  4.89751 97.5317
2555.3  4.98261 97.8091
2555.4  5.0666  98.0778
2555.5  5.1426  98.2758
2555.6  5.22056 98.4657
2555.7  5.31595 98.5826
2555.8  5.40961 98.6917
2555.9  5.48552 98.7287
2556.0  5.56336 98.7589
2556.1  5.65698 98.7279
2556.2  5.72093 98.7019
2556.3  5.52018 98.7204
2556.4  5.33845 98.7404
2556.5  5.32295 98.7744
2556.6  5.29428 98.8083
2556.7  5.14746 98.8413
2556.8  5.03352 98.8744
2556.9  5.2183  98.9078
2557.0  5.36868 98.9414
2557.1  5.20548 98.9754
2557.2  5.04323 99.0094
2557.3  4.88554 99.0434
2557.4  4.7283  99.0774
2557.5  4.5713  99.1114
2557.6  4.46875 99.1454
2557.7  4.85527 99.1788
2557.8  5.2066  99.2147
2557.9  5.23257 99.2711
2558.0  5.2536  99.3277
2558.1  5.22957 99.3842
2558.2  5.20269 99.4407
2558.3  5.14963 99.4978
2558.4  5.09255 99.5546
2558.5  4.99805 99.6106
2558.6  4.90389 99.6588
2558.7  4.813   99.6363
2558.8  4.74146 99.6137
2558.9  4.84584 99.5913
2559.0  4.95602 99.5767
2559.1  5.11622 99.6338
2559.2  5.23507 99.6747
2559.3  4.98577 99.5721
2559.4  4.7729  99.4719
2559.5  4.8819  99.3904
2559.6  4.96884 99.2914
2559.7  4.85747 99.0357
2559.8  4.75775 98.7744
2559.9  4.76524 98.4693
2560.0  4.78191 98.1683
2560.1  4.88103 97.911
2560.2  4.95593 97.6384
2560.3  4.81526 97.2224
2560.4  4.68565 96.8232
2560.5  4.65215 96.5658
2560.6  4.62721 96.3281
2560.7  4.67914 96.2692
2560.8  4.71444 96.2096
2560.9  4.59908 96.1462
2561.0  4.48269 96.0947
2561.1  4.35953 96.1518
2561.2  4.26677 96.2135
2561.3  4.44449 96.3181
2561.4  4.63045 96.4128
2561.5  4.89495 96.4208
2561.6  5.12199 96.4098
2561.7  5.01212 96.228
2561.8  4.94564 96.0458
2561.9  5.27124 95.8645
2562.0  5.55349 95.6728
2562.1  5.43835 95.3904
2562.2  5.32123 95.119
2562.3  5.18357 94.9388
2562.4  5.0474  94.759
2562.5  4.9214  94.5796
2562.6  4.80194 94.4067
2562.7  4.74152 94.2938
2562.8  4.71473 94.1766
2562.9  4.9914  94.0233
2563.0  5.2387  93.8819
2563.1  5.21567 93.8503
2563.2  5.21352 93.8286
2563.3  5.39875 93.8947
2563.4  5.5503  93.9681
2563.5  5.4033  94.1091
2563.6  5.27365 94.2652
2563.7  5.30012 94.5563
2563.8  5.3259  94.8483
2563.9  5.34488 95.1404
2564.0  5.33707 95.4101
2564.1  5.08777 95.4712
2564.2  4.90165 95.5318
2564.3  5.27811 95.5893
2564.4  5.5931  95.6546
2564.5  5.3641  95.7912
2564.6  5.1575  95.9038
2564.7  5.15251 95.8025
2564.8  5.1058  95.7008
2564.9  4.68481 95.5995
2565.0  4.27441 95.4819
2565.1  3.96854 95.2211
2565.2  3.6919  94.9768
2565.3  3.67087 94.8747
2565.4  3.6525  94.7887
2565.5  3.6575  94.8463
2565.6  3.67942 94.9072
2565.7  3.85321 94.9986
2565.8  4.05005 95.0993
2565.9  4.44956 95.2821
2566.0  4.84424 95.4368
2566.1  5.18666 95.3347
2566.2  5.47953 95.2328
2566.3  5.33486 95.1312
2566.4  5.20405 95.0378
2566.5  5.19455 95.0163
2566.6  5.17659 95.0037
2566.7  5.0827  95.0706
2566.8  4.97727 95.1766
2566.9  4.77053 95.631
2567.0  4.6212  96.1015
2567.1  4.99315 96.7068
2567.2  5.3656  97.2718
2567.3  5.75157 97.4901
2567.4  6.06935 97.6711
2567.5  5.78285 97.5221
2567.6  5.5282  97.3618
2567.7  5.56016 97.1006
2567.8  5.56727 96.8438
2567.9  5.35054 96.6326
2568.0  5.1577  96.4259
2568.1  5.18474 96.2652
2568.2  5.21456 96.1243
2568.3  5.27012 96.1568
2568.4  5.30505 96.2046
2568.5  5.15555 96.3906
2568.6  5.00333 96.5838
2568.7  4.82704 96.8415
2568.8  4.66915 97.0941
2568.9  4.68064 97.2943
2569.0  4.7296  97.5005
2569.1  5.11557 97.7553
2569.2  5.43837 98.0016
2569.3  5.20208 98.1773
2569.4  4.99855 98.3406
2569.5  5.08405 98.3966
2569.6  5.14017 98.4526
2569.7  4.93243 98.5085
2569.8  4.75036 98.5619
2569.9  4.80379 98.5909
2570.0  4.84419 98.5991
2570.1  4.7661  98.4199
2570.2  4.6982  98.2411
2570.3  4.72023 98.0619
2570.4  4.75665 97.8829
2570.5  4.92315 97.7025
2570.6  5.09503 97.5317
2570.7  5.31476 97.4493
2570.8  5.54479 97.3887
2570.9  5.8619  97.5256
2571.0  6.12818 97.6716
2571.1  5.92993 97.8974
2571.2  5.76547 98.1366
2571.3  5.90013 98.5025
2571.4  6.0003  98.8367
2571.5  5.7933  98.8937
2571.6  5.58632 98.9508
2571.7  5.38008 99.0087
2571.8  5.19841 99.0352
2571.9  5.24235 98.7775
2572.0  5.27654 98.5113
2572.1  5.22198 98.1744
2572.2  5.17495 97.8544
2572.3  5.19448 97.6782
2572.4  5.2034  97.5243
2572.5  5.1174  97.5673
2572.6  5.07364 97.633
2572.7  5.40923 97.9022
2572.8  5.7502  98.1739
2572.9  6.13123 98.462
2573.0  6.46689 98.7626
2573.1  6.38579 99.1691
2573.2  6.29167 99.5556
2573.3  6.07841 99.7713
2573.4  5.86685 99.9786
2573.5  5.66535 100.115
2573.6  5.48165 100.23
2573.7  5.45818 100.161
2573.8  5.45497 100.084
2573.9  5.63425 99.9491
2574.0  5.81442 99.8088
2574.1  5.99865 99.6266
2574.2  6.18017 99.4506
2574.3  6.34187 99.327
2574.4  6.4995  99.1601
2574.5  6.6245  98.6011
2574.6  6.6947  98.0801
2574.7  6.27271 97.9018
2574.8  5.86627 97.7384
2574.9  5.60958 97.7124
2575.0  5.35032 97.6881
2575.1  5.07348 97.6791
2575.2  4.79246 97.6672
2575.3  4.46706 97.6297
2575.4  4.1421  97.6017
2575.5  3.8131  97.6581
