# Выгружено из ПО "Атлас - Подсчет запасов"
############################################
~VERSION INFORMATION
#MNEM.UNIT                                    DATA : TYPE DESCRIPTION
VERS.                                         1.20 : CWLS LOG ASCII STANDARD_VERSION 1.20
WRAP.                                           NO : One line per depth step
############################################
~WELL INFORMATION
#MNEM.UNIT                                    DATA : TYPE DESCRIPTION
STRT.M                                      1000.0 : Start depth
STOP.M                                      2793.9 : Stop depth
STEP.M                                         0.1 : Step
NULL.                                      -999.25 : Null Value
WELL.                                            9 : 9
X.                                        12549674 : X-coordinate of Well Head
Y.                                         8024531 : Y-coordinate of Well Head
RKB.                                          34.8 : RKB
############################################
~CURVE INFORMATION
#MNEM.UNIT                                    DATA : TYPE DESCRIPTION
DEPT.M                                             : DEPT
ГК.у.е.                                            : 
ПС.мВ                                              : 
############################################
~ASCII
# ...
2072.6  4.93209 58.5598
2072.7  4.8432  55.8241
2072.8  4.74808 53.1819
2072.9  4.59926 51.445
2073.0  4.44918 49.7994
2073.1  4.29099 49.0134
2073.2  4.15991 48.2749
2073.3  4.26905 47.944
2073.4  4.3472  47.5904
2073.5  4.1492  47.0244
2073.6  3.97526 46.4976
2073.7  4.0177  46.3238
2073.8  4.05425 46.1498
2073.9  4.03677 45.9785
2074.0  4.03457 45.8228
2074.1  4.17023 45.8108
2074.2  4.28744 45.8286
2074.3  4.24189 46.115
2074.4  4.1972  46.4156
2074.5  4.1592  46.8516
2074.6  4.10843 47.2943
2074.7  3.94313 47.7962
2074.8  3.80166 48.233
2074.9  3.87807 48.0732
2075.0  3.95491 47.9193
2075.1  4.03401 47.8227
2075.2  4.11466 47.7155
2075.3  4.21128 47.5102
2075.4  4.27765 47.2933
2075.5  4.07415 46.9658
2075.6  3.8894  46.6653
2075.7  3.87342 46.6089
2075.8  3.84844 46.5648
2075.9  3.74307 46.6327
2076.0  3.6442  46.7253
2076.1  3.60615 47.0387
2076.2  3.58256 47.3262
2076.3  3.68819 47.3883
2076.4  3.80505 47.4034
2076.5  4.02555 46.9968
2076.6  4.2236  46.5763
2076.7  4.2196  46.0304
2076.8  4.19993 45.5371
2076.9  4.03963 45.5287
2077.0  3.90191 45.6338
2077.1  3.97099 46.7622
2077.2  4.01678 47.9453
2077.3  3.85458 49.6484
2077.4  3.70505 51.288
2077.5  3.66555 52.398
2077.6  3.6326  53.318
2077.7  3.65857 52.53
2077.8  3.66843 51.6769
2077.9  3.5331  50.2597
2078.0  3.42847 49.0695
2078.1  3.60318 49.9546
2078.2  3.77912 50.9249
2078.3  3.97036 52.6841
2078.4  4.11555 54.5394
2078.5  3.85105 57.3034
2078.6  3.62136 59.7586
2078.7  3.70476 59.4355
2078.8  3.76063 59.1897
2078.9  3.56736 59.6456
2079.0  3.39771 60.146
2079.1  3.44476 61.0361
2079.2  3.4856  61.6481
2079.3  3.47158 59.7788
2079.4  3.4575  57.9131
2079.5  3.4425  56.0336
2079.6  3.44402 54.225
2079.7  3.59384 53.0579
2079.8  3.74132 51.9548
2079.9  3.86416 51.4539
2080.0  3.98621 50.9819
2080.1  4.09835 50.7812
2080.2  4.19189 50.6085
2080.3  4.1208  50.6831
2080.4  4.04585 50.8426
2080.5  3.93435 51.7686
2080.6  3.83931 52.8088
2080.7  3.89224 54.8712
2080.8  3.9383  57.0628
2080.9  3.92132 60.3628
2081.0  3.89979 63.735
2081.1  3.83772 67.6848
2081.2  3.79411 71.6528
2081.3  3.91526 75.881
2081.4  4.08065 80.0447
2081.5  4.64715 83.7317
2081.6  5.21322 87.2508
2081.7  5.77403 89.2538
2081.8  6.29001 91.1819
2081.9  6.38989 92.3885
2082.0  6.46548 93.5137
2082.1  6.32031 93.8812
2082.2  6.17193 94.2533
2082.3  5.99121 94.6763
2082.4  5.81355 95.1012
2082.5  5.65905 95.5537
2082.6  5.50708 95.9706
2082.7  5.37824 96.0659
2082.8  5.24693 96.1031
2082.9  5.09662 95.6157
2083.0  4.94688 95.1117
2083.1  4.80571 94.4689
2083.2  4.68541 93.8586
2083.3  4.74949 93.5241
2083.4  4.8288  93.2066
2083.5  5.0468  93.0331
2083.6  5.2459  92.8975
2083.7  5.27487 93.1023
2083.8  5.29119 93.3317
2083.9  5.19331 93.7771
2084.0  5.1041  94.2247
2084.1  5.09509 94.6818
2084.2  5.0849  95.122
2084.3  5.06387 95.4219
2084.4  5.04715 95.685
2084.5  5.06865 95.6245
2084.6  5.10492 95.5221
2084.7  5.27371 95.0447
2084.8  5.45504 94.5251
2084.9  5.74468 93.6382
2085.0  6.03043 92.7213
2085.1  6.27473 91.5538
2085.2  6.46772 90.3751
2085.3  6.2049  89.0665
2085.4  5.945   87.6965
2085.5  5.705   85.7415
2085.6  5.487   83.7534
2085.7  5.46702 81.4727
2085.8  5.43628 79.1994
2085.9  5.30944 77.0485
2086.0  5.18334 74.83
2086.1  5.06669 72.0496
2086.2  4.98007 69.3164
2086.3  5.16079 66.94
2086.4  5.3137  64.5882
2086.5  5.2207  62.3997
2086.6  5.12859 60.2623
2086.7  5.04469 58.5893
2086.8  4.96459 56.9177
2086.9  4.92065 55.2987
2087.0  4.87289 53.7345
2087.1  4.79179 52.6992
2087.2  4.72861 51.7126
2087.3  4.82473 51.1389
2087.4  4.9049  50.7108
2087.5  4.8439  51.5793
2087.6  4.80607 52.6761
2087.7  4.97636 55.8192
2087.8  5.13471 58.9972
2087.9  5.18165 62.411
2088.0  5.21369 65.8702
2088.1  5.11056 69.6623
2088.2  5.01645 73.1944
2088.3  5.00093 74.4779
2088.4  4.97765 75.5509
2088.5  4.88415 74.7605
2088.6  4.81362 74.1969
2088.7  4.94945 75.6721
2088.8  5.06574 77.2089
2088.9  5.00332 79.2629
2089.0  4.96302 81.2843
2089.1  5.12322 82.9674
2089.2  5.25674 84.595
2089.3  5.15411 85.7655
2089.4  5.07085 86.9081
2089.5  5.15935 87.8297
2089.6  5.22283 88.709
2089.7  5.06153 89.2079
2089.8  4.92381 89.5849
2089.9  5.00171 88.8552
2090.0  5.09573 88.1654
2090.1  5.33302 87.8495
2090.2  5.52327 87.4885
2090.3  5.296   86.7136
2090.4  5.0861  85.8187
2090.5  5.0271  83.8262
2090.6  4.97005 81.9599
2090.7  4.93059 81.2308
2090.8  4.8983  80.5162
2090.9  4.93126 79.9494
2091.0  4.93862 79.3821
2091.1  4.71485 78.8229
2091.2  4.53663 78.2515
2091.3  4.7629  77.5567
2091.4  4.9415  76.9718
2091.5  4.6965  77.3598
2091.6  4.46929 77.8507
2091.7  4.40237 79.2645
2091.8  4.34215 80.5973
2091.9  4.34365 81.1691
2092.0  4.31606 81.6937
2092.1  4.02671 81.7803
2092.2  3.73251 81.7994
2092.3  3.38759 81.2132
2092.4  3.04155 80.6711
2092.5  2.67705 80.5121
2092.6  2.31921 80.4683
2092.7  2.02208 81.4586
2092.8  1.72897 82.4981
2092.9  1.47927 83.9558
2093.0  1.23508 85.402
2093.1  1.04585 86.7121
2093.2  0.886012 87.9231
2093.3  0.986134 88.2746
2093.4  1.0769  88.5891
2093.5  1.0859  88.5807
2093.6  1.12279 88.622
2093.7  1.40993 89.1104
2093.8  1.73698 89.6762
2093.9  2.41515 90.9252
2094.0  3.09754 92.1668
2094.1  3.8029  93.3147
2094.2  4.46479 94.46
2094.3  4.75264 95.6104
2094.4  4.9961  96.7439
2094.5  4.8471  97.7523
2094.6  4.7161  98.691
2094.7  4.74707 99.0001
2094.8  4.75933 99.2862
2094.9  4.60302 99.3581
2095.0  4.49544 99.4222
2095.1  4.82985 99.4142
2095.2  5.1259  99.3982
2095.3  5.08485 99.3106
2095.4  5.08575 99.2313
2095.5  5.46325 99.2238
2095.6  5.78713 99.2082
2095.7  5.62882 99.1203
2095.8  5.49531 99.0402
2095.9  5.5882  99.0322
2096.0  5.64707 99.0242
2096.1  5.39777 99.0162
2096.2  5.17015 99.0081
2096.3  5.1316  98.9996
2096.4  5.14355 98.9991
2096.5  5.60905 99.0701
2096.6  5.99761 99.1601
2096.7  5.69448 99.4203
2096.8  5.39076 99.6932
2096.9  5.08913 100.075
2097.0  4.82536 100.428
2097.1  4.90896 100.522
2097.2  4.97584 100.55
2097.3  4.89424 99.9948
2097.4  4.8487  99.3987
2097.5  5.1257  98.4252
2097.6  5.37375 97.4391
2097.7  5.36126 96.343
2097.8  5.38489 95.2905
2097.9  5.73297 94.6567
2098.0  6.04665 94.0991
2098.1  6.04315 94.2403
2098.2  5.99905 94.435
2098.3  5.58955 95.1148
2098.4  5.2269  95.7797
2098.5  5.2759  96.3272
2098.6  5.30789 96.831
2098.7  5.18703 96.9409
2098.8  5.11414 96.9846
2098.9  5.4747  96.4323
2099.0  5.7994  95.8797
2099.1  5.79339 95.3365
2099.2  5.76187 94.8207
2099.3  5.50055 94.5379
2099.4  5.251   94.2752
2099.5  5.101   94.1872
2099.6  5.02147 94.1151
2099.7  5.57479 94.1855
2099.8  6.04266 94.2763
2099.9  5.73004 94.5484
2100.0  5.4857  94.8386
2100.1  5.86266 95.2841
2100.2  6.21642 95.7386
2100.3  6.37061 96.2848
2100.4  6.48135 96.8147
2100.5  6.20485 97.2117
2100.6  5.94143 97.6068
2100.7  5.79611 97.9838
2100.8  5.65689 98.3467
2100.9  5.57599 98.5729
2101.0  5.49774 98.7605
2101.1  5.44518 98.5958
2101.2  5.40236 98.4159
2101.3  5.44591 98.095
2101.4  5.4741  97.7434
2101.5  5.3651  97.1074
2101.6  5.29954 96.4851
2101.7  5.62414 95.9877
2101.8  5.88311 95.5065
2101.9  5.54502 95.1819
2102.0  5.2374  94.8951
2102.1  5.21137 94.9556
2102.2  5.20657 95.0393
2102.3  5.3923  95.3321
2102.4  5.5328  95.6054
2102.5  5.2708  95.7094
2102.6  5.05663 95.8183
2102.7  5.27236 95.9711
2102.8  5.46575 96.0764
2102.9  5.45326 95.7513
2103.0  5.40265 95.4361
2103.1  5.00917 95.2168
2103.2  4.64774 95.0008
2103.3  4.56514 94.8085
2103.4  4.5052  94.6273
2103.5  4.6472  94.5403
2103.6  4.73075 94.4818
2103.7  4.28929 94.679
2103.8  3.89541 94.876
2103.9  3.93935 95.0658
2104.0  3.93149 95.271
2104.1  3.45641 95.6115
2104.2  2.99671 95.9529
2104.3  2.6638  96.3124
2104.4  2.35045 96.6832
2104.5  2.20495 97.1652
2104.6  2.09442 97.653
2104.7  2.29818 98.1919
2104.8  2.51629 98.7331
2104.9  2.85837 99.2824
2105.0  3.20875 99.8309
2105.1  3.62626 100.36
2105.2  4.0433  100.857
2105.3  4.46632 101.079
2105.4  4.88295 101.301
2105.5  5.25245 101.522
2105.6  5.56142 101.699
2105.7  5.32621 101.475
2105.8  5.1121  101.254
2105.9  5.09312 101.062
2106.0  5.08807 100.916
