# Выгружено из ПО "Атлас - Подсчет запасов"
############################################
~VERSION INFORMATION
#MNEM.UNIT                                    DATA : TYPE DESCRIPTION
VERS.                                         1.20 : CWLS LOG ASCII STANDARD_VERSION 1.20
WRAP.                                           NO : One line per depth step
############################################
~WELL INFORMATION
#MNEM.UNIT                                    DATA : TYPE DESCRIPTION
STRT.M                                      1000.0 : Start depth
STOP.M                                      2793.9 : Stop depth
STEP.M                                         0.1 : Step
NULL.                                      -999.25 : Null Value
WELL.                                            9 : 9
X.                                        12549674 : X-coordinate of Well Head
Y.                                         8024531 : Y-coordinate of Well Head
RKB.                                          34.8 : RKB
############################################
~CURVE INFORMATION
#MNEM.UNIT                                    DATA : TYPE DESCRIPTION
DEPT.M                                             : DEPT
ГК.у.е.                                            : 
ПС.мВ                                              : 
############################################
~ASCII
# ...
2307.4  5.02065 87.4362
2307.5  4.75715 87.1082
2307.6  4.48756 86.7458
2307.7  4.16396 86.0756
2307.8  3.88421 85.3678
2307.9  4.00607 84.338
2308.0  4.10714 83.2139
2308.1  4.01853 81.2625
2308.2  3.95902 79.2728
2308.3  4.15927 76.8904
2308.4  4.33215 74.6454
2308.5  4.26365 73.5794
2308.6  4.21542 72.8468
2308.7  4.34925 75.109
2308.8  4.45894 77.0672
2308.9  4.34857 76.2412
2309.0  4.21601 75.3619
2309.1  3.88611 74.0213
2309.2  3.60492 72.8772
2309.3  3.7541  73.4689
2309.4  3.88705 74.1638
2309.5  3.87755 75.8024
2309.6  3.88822 77.2871
2309.7  4.07999 77.3874
2309.8  4.28113 77.5357
2309.9  4.56179 78.1115
2310.0  4.83933 78.797
2310.1  5.08263 80.457
2310.2  5.32808 82.1042
2310.3  5.59891 83.6767
2310.4  5.81885 85.1384
2310.5  5.58735 85.6418
2310.6  5.379   86.1037
2310.7  5.379   86.1906
2310.8  5.39327 86.2617
2310.9  5.53559 86.1888
2311.0  5.65489 86.1078
2311.1  5.56378 85.9561
2311.2  5.4823  85.8127
2311.3  5.4853  85.7396
2311.4  5.48785 85.6798
2311.5  5.48635 85.7378
2311.6  5.50918 85.8188
2311.7  5.75038 86.1059
2311.8  5.94467 86.4087
2311.9  5.71196 86.8447
2312.0  5.51126 87.2931
2312.1  5.60387 87.8437
2312.2  5.69982 88.3696
2312.3  5.82797 88.6855
2312.4  5.9265  88.9981
2312.5  5.7615  89.2886
2312.6  5.61425 89.5661
2312.7  5.62674 89.7269
2312.8  5.62879 89.8642
2312.9  5.5369  89.7868
2313.0  5.44209 89.7044
2313.1  5.32294 89.5782
2313.2  5.25169 89.3972
2313.3  5.60863 88.7194
2313.4  5.9391  88.0557
2313.5  6.0401  87.5027
2313.6  6.10537 86.8791
2313.7  5.84968 85.6237
2313.8  5.59772 84.2058
2313.9  5.38548 81.3608
2314.0  5.17378 78.706
2314.1  4.97153 77.8259
2314.2  4.76677 77.0581
2314.3  4.53449 77.2788
2314.4  4.32705 77.5229
2314.5  4.33755 77.9819
2314.6  4.36582 78.4984
2314.7  4.55359 79.5296
2314.8  4.71589 80.5683
2314.9  4.64498 81.6485
2315.0  4.61659 82.7537
2315.1  4.97253 84.0608
2315.2  5.32589 85.3593
2315.3  5.6648  86.6118
2315.4  5.94265 87.8463
2315.5  5.67915 88.9488
2315.6  5.41802 89.9882
2315.7  5.17881 90.4586
2315.8  4.96275 90.7578
2315.9  4.96025 89.5088
2316.0  4.957   88.2817
2316.1  4.94699 87.279
2316.2  4.92819 86.3946
2316.3  4.83007 86.5503
2316.4  4.75855 86.8696
2316.5  4.92405 88.665
2316.6  5.10143 90.2894
2316.7  5.38509 90.3728
2316.8  5.64055 90.4708
2316.9  5.63605 90.698
2317.0  5.60672 91.0427
2317.1  5.35391 92.4394
2317.2  5.14252 93.8098
2317.3  5.29771 94.9777
2317.4  5.47505 96.0501
2317.5  5.85555 96.2911
2317.6  6.17417 96.5083
2317.7  5.93646 96.5113
2317.8  5.72801 96.5259
2317.9  5.78793 96.6448
2318.0  5.82913 96.8103
2318.1  5.70048 97.3935
2318.2  5.57294 97.9685
2318.3  5.45229 98.4831
2318.4  5.3651  98.9818
2318.5  5.5761  99.3503
2318.6  5.74202 99.6488
2318.7  5.50281 99.3177
2318.8  5.26863 98.8963
2318.9  5.08535 97.6723
2319.0  4.90653 96.436
2319.1  4.77187 95.1164
2319.2  4.64174 93.746
2319.3  4.54913 91.8863
2319.4  4.46575 90.0149
2319.5  4.46325 87.9939
2319.6  4.45034 85.9961
2319.7  4.34397 84.2118
2319.8  4.23423 82.6145
2319.9  4.0969  82.7394
2320.0  3.95848 82.9403
2320.1  3.81331 83.8234
2320.2  3.66273 84.7162
2320.3  3.45998 85.7184
2320.4  3.26305 86.6498
2320.5  3.11355 86.9678
2320.6  2.96253 87.2527
2320.7  2.79823 87.2397
2320.8  2.66141 87.204
2320.9  2.77527 86.9648
2321.0  2.89978 86.6942
2321.1  3.11754 86.1466
2321.2  3.33503 85.5852
2321.3  3.5553  84.8868
2321.4  3.7758  84.1432
2321.5  4.0038  82.9752
2321.6  4.23488 81.8117
2321.7  4.49307 80.691
2321.8  4.75283 79.5397
2321.9  5.02051 78.1399
2322.0  5.2632  76.7474
2322.1  5.27522 75.4513
2322.2  5.26908 74.2083
2322.3  5.09987 73.4113
2322.4  4.9469  72.6573
2322.5  4.9359  72.2703
2322.6  4.91814 71.8691
2322.7  4.83974 71.3418
2322.8  4.74687 70.8806
2322.9  4.52614 71.0264
2323.0  4.33972 71.305
2323.1  4.46687 72.7753
2323.2  4.59842 74.4504
2323.3  4.77263 78.0048
2323.4  4.94415 81.3734
2323.5  5.09565 83.1574
2323.6  5.21473 84.7979
2323.7  5.04244 85.146
2323.8  4.90677 85.5073
2323.9  5.10403 85.9792
2324.0  5.26853 86.5633
2324.1  5.13387 88.1468
2324.2  5.02772 89.7094
2324.3  5.1749  91.1236
2324.4  5.3118  92.4801
2324.5  5.3598  93.3516
2324.6  5.4454  94.1858
2324.7  5.86838 94.6827
2324.8  6.25456 95.1501
2324.9  6.3     95.3409
2325.0  6.31572 95.4932
2325.1  6.06291 95.2955
2325.2  5.8362  95.0961
2325.3  5.8382  94.8774
2325.4  5.811   94.7119
2325.5  5.521   95.0209
2325.6  5.28518 95.3486
2325.7  5.53637 95.8435
2325.8  5.73982 96.3289
2325.9  5.5086  96.7169
2326.0  5.30531 97.0258
2326.1  5.35837 96.6143
2326.2  5.37982 96.1369
2326.3  5.118   95.0561
2326.4  4.9117  94.0385
2326.5  5.1987  93.5635
2326.6  5.43202 93.173
2326.7  5.18282 93.542
2326.8  4.97017 93.9555
2326.9  5.09152 94.758
2327.0  5.21967 95.411
2327.1  5.4064  94.7011
2327.2  5.577   94.0614
2327.3  5.60704 94.0354
2327.4  5.6014  94.0641
2327.5  5.2754  94.5856
2327.6  5.00883 95.1283
2327.7  5.27651 95.8594
2327.8  5.55054 96.3969
2327.9  5.87514 95.1794
2328.0  6.1303  93.9656
2328.1  5.75334 92.8117
2328.2  5.418   91.8317
2328.3  5.44804 92.3889
2328.4  5.4558  92.9381
2328.5  5.2638  93.4296
2328.6  5.07158 93.7959
2328.7  4.87781 93.0368
2328.8  4.71291 92.3407
2328.9  4.81179 92.2278
2329.0  4.91682 92.1218
2329.1  5.07501 92.0797
2329.2  5.21044 91.9771
2329.3  5.14486 91.3278
2329.4  5.0907  90.8916
2329.5  5.1377  92.3576
2329.6  5.21569 93.7349
2329.7  5.57176 94.3122
2329.8  5.8891  94.828
2329.9  5.85014 94.7781
2330.0  5.76539 94.7208
2330.1  5.26928 94.5986
2330.2  4.82921 94.4919
2330.3  4.88127 94.5209
2330.4  4.90665 94.5746
2330.5  4.69315 94.8512
2330.6  4.51191 95.1153
2330.7  4.62078 95.2676
2330.8  4.69963 95.3416
2330.9  4.50636 94.7088
2331.0  4.3307  93.9596
2331.1  4.31768 92.1754
2331.2  4.31651 90.3049
2331.3  4.42164 87.6141
2331.4  4.52265 85.0045
2331.5  4.58915 83.0595
2331.6  4.67353 81.3321
2331.7  4.91823 81.5623
2331.8  5.183   81.9551
2331.9  5.62197 83.8013
2332.0  5.96674 85.6428
2332.1  5.45411 87.401
2332.2  4.96557 89.0799
2332.3  4.68122 90.0892
2332.4  4.44705 91.0732
2332.5  4.65755 91.8547
2332.6  4.8451  92.6054
2332.7  4.82612 93.0778
2332.8  4.83003 93.5284
2332.9  5.03977 93.7721
2333.0  5.22685 93.9914
2333.1  5.20532 93.9854
2333.2  5.18945 93.985
2333.3  5.224   94.0345
2333.4  5.22755 94.0888
2333.5  4.95305 94.1862
2333.6  4.71761 94.2734
2333.7  4.83347 94.2674
2333.8  4.93184 94.2773
2333.9  4.87042 94.4301
2334.0  4.83573 94.5674
2334.1  5.04298 94.5614
2334.2  5.19366 94.5713
2334.3  4.84023 94.7245
2334.4  4.51895 94.8614
2334.5  4.47845 94.8549
2334.6  4.44761 94.8484
2334.7  4.50354 94.8424
2334.8  4.57918 94.8444
2334.9  4.83037 94.9178
2335.0  5.05475 94.9854
2335.1  5.03222 94.9989
2335.2  5.05165 95.0164
2335.3  5.44813 95.0705
2335.4  5.79875 95.1184
2335.5  5.74625 95.1124
2335.6  5.71757 95.1223
2335.7  5.90285 95.2751
2335.8  6.0321  95.4204
2335.9  5.65407 95.4938
2336.0  5.32356 95.5593
2336.1  5.42919 95.5528
2336.2  5.5213  95.5463
2336.3  5.49426 95.5398
2336.4  5.48725 95.5413
2336.5  5.65975 95.6143
2336.6  5.77555 95.6921
2336.7  5.38203 95.8124
2336.8  5.01749 95.9294
2336.9  4.9226  96.0133
2337.0  4.8348  96.0984
2337.1  4.81277 96.1925
2337.2  4.78624 96.2604
2337.3  4.71866 96.0942
2337.4  4.6731  95.9285
2337.5  4.8241  95.7629
2337.6  4.95705 95.5974
2337.7  4.92758 95.4321
2337.8  4.90666 95.2823
2337.9  4.96309 95.2759
2338.0  5.00088 95.2693
2338.1  4.86972 95.2628
2338.2  4.74234 95.2563
2338.3  4.64572 95.2493
2338.4  4.545   95.2524
2338.5  4.405   95.3469
2338.6  4.26348 95.4372
2338.7  4.10867 95.4886
2338.8  3.98612 95.5503
2338.9  4.15691 95.7031
2339.0  4.34469 95.8563
2339.1  4.6816  96.009
2339.2  4.97529 96.1294
2339.3  4.88818 95.9637
2339.4  4.79    95.783
2339.5  4.59    95.463
2339.6  4.39248 95.096
2339.7  4.21769 94.308
2339.8  4.04658 93.5268
2339.9  3.91275 92.8267
2340.0  3.77913 92.1067
2340.1  3.65048 91.2236
2340.2  3.52499 90.3065
2340.3  3.42487 89.0615
2340.4  3.34175 87.844
2340.5  3.40925 86.8446
2340.6  3.49408 85.9707
2340.7  3.73429 86.2274
2340.8  3.97858 86.5987
