# Выгружено из ПО "Атлас - Подсчет запасов"
############################################
~VERSION INFORMATION
#MNEM.UNIT                                    DATA : TYPE DESCRIPTION
VERS.                                         1.20 : CWLS LOG ASCII STANDARD_VERSION 1.20
WRAP.                                           NO : One line per depth step
############################################
~WELL INFORMATION
#MNEM.UNIT                                    DATA : TYPE DESCRIPTION
STRT.M                                      1000.0 : Start depth
STOP.M                                      2793.9 : Stop depth
STEP.M                                         0.1 : Step
NULL.                                      -999.25 : Null Value
WELL.                                            9 : 9
X.                                        12549674 : X-coordinate of Well Head
Y.                                         8024531 : Y-coordinate of Well Head
RKB.                                          34.8 : RKB
############################################
~CURVE INFORMATION
#MNEM.UNIT                                    DATA : TYPE DESCRIPTION
DEPT.M                                             : DEPT
ГК.у.е.                                            : 
ПС.мВ                                              : 
############################################
~ASCII
# ...
1469.2  5.6806  88.5205
1469.3  5.64658 87.646
1469.4  5.62481 86.7349
1469.5  5.71281 85.4859
1469.6  5.79385 84.2001
1469.7  5.81234 82.5825
1469.8  5.82625 80.9881
1469.9  5.79875 79.6211
1470.0  5.7711  78.2653
1470.1  5.7421  77.0103
1470.2  5.70785 75.8757
1470.3  5.6263  75.8227
1470.4  5.55445 75.8681
1470.5  5.56895 76.7981
1470.6  5.56984 77.7108
1470.7  5.44842 78.4678
1470.8  5.33695 79.2747
1470.9  5.31645 80.5197
1471.0  5.29705 81.6826
1471.1  5.28755 82.1081
1471.2  5.27385 82.5496
1471.3  5.22232 83.1354
1471.4  5.16919 83.6251
1471.5  5.10119 83.2561
1471.6  5.05631 82.8621
1471.7  5.21921 82.244
1471.8  5.35969 81.6416
1471.9  5.29669 81.1886
1472.0  5.27514 80.7725
1472.1  5.62614 80.6875
1472.2  5.92854 80.6863
1472.3  5.79396 81.4393
1472.4  5.68772 82.2214
1472.5  5.83472 83.2739
1472.6  5.95229 84.351
1472.7  5.80538 85.6497
1472.8  5.69182 86.9141
1472.9  5.87982 87.8536
1473.0  6.03488 88.1871
1473.1  5.89388 83.0746
1473.2  5.75079 78.1535
1473.3  5.58869 74.948
1473.4  5.46032 71.9264
1473.5  5.63332 70.5224
1473.6  5.77709 69.2053
1473.7  5.65817 68.6691
1473.8  5.54179 68.2175
1473.9  5.44979 68.5325
1474.0  5.3674  68.8728
1474.1  5.3714  69.4398
1474.2  5.36439 69.8536
1474.3  5.25833 68.8901
1474.4  5.16425 67.8669
1474.5  5.17675 66.2979
1474.6  5.20631 64.7575
1474.7  5.3892  63.4743
1474.8  5.54734 62.1741
1474.9  5.48084 60.7371
1475.0  5.40678 59.3608
1475.1  5.26478 58.5303
1475.2  5.16262 57.7741
1475.3  5.41877 57.6856
1475.4  5.65571 57.6163
1475.5  5.72271 57.7188
1475.6  5.75713 57.8328
1475.7  5.49879 58.0501
1475.8  5.23787 58.24
1475.9  4.95687 58.18
1476.0  4.70345 58.1289
1476.1  4.69795 58.1574
1476.2  4.6888  58.1743
1476.3  4.64677 58.0878
1476.4  4.61536 58.0223
1476.5  4.67886 58.1448
1476.6  4.72815 58.2691
1476.7  4.64969 58.41
1476.8  4.58736 58.5555
1476.9  4.67086 58.74
1477.0  4.7482  58.9127
1477.1  4.7702  58.9797
1477.2  4.7892  59.0497
1477.3  4.78119 59.1462
1477.4  4.75813 59.4173
1477.5  4.59963 61.2583
1477.6  4.4569  63.2075
1477.7  4.4559  66.1287
1477.8  4.46486 69.1033
1477.9  4.56336 72.5223
1478.0  4.63933 76.2196
1478.1  4.51283 82.4176
1478.2  4.4061  88.1857
1478.3  4.47715 90.0929
1478.4  4.52113 91.9077
1478.5  4.32263 92.9132
1478.6  4.17192 93.8168
1478.7  4.45075 93.8048
1478.8  4.71562 93.8425
1478.9  4.85162 94.3265
1479.0  4.95858 94.8619
1479.1  4.80458 95.8599
1479.2  4.66    96.8052
1479.3  4.59996 97.2775
1479.4  4.56883 97.575
1479.5  4.79683 96.3059
1479.6  5.02456 94.9834
1479.7  5.24993 93.1795
1479.8  5.47157 91.336
1479.9  5.65707 89.159
1480.0  5.84392 87.0904
1480.1  6.04292 85.9954
1480.2  6.20829 84.9506
1480.3  6.07121 84.3562
1480.4  5.94274 83.7795
1480.5  5.89024 83.355
1480.6  5.82684 82.9919
1480.7  5.66544 83.1808
1480.8  5.53402 83.4367
1480.9  5.67402 84.2927
1481.0  5.8036  85.1144
1481.1  5.8396  85.6274
1481.2  5.85664 86.1866
1481.3  5.70305 87.1622
1481.4  5.58357 88.1206
1481.5  5.76907 88.9356
1481.6  5.9297  89.7589
1481.7  5.86673 90.6563
1481.8  5.78242 91.5394
1481.9  5.50692 92.2829
1482.0  5.28043 93.0501
1482.1  5.49443 94.0296
1482.2  5.65683 94.9875
1482.3  5.35515 95.7525
1482.4  5.05401 96.428
1482.5  4.75451 96.308
1482.6  4.47069 96.0424
1482.7  4.32778 94.4684
1482.8  4.21867 92.9338
1482.9  4.41517 91.7733
1483.0  4.60497 90.4161
1483.1  4.73447 87.2911
1483.2  4.88902 84.6409
1483.3  5.26926 86.2599
1483.4  5.59718 87.8299
1483.5  5.45918 88.9774
1483.6  5.32259 90.1307
1483.7  5.19867 91.3365
1483.8  5.09576 92.4419
1483.9  5.18326 92.6304
1484.0  5.27792 92.786
1484.1  5.43692 92.646
1484.2  5.59296 92.566
1484.3  5.72254 93.0263
1484.4  5.82553 93.539
1484.5  5.69103 94.528
1484.6  5.57906 95.5142
1484.7  5.6695  96.4746
1484.8  5.76557 97.3739
1484.9  5.91107 97.7129
1485.0  6.03304 98.0049
1485.1  5.94354 97.8739
1485.2  5.84959 97.7497
1485.3  5.71551 97.6867
1485.4  5.59395 97.6589
1485.5  5.58345 97.9474
1485.6  5.55664 98.2746
1485.7  5.38325 98.9502
1485.8  5.20953 99.2895
1485.9  5.03503 96.5975
1486.0  4.87114 93.9518
1486.1  4.80264 91.7228
1486.2  4.76401 89.5217
1486.3  4.99415 87.5685
1486.4  5.22022 85.8875
1486.5  5.41222 86.632
1486.6  5.60181 87.4352
1486.7  5.76971 88.7659
1486.8  5.92791 89.8544
1486.9  5.99691 88.7494
1487.0  6.04739 87.5197
1487.1  5.93139 85.1692
1487.2  5.8259  82.7719
1487.3  5.81489 79.9512
1487.4  5.81131 77.2204
1487.5  5.87431 75.2664
1487.6  5.9258  73.4922
1487.7  5.87383 73.3343
1487.8  5.82645 73.2198
1487.9  5.82095 73.4973
1488.0  5.8186  73.4261
1488.1  5.8446  70.2211
1488.2  5.87786 67.0477
1488.3  5.97642 64.1544
1488.4  6.05279 61.7308
1488.5  5.93079 63.4963
1488.6  5.81795 65.3421
1488.7  5.78747 67.91
1488.8  5.73802 70.6124
1488.9  5.51852 74.4914
1489.0  5.32666 78.337
1489.1  5.38316 81.883
1489.2  5.4289  85.2689
1489.3  5.37787 87.2181
1489.4  5.33961 88.8941
1489.5  5.41561 88.1356
1489.6  5.49416 87.3815
1489.7  5.59559 86.6669
1489.8  5.70142 86.168
1489.9  5.84542 87.6165
1490.0  5.97525 89.1114
1490.1  5.97775 91.0229
1490.2  5.96439 92.8554
1490.3  5.8083  93.9796
1490.4  5.67386 95.0631
1490.5  5.73236 95.7931
1490.6  5.77169 96.4947
1490.7  5.63877 96.9415
1490.8  5.50068 97.3534
1490.9  5.31768 97.4469
1491.0  5.13167 97.5303
1491.1  4.91867 97.5228
1491.2  4.7245  97.5152
1491.3  4.69948 97.5066
1491.4  4.70824 97.4982
1491.5  5.02024 97.4902
1491.6  5.29009 97.492
1491.7  5.18116 97.5814
1491.8  5.08796 97.6736
1491.9  5.13746 97.7896
1492.0  5.16178 97.9199
1492.1  4.95978 98.1784
1492.2  4.78661 98.41
1492.3  4.87266 98.4005
1492.4  4.93468 98.3369
1492.5  4.78168 97.7869
1492.6  4.65441 97.2048
1492.7  4.75834 96.3338
1492.8  4.84815 95.5238
1492.9  4.80965 95.2718
1493.0  4.79352 95.0716
1493.1  4.97852 95.3371
1493.2  5.1526  95.6059
1493.3  5.22865 95.9051
1493.4  5.31858 96.1981
1493.5  5.53408 96.4391
1493.6  5.71394 96.6801
1493.7  5.57353 96.921
1493.8  5.46737 97.1377
1493.9  5.67088 97.1347
1494.0  5.84464 97.1321
1494.1  5.75114 97.1331
1494.2  5.6683  97.1403
1494.3  5.68131 97.2028
1494.4  5.70456 97.2343
1494.5  5.82006 96.9878
1494.6  5.91199 96.7319
1494.7  5.79207 96.3911
1494.8  5.70508 95.9537
1494.9  5.91558 94.6527
1495.0  6.08888 93.282
1495.1  5.92788 91.2845
1495.2  5.7828  89.1589
1495.3  5.7808  85.8779
1495.4  5.76598 82.577
1495.5  5.63598 79.0615
1495.6  5.50779 75.6178
1495.7  5.39586 72.819
1495.8  5.2917  69.9093
1495.9  5.2587  66.0368
1496.0  5.21839 62.3881
1496.1  5.11239 60.7511
1496.2  5.00049 59.0599
1496.3  4.83539 56.8785
1496.4  4.69611 55.02
1496.5  4.78711 56.039
1496.6  4.87811 57.1242
1496.7  4.96905 58.8036
1496.8  5.04404 60.4952
1496.9  4.97454 62.2752
1497.0  4.91751 64.2614
1497.1  4.97251 68.1004
1497.2  5.02445 71.9548
1497.3  5.04897 75.9527
1497.4  5.07996 79.8613
1497.5  5.16946 83.0103
1497.6  5.26471 86.0589
1497.7  5.41162 88.2051
1497.8  5.52733 89.9437
1497.9  5.36083 87.9927
1498.0  5.2072  86.0362
1498.1  5.1692  84.0307
1498.2  5.12204 82.0542
1498.3  4.99246 80.3367
1498.4  4.86103 78.4296
1498.5  4.71153 74.8001
1498.6  4.56394 71.3659
1498.7  4.43352 69.6875
1498.8  4.30278 67.9807
1498.9  4.17078 66.0397
1499.0  4.04284 64.2037
1499.1  3.95134 63.3117
1499.2  3.87085 62.5034
1499.3  3.88936 62.4474
1499.4  3.91711 62.5444
1499.5  4.02811 64.0169
1499.6  4.12775 65.4658
1499.7  4.12525 66.702
1499.8  4.14082 67.9384
1499.9  4.31882 69.1609
1500.0  4.46939 70.4002
1500.1  4.37339 71.7907
1500.2  4.29916 73.1079
1500.3  4.42073 73.7668
1500.4  4.52925 74.3774
1500.5  4.52175 74.5609
1500.6  4.53006 74.6804
1500.7  4.68047 74.2252
1500.8  4.83908 73.8133
1500.9  5.06958 73.7968
1501.0  5.2773  73.8596
1501.1  5.2803  74.6346
1501.2  5.28345 75.426
1501.3  5.28795 76.3661
1501.4  5.25856 77.4163
1501.5  4.92456 79.4668
1501.6  4.6254  81.433
1501.7  4.63939 82.6412
1501.8  4.63047 83.8357
1501.9  4.41547 84.8912
1502.0  4.20288 86.0075
1502.1  4.01188 87.67
1502.2  3.81949 89.2964
1502.3  3.61436 90.6002
1502.4  3.41043 91.8638
1502.5  3.21493 92.7808
1502.6  3.03075 93.5071
1502.7  2.9483  92.5192
