# Выгружено из ПО "Атлас - Подсчет запасов"
############################################
~VERSION INFORMATION
#MNEM.UNIT                                    DATA : TYPE DESCRIPTION
VERS.                                         1.20 : CWLS LOG ASCII STANDARD_VERSION 1.20
WRAP.                                           NO : One line per depth step
############################################
~WELL INFORMATION
#MNEM.UNIT                                    DATA : TYPE DESCRIPTION
STRT.M                                         1.6 : Start depth
STOP.M                                      3100.5 : Stop depth
STEP.M                                         0.1 : Step
NULL.                                      -999.25 : Null Value
WELL.                                           14 : 14
X.                                        12543536 : X-coordinate of Well Head
Y.                                         8016266 : Y-coordinate of Well Head
RKB.                                          36.7 : RKB
############################################
~CURVE INFORMATION
#MNEM.UNIT                                    DATA : TYPE DESCRIPTION
DEPT.M                                             : DEPT
ГК.у.е.                                            : 
ПС.мВ                                              : 
############################################
~ASCII
# ...
1842.4  6.73746 104.384
1842.5  6.38246 104.591
1842.6  6.07696 104.783
1842.7  6.21637 104.841
1842.8  6.33564 104.881
1842.9  6.27214 104.751
1843.0  6.22772 104.556
1843.1  6.35472 103.778
1843.2  6.42747 102.912
1843.3  6.01222 101.257
1843.4  5.64791 99.4769
1843.5  5.73691 96.5499
1843.6  5.83351 93.5613
1843.7  5.99841 90.0184
1843.8  6.12412 86.2979
1843.9  5.89562 81.0234
1844.0  5.6938  76.3515
1844.1  5.7318  77.096
1844.2  5.78506 77.8405
1844.3  5.97568 78.586
1844.4  6.11396 79.3305
1844.5  5.78396 80.075
1844.6  5.49205 80.1615
1844.7  5.54252 74.3341
1844.8  5.60707 68.8654
1844.9  5.79757 66.6919
1845.0  5.98427 64.638
1845.1  6.13677 63.659
1845.2  6.27275 62.7619
1845.3  6.26024 62.6008
1845.4  6.22227 62.632
1845.5  5.95527 64.39
1845.6  5.73026 66.2477
1845.7  5.88267 69.0015
1845.8  6.01109 71.9467
1845.9  5.92209 76.5782
1846.0  5.85216 81.139
1846.1  5.95366 85.0645
1846.2  6.05521 88.944
1846.3  6.15727 92.4136
1846.4  6.26172 95.7345
1846.5  6.38872 97.7575
1846.6  6.51951 99.7118
1846.7  6.68441 101.049
1846.8  6.81393 102.351
1846.9  6.62343 103.329
1847.0  6.43163 104.258
1847.1  6.22813 104.746
1847.2  6.05521 105.233
1847.3  6.15727 105.717
1847.4  6.24389 106.185
1847.5  6.19289 106.527
1847.6  6.1419  106.865
1847.7  6.09093 107.165
1847.8  6.05391 107.44
1847.9  6.14291 107.486
1848.0  6.23066 107.522
1848.1  6.30716 107.471
1848.2  6.37725 107.431
1848.3  6.38976 107.481
1848.4  6.39339 107.524
1848.5  6.31739 107.506
1848.6  6.2515  107.491
1848.7  6.27649 107.515
1848.8  6.28884 107.525
1848.9  6.18734 107.42
1849.0  6.08839 107.315
1849.1  6.01239 107.205
1849.2  5.9516  107.1
1849.3  6.02765 107.038
1849.4  6.10872 106.98
1849.5  6.23572 106.953
1849.6  6.32969 106.944
1849.7  6.12681 107.106
1849.8  5.95291 107.257
1849.9  6.04191 107.312
1850.0  6.13597 107.367
1850.1  6.27547 107.418
1850.2  6.38319 107.452
1850.3  6.20508 107.337
1850.4  6.03484 107.237
1850.5  5.93334 107.268
1850.6  5.87122 107.275
1850.7  6.16304 107.078
1850.8  6.4222  106.869
1850.9  6.3842  106.561
1851.0  6.35    106.246
1851.1  6.35    105.865
1851.2  6.33094 105.51
1851.3  6.14032 105.385
1851.4  5.97536 105.289
1851.5  6.03886 105.447
1851.6  6.09345 105.623
1851.7  6.06796 105.953
1851.8  6.06663 106.277
1851.9  6.28263 106.548
1852.0  6.46173 106.819
1852.1  6.30923 107.103
1852.2  6.16184 107.362
1852.3  6.06028 107.39
1852.4  5.99063 107.403
1852.5  6.20663 107.28
1852.6  6.39975 107.142
1852.7  6.38726 106.867
1852.8  6.35182 106.587
1852.9  6.11032 106.271
1853.0  5.90191 105.981
1853.1  5.99091 105.935
1853.2  6.09511 105.909
1853.3  6.33626 106.061
1853.4  6.53648 106.249
1853.5  6.37148 106.762
1853.6  6.2268  107.269
1853.7  6.26478 107.718
1853.8  6.26216 108.135
1853.9  5.89416 108.259
1854.0  5.57952 108.35
1854.1  5.74452 108.141
1854.2  5.90316 107.912
1854.3  6.00472 107.497
1854.4  6.10111 107.106
1854.5  6.15211 106.928
1854.6  6.18784 106.733
1854.7  6.08641 106.384
1854.8  6.00386 106.059
1854.9  6.09236 105.958
1855.0  6.16184 105.868
1855.1  6.06034 105.877
1855.2  5.95629 105.906
1855.3  5.82921 106.113
1855.4  5.73788 106.323
1855.5  5.96638 106.561
1855.6  6.1682  106.795
1855.7  6.13022 106.997
1855.8  6.09855 107.195
1855.9  6.12405 107.365
1856.0  6.12793 107.535
1856.1  5.93743 107.704
1856.2  5.77871 107.872
1856.3  5.90579 108.025
1856.4  6.01109 108.162
1856.5  5.92209 108.166
1856.6  5.85471 108.164
1856.7  5.98163 108.113
1856.8  6.08964 108.042
1856.9  6.02614 107.783
1857.0  5.98682 107.523
1857.1  6.16482 107.258
1857.2  6.32755 106.998
1857.3  6.35307 106.774
1857.4  6.37725 106.572
1857.5  6.38975 106.559
1857.6  6.42386 106.553
1857.7  6.65222 106.604
1857.8  6.82116 106.68
1857.9  6.45316 106.995
1858.0  6.12706 107.295
1858.1  6.17756 107.464
1858.2  6.2154  107.643
1858.3  6.13935 107.898
1858.4  6.07606 108.089
1858.5  6.12656 107.706
1858.6  6.1695  107.324
1858.7  6.14451 106.941
1858.8  6.10293 106.506
1858.9  5.91243 105.607
1859.0  5.7397  104.771
1859.1  5.7267  104.503
1859.2  5.69974 104.248
1859.3  5.54715 104.108
1859.4  5.4062  103.983
1859.5  5.3682  103.982
1859.6  5.334   103.989
1859.7  5.334   104.06
1859.8  5.3378  104.139
1859.9  5.3758  104.298
1860.0  5.43293 104.472
1860.1  5.66193 104.775
1860.2  5.868   105.076
1860.3  5.868   105.367
1860.4  5.86925 105.654
1860.5  5.88175 105.906
1860.6  5.90571 106.134
1860.7  6.03263 106.14
1860.8  6.14189 106.136
1860.9  6.09089 106.042
1861.0  6.04755 105.953
1861.1  6.07305 105.909
1861.2  6.0884  105.857
1861.3  6.01235 105.733
1861.4  5.93764 105.613
1861.5  5.87414 105.536
1861.6  5.8208  105.464
1861.7  5.85878 105.44
1861.8  5.88664 105.424
1861.9  5.82314 105.47
1862.0  5.7698  105.539
1862.1  5.8078  105.811
1862.2  5.8433  106.076
1862.3  5.85631 106.278
1862.4  5.88197 106.475
1862.5  6.02147 106.631
1862.6  6.1546  106.77
1862.7  6.23056 106.756
1862.8  6.28123 106.735
1862.9  6.10373 106.64
1863.0  5.95291 106.543
1863.1  6.04191 106.419
1863.2  6.11435 106.316
1863.3  6.0378  106.391
1863.4  5.97666 106.457
1863.5  6.05316 106.439
1863.6  6.13086 106.43
1863.7  6.2193  106.499
1863.8  6.28123 106.566
1863.9  6.10373 106.615
1864.0  5.93128 106.662
1864.1  5.80428 106.687
1864.2  5.6887  106.728
1864.3  5.67569 106.923
1864.4  5.67672 107.104
1864.5  5.80372 107.172
1864.6  5.93456 107.241
1864.7  6.09996 107.309
1864.8  6.23498 107.364
1864.9  6.09498 107.301
1865.0  5.97536 107.228
1865.1  6.03886 107.067
1865.2  6.096   106.902
1865.3  6.096   106.695
1865.4  6.08709 106.486
1865.5  5.99809 106.26
1865.6  5.918   106.051
1865.7  5.918   106.001
1865.8  5.93202 105.948
1865.9  6.07202 105.865
1866.0  6.20436 105.79
1866.1  6.26786 105.777
1866.2  6.33896 105.766
1866.3  6.47854 105.766
1866.4  6.57987 105.78
1866.5  6.33887 105.921
1866.6  6.10674 106.073
1866.7  5.95433 106.334
1866.8  5.83227 106.596
1866.9  5.98477 106.867
1867.0  6.13722 107.143
1867.1  6.28922 107.475
1867.2  6.4311  107.783
1867.3  6.48213 107.886
1867.4  6.50382 107.965
1867.5  6.26232 107.832
1867.6  6.045   107.68
1867.7  6.045   107.351
1867.8  6.05521 107.031
1867.9  6.15721 106.788
1868.0  6.23754 106.559
1868.1  6.12304 106.445
1868.2  6.03526 106.337
1868.3  6.18785 106.286
1868.4  6.30337 106.24
1868.5  6.08737 106.236
1868.6  5.8981  106.247
1868.7  5.94907 106.394
1868.8  5.9988  106.557
1868.9  6.0368  106.852
1869.0  6.07736 107.149
1869.1  6.14086 107.474
1869.2  6.18529 107.765
1869.3  6.05821 107.756
1869.4  5.9427  107.738
1869.5  5.9297  107.637
1869.6  5.91675 107.539
1869.7  5.90426 107.458
1869.8  5.90061 107.393
1869.9  5.97661 107.472
1870.0  6.03739 107.563
1870.1  5.96139 107.764
1870.2  5.8968  107.964
1870.3  5.93483 108.163
1870.4  5.95884 108.365
1870.5  5.85734 108.593
1870.6  5.75584 108.808
1870.7  5.65441 108.905
1870.8  5.5592  108.98
1870.9  5.5212  108.865
1871.0  5.4857  108.725
1871.1  5.4727  108.35
1871.2  5.47626 107.964
1871.3  5.62885 107.475
1871.4  5.78507 107
1871.5  5.97557 106.646
1871.6  6.1419  106.301
1871.7  6.09093 106.027
1871.8  6.03103 105.77
1871.9  5.89153 105.673
1872.0  5.77997 105.594
1872.1  5.91947 105.677
1872.2  6.05646 105.779
1872.3  6.17103 106.059
1872.4  6.25618 106.34
1872.5  6.07818 106.643
1872.6  5.91165 106.935
1872.7  5.84819 107.136
1872.8  5.77703 107.33
1872.9  5.63753 107.46
1873.0  5.49293 107.571
1873.1  5.30243 107.51
1873.2  5.12209 107.445
1873.3  5.03304 107.343
1873.4  4.95175 107.22
1873.5  4.93925 106.908
1873.6  4.93816 106.606
1873.7  5.03959 106.384
1873.8  5.14166 106.159
1873.9  5.24816 105.904
1874.0  5.35471 105.676
1874.1  5.46171 105.689
1874.2  5.58872 105.693
1874.3  5.89591 105.612
1874.4  6.19107 105.555
1874.5  6.38157 105.7
1874.6  6.53144 105.83
1874.7  6.31607 105.83
1874.8  6.10798 105.852
1874.9  5.96798 106.067
1875.0  5.86237 106.296
1875.1  6.06588 106.644
1875.2  6.24515 106.989
1875.3  6.20662 107.298
1875.4  6.1733  107.596
1875.5  6.1863  107.795
1875.6  6.19165 107.978
1875.7  6.12818 108.013
1875.8  6.09132 108.027
1875.9  6.29432 107.843
