# Выгружено из ПО "Атлас - Подсчет запасов"
############################################
~VERSION INFORMATION
#MNEM.UNIT                                    DATA : TYPE DESCRIPTION
VERS.                                         1.20 : CWLS LOG ASCII STANDARD_VERSION 1.20
WRAP.                                           NO : One line per depth step
############################################
~WELL INFORMATION
#MNEM.UNIT                                    DATA : TYPE DESCRIPTION
STRT.M                                         1.6 : Start depth
STOP.M                                      3100.5 : Stop depth
STEP.M                                         0.1 : Step
NULL.                                      -999.25 : Null Value
WELL.                                           14 : 14
X.                                        12543536 : X-coordinate of Well Head
Y.                                         8016266 : Y-coordinate of Well Head
RKB.                                          36.7 : RKB
############################################
~CURVE INFORMATION
#MNEM.UNIT                                    DATA : TYPE DESCRIPTION
DEPT.M                                             : DEPT
ГК.у.е.                                            : 
ПС.мВ                                              : 
############################################
~ASCII
# ...
602.8   6.22186 -999.25
602.9   6.34032 -999.25
603.0   6.41807 -999.25
603.1   6.12916 -999.25
603.2   5.84813 -999.25
603.3   5.63969 -999.25
603.4   5.48364 -999.25
603.5   5.80184 -999.25
603.6   6.06833 -999.25
603.7   5.87177 -999.25
603.8   5.67929 -999.25
603.9   5.52233 -999.25
604.0   5.38836 -999.25
604.1   5.46183 -999.25
604.2   5.51799 -999.25
604.3   5.41802 -999.25
604.4   5.31103 -999.25
604.5   5.14043 -999.25
604.6   4.95897 -999.25
604.7   4.67889 -999.25
604.8   4.43636 -999.25
604.9   4.52983 -999.25
605.0   4.65554 -999.25
605.1   5.07041 -999.25
605.2   5.46462 -999.25
605.3   5.67056 -999.25
605.4   5.86331 -999.25
605.5   5.93686 -999.25
605.6   5.99564 -999.25
605.7   5.92212 -999.25
605.8   5.83693 -999.25
605.9   5.64649 -999.25
606.0   5.48136 -999.25
606.1   5.54484 -999.25
606.2   5.61001 -999.25
606.3   5.68998 -999.25
606.4   5.73886 -999.25
606.5   5.50622 -999.25
606.6   5.28269 -999.25
606.7   5.13964 -999.25
606.8   5.02967 -999.25
606.9   5.21611 -999.25
607.0   5.39151 -999.25
607.1   5.46648 -999.25
607.2   5.50342 -999.25
607.3   5.19802 -999.25
607.4   4.8915  -999.25
607.5   4.57481 -999.25
607.6   4.29846 -999.25
607.7   4.38298 -999.25
607.8   4.47156 -999.25
607.9   4.59702 -999.25
608.0   4.709   -999.25
608.1   4.699   -999.25
608.2   4.68475 -999.25
608.3   4.63226 -999.25
608.4   4.61092 -999.25
608.5   4.87158 -999.25
608.6   5.13117 -999.25
608.7   5.38275 -999.25
608.8   5.62677 -999.25
608.9   5.80421 -999.25
609.0   5.9686  -999.25
609.1   6.01459 -999.25
609.2   6.04014 -999.25
609.3   5.88168 -999.25
609.4   5.72243 -999.25
609.5   5.55583 -999.25
609.6   5.39649 -999.25
609.7   5.30146 -999.25
609.8   5.22856 -999.25
609.9   5.35402 -999.25
610.0   5.47371 -999.25
610.1   5.54069 -999.25
610.2   5.58889 -999.25
610.3   5.46793 -999.25
610.4   5.32243 -999.25
610.5   4.95471 -999.25
610.6   4.59763 -999.25
610.7   4.33405 -999.25
610.8   4.1002  -999.25
610.9   4.13219 -999.25
611.0   4.15204 -999.25
611.1   4.06257 -999.25
611.2   4.01018 -999.25
611.3   4.29159 -999.25
611.4   4.5546  -999.25
611.5   4.65116 -999.25
611.6   4.71988 -999.25
611.7   4.53883 -999.25
611.8   4.36394 -999.25
611.9   4.24348 -999.25
612.0   4.15227 -999.25
612.1   4.32471 -999.25
612.2   4.48601 -999.25
612.3   4.54599 -999.25
612.4   4.58368 -999.25
612.5   4.41958 -999.25
612.6   4.27475 -999.25
612.7   4.30226 -999.25
612.8   4.32855 -999.25
612.9   4.34405 -999.25
613.0   4.36651 -999.25
613.1   4.45148 -999.25
613.2   4.55082 -999.25
613.3   4.77875 -999.25
613.4   4.99171 -999.25
613.5   5.06926 -999.25
613.6   5.15862 -999.25
613.7   5.35468 -999.25
613.8   5.53746 -999.25
613.9   5.60194 -999.25
614.0   5.63368 -999.25
614.1   5.37076 -999.25
614.2   5.11353 -999.25
614.3   4.90909 -999.25
614.4   4.70754 -999.25
614.5   4.53193 -999.25
614.6   4.40198 -999.25
614.7   4.68156 -999.25
614.8   4.94026 -999.25
614.9   5.01273 -999.25
615.0   5.0792  -999.25
615.1   5.0912  -999.25
615.2   5.12847 -999.25
615.3   5.39289 -999.25
615.4   5.62602 -999.25
615.5   5.57599 -999.25
615.6   5.55242 -999.25
615.7   5.76649 -999.25
615.8   5.97532 -999.25
615.9   6.13827 -999.25
616.0   6.26723 -999.25
616.1   6.08979 -999.25
616.2   5.91469 -999.25
616.3   5.76173 -999.25
616.4   5.64992 -999.25
616.5   5.91058 -999.25
616.6   6.13684 -999.25
616.7   6.05532 -999.25
616.8   5.97519 -999.25
616.9   5.90721 -999.25
617.0   5.85441 -999.25
617.1   5.93838 -999.25
617.2   6.0187  -999.25
617.3   6.06569 -999.25
617.4   6.09143 -999.25
617.5   5.92483 -999.25
617.6   5.7707  -999.25
617.7   5.72768 -999.25
617.8   5.68915 -999.25
617.9   5.69065 -999.25
618.0   5.67113 -999.25
618.1   5.46269 -999.25
618.2   5.26034 -999.25
618.3   5.11388 -999.25
618.4   4.98454 -999.25
618.5   5.01005 -999.25
618.6   5.02179 -999.25
618.7   4.90976 -999.25
618.8   4.82181 -999.25
618.9   4.94977 -999.25
619.0   5.06495 -999.25
619.1   5.06445 -999.25
619.2   5.05169 -999.25
619.3   4.92873 -999.25
619.4   4.82327 -999.25
619.5   4.87631 -999.25
619.6   4.93856 -999.25
619.7   5.08411 -999.25
619.8   5.21345 -999.25
619.9   5.19795 -999.25
620.0   5.18365 -999.25
620.1   5.18015 -999.25
620.2   5.18861 -999.25
620.3   5.30457 -999.25
620.4   5.42582 -999.25
620.5   5.59492 -999.25
620.6   5.76362 -999.25
620.7   5.92967 -999.25
620.8   6.05148 -999.25
620.9   5.77656 -999.25
621.0   5.51584 -999.25
621.1   5.38438 -999.25
621.2   5.24783 -999.25
621.3   5.06639 -999.25
621.4   4.9135  -999.25
621.5   5.01906 -999.25
621.6   5.14238 -999.25
621.7   5.42596 -999.25
621.8   5.71473 -999.25
621.9   6.05163 -999.25
622.0   6.33518 -999.25
622.1   6.13724 -999.25
622.2   5.93978 -999.25
622.3   5.74784 -999.25
622.4   5.56714 -999.25
622.5   5.48809 -999.25
622.6   5.42751 -999.25
622.7   5.53254 -999.25
622.8   5.62725 -999.25
622.9   5.62975 -999.25
623.0   5.61208 -999.25
623.1   5.41314 -999.25
623.2   5.24336 -999.25
623.3   5.33683 -999.25
623.4   5.42991 -999.25
623.5   5.51946 -999.25
623.6   5.59605 -999.25
623.7   5.55653 -999.25
623.8   5.51344 -999.25
623.9   5.43797 -999.25
624.0   5.35213 -999.25
624.1   5.17369 -999.25
624.2   5.02957 -999.25
624.3   5.19501 -999.25
624.4   5.3432  -999.25
624.5   5.3352  -999.25
624.6   5.3227  -999.25
624.7   5.26968 -999.25
624.8   5.23796 -999.25
624.9   5.39742 -999.25
625.0   5.53199 -999.25
625.1   5.44202 -999.25
625.2   5.37767 -999.25
625.3   5.54411 -999.25
625.4   5.69271 -999.25
625.5   5.6797  -999.25
625.6   5.64828 -999.25
625.7   5.45122 -999.25
625.8   5.26975 -999.25
625.9   5.22726 -999.25
626.0   5.19926 -999.25
626.1   5.30173 -999.25
626.2   5.40161 -999.25
626.3   5.47758 -999.25
626.4   5.54227 -999.25
626.5   5.50475 -999.25
626.6   5.47696 -999.25
626.7   5.53647 -999.25
626.8   5.60712 -999.25
626.9   5.77806 -999.25
627.0   5.93335 -999.25
627.1   5.94685 -999.25
627.2   5.94789 -999.25
627.3   5.83692 -999.25
627.4   5.74541 -999.25
627.5   5.82996 -999.25
627.6   5.92186 -999.25
627.7   6.08041 -999.25
627.8   6.21014 -999.25
627.9   6.08168 -999.25
628.0   5.95484 -999.25
628.1   5.84337 -999.25
628.2   5.74996 -999.25
628.3   5.81944 -999.25
628.4   5.84886 -999.25
628.5   5.51566 -999.25
628.6   5.23332 -999.25
628.7   5.40637 -999.25
628.8   5.57932 -999.25
628.9   5.75226 -999.25
629.0   5.89314 -999.25
629.1   5.74468 -999.25
629.2   5.59959 -999.25
629.3   5.48562 -999.25
629.4   5.3937  -999.25
629.5   5.50126 -999.25
629.6   5.59199 -999.25
629.7   5.53198 -999.25
629.8   5.46159 -999.25
629.9   5.29764 -999.25
630.0   5.12898 -999.25
630.1   4.91904 -999.25
630.2   4.71158 -999.25
630.3   4.52764 -999.25
630.4   4.38956 -999.25
630.5   4.66673 -999.25
630.6   4.92836 -999.25
630.7   5.0519  -999.25
630.8   5.18467 -999.25
630.9   5.4011  -999.25
631.0   5.57523 -999.25
631.1   5.36779 -999.25
631.2   5.16043 -999.25
631.3   4.95499 -999.25
631.4   4.75283 -999.25
631.5   4.58023 -999.25
631.6   4.425   -999.25
631.7   4.425   -999.25
631.8   4.45283 -999.25
631.9   4.73074 -999.25
632.0   4.98105 -999.25
632.1   4.98155 -999.25
632.2   4.97905 -999.25
632.3   4.94956 -999.25
632.4   4.93529 -999.25
632.5   5.05887 -999.25
632.6   5.17616 -999.25
632.7   5.23767 -999.25
632.8   5.2901  -999.25
632.9   5.26111 -999.25
633.0   5.24171 -999.25
633.1   5.30869 -999.25
633.2   5.38111 -999.25
633.3   5.50207 -999.25
633.4   5.59732 -999.25
633.5   5.45973 -999.25
633.6   5.33215 -999.25
633.7   5.29363 -999.25
633.8   5.24078 -999.25
633.9   5.05884 -999.25
634.0   4.88054 -999.25
634.1   4.73608 -999.25
634.2   4.62987 -999.25
634.3   4.8683  -999.25
634.4   5.07822 -999.25
634.5   5.03019 -999.25
634.6   5.00331 -999.25
634.7   5.16636 -999.25
634.8   5.32251 -999.25
634.9   5.41748 -999.25
635.0   5.5071  -999.25
635.1   5.54809 -999.25
635.2   5.60167 -999.25
635.3   5.76811 -999.25
635.4   5.90496 -999.25
635.5   5.77388 -999.25
635.6   5.61396 -999.25
635.7   5.19383 -999.25
635.8   4.82561 -999.25
635.9   4.92158 -999.25
636.0   5.01971 -999.25
636.1   5.13667 -999.25
