# Выгружено из ПО "Атлас - Подсчет запасов"
############################################
~VERSION INFORMATION
#MNEM.UNIT                                    DATA : TYPE DESCRIPTION
VERS.                                         1.20 : CWLS LOG ASCII STANDARD_VERSION 1.20
WRAP.                                           NO : One line per depth step
############################################
~WELL INFORMATION
#MNEM.UNIT                                    DATA : TYPE DESCRIPTION
STRT.M                                         1.6 : Start depth
STOP.M                                      3100.5 : Stop depth
STEP.M                                         0.1 : Step
NULL.                                      -999.25 : Null Value
WELL.                                           14 : 14
X.                                        12543536 : X-coordinate of Well Head
Y.                                         8016266 : Y-coordinate of Well Head
RKB.                                          36.7 : RKB
############################################
~CURVE INFORMATION
#MNEM.UNIT                                    DATA : TYPE DESCRIPTION
DEPT.M                                             : DEPT
ГК.у.е.                                            : 
ПС.мВ                                              : 
############################################
~ASCII
# ...
1641.2  7.25865 102.888
1641.3  7.19511 103.334
1641.4  7.13034 103.748
1641.5  7.05384 103.867
1641.6  7.00406 103.963
1641.7  7.19445 103.842
1641.8  7.35714 103.719
1641.9  7.26864 103.584
1642.0  7.19786 103.463
1642.1  7.28636 103.461
1642.2  7.3673  103.46
1642.3  7.38031 103.464
1642.4  7.38434 103.458
1642.5  7.30784 103.371
1642.6  7.21233 103.296
1642.7  6.946   103.33
1642.8  6.706   103.358
1642.9  6.706   103.327
1643.0  6.72377 103.283
1643.1  6.90127 103.114
1643.2  7.07376 102.92
1643.3  7.20134 102.505
1643.4  7.29818 102.076
1643.5  7.12018 101.503
1643.6  6.95365 100.955
1643.7  6.89018 100.63
1643.8  6.83555 100.223
1643.9  6.86105 99.0878
1644.0  6.87889 97.8881
1644.1  6.82789 96.1116
1644.2  6.74643 94.0411
1644.3  6.39071 89.3222
1644.4  6.09513 84.6744
1644.5  6.33613 80.6129
1644.6  6.52508 76.6494
1644.7  6.24625 73.5673
1644.8  6.01022 70.8462
1644.9  6.16222 71.4077
1645.0  6.29394 71.9993
1645.1  6.24344 72.8613
1645.2  6.22086 73.6677
1645.3  6.4495  73.9749
1645.4  6.65625 74.2439
1645.5  6.66875 74.1734
1645.6  6.66604 74.1291
1645.7  6.52663 74.3194
1645.8  6.42768 74.5849
1645.9  6.69418 75.5229
1646.0  6.9315  76.6258
1646.1  6.9065  79.2108
1646.2  6.86109 81.7855
1646.3  6.63195 84.27
1646.4  6.44002 86.8698
1646.5  6.58002 90.5333
1646.6  6.71491 93.7406
1646.7  6.80385 92.8476
1646.8  6.8878  91.9535
1646.9  6.9258  91.0595
1647.0  6.97527 90.255
1647.1  7.12777 90.255
1647.2  7.25099 90.3445
1647.3  7.11091 91.239
1647.4  6.99391 92.1325
1647.5  7.08291 93.026
1647.6  7.1681  93.6727
1647.7  7.21907 92.1017
1647.8  7.2612  90.5844
1647.9  7.2232  89.5699
1648.0  7.19406 88.5906
1648.1  7.24456 87.9276
1648.2  7.2951  87.3409
1648.3  7.34613 87.44
1648.4  7.38054 87.6336
1648.5  7.26604 88.6781
1648.6  7.1668  89.9884
1648.7  7.20478 93.6876
1648.8  7.22884 96.9679
1648.9  7.12734 96.4379
1649.0  7.04236 95.908
1649.1  7.10586 95.3785
1649.2  7.1643  94.849
1649.3  7.17731 94.3186
1649.4  7.18645 94.1283
1649.5  7.16095 96.9878
1649.6  7.12399 99.6557
1649.7  6.98408 100.602
1649.8  6.84403 101.515
1649.9  6.70453 102.127
1650.0  6.59172 102.683
1650.1  6.71872 102.734
1650.2  6.85842 102.716
1650.3  7.11257 102.085
1650.4  7.33339 101.345
1650.5  7.25739 99.6148
1650.6  7.17374 97.8004
1650.7  7.02133 95.228
1650.8  6.89416 92.501
1650.9  6.99566 88.416
1651.0  7.07048 84.3871
1651.1  6.90548 80.8626
1651.2  6.75825 77.3404
1651.3  6.77076 73.8348
1651.4  6.77439 70.4077
1651.5  6.69839 67.6477
1651.6  6.60649 64.9009
1651.7  6.37163 62.273
1651.8  6.13647 59.6917
1651.9  5.90147 57.5612
1652.0  5.68109 55.5057
1652.1  5.59209 54.1247
1652.2  5.50565 52.7059
1652.3  5.44211 50.9454
1652.4  5.39261 49.5315
1652.5  5.46861 51.2145
1652.6  5.55606 52.8974
1652.7  5.74645 54.5794
1652.8  5.92691 56.2636
1652.9  6.01591 57.9476
1653.0  6.10616 59.1977
1653.1  6.20766 56.5477
1653.2  6.30791 53.9786
1653.3  6.39696 52.135
1653.4  6.46559 50.4531
1653.5  6.35159 50.2046
1653.6  6.249   50.0123
1653.7  6.249   50.3246
1653.8  6.27188 50.7114
1653.9  6.50038 51.7644
1654.0  6.69834 52.8162
1654.1  6.62184 53.8567
1654.2  6.54414 54.9549
1654.3  6.45559 56.5739
1654.4  6.35182 58.1645
1654.5  6.11032 59.5175
1654.6  5.90191 60.9126
1654.7  5.99085 62.6865
1654.8  6.05828 64.4603
1654.9  5.93128 66.2113
1655.0  5.82336 67.9501
1655.1  5.88686 69.5786
1655.2  5.95671 71.1159
1655.3  6.08379 71.8354
1655.4  6.21072 72.395
1655.5  6.33772 71.526
1655.6  6.46341 70.5893
1655.7  6.57734 69.0437
1655.8  6.66859 67.4676
1655.9  6.55459 65.6356
1656.0  6.45836 63.8466
1656.1  6.52186 62.4446
1656.2  6.56499 61.0433
1656.3  6.42491 59.6465
1656.4  6.30536 58.228
1656.5  6.36886 56.5994
1656.6  6.44001 54.9895
1656.7  6.57992 53.5458
1656.8  6.69328 52.1226
1656.9  6.56628 50.8996
1657.0  6.46472 49.7134
1657.1  6.59172 48.8589
1657.2  6.68949 48.0432
1657.3  6.52439 47.5749
1657.4  6.35307 47.1179
1657.5  6.12407 46.7574
1657.6  5.94342 46.3901
1657.7  6.19726 45.9613
1657.8  6.41584 45.5168
1657.9  6.31434 44.9353
1658.0  6.21159 44.3415
1658.1  6.09759 43.637
1658.2  5.9988  42.947
1658.3  6.03683 42.3872
1658.4  6.08877 41.8434
1658.5  6.26627 41.4379
1658.6  6.4222  41.0633
1658.7  6.38422 40.9669
1658.8  6.3538  40.8885
1658.9  6.3918  40.9735
1659.0  6.44257 41.0932
1659.1  6.60807 41.5242
1659.2  6.76841 41.9884
1659.3  6.88248 42.7524
1659.4  7.00157 43.5139
1659.5  7.16707 44.2624
1659.6  7.33251 45.0044
1659.7  7.49741 45.688
1659.8  7.6447  46.3735
1659.9  7.6317  47.068
1660.0  7.59842 47.803
1660.1  7.38292 48.902
1660.2  7.14452 50.0096
1660.3  6.69975 51.1953
1660.4  6.28218 52.3997
1660.5  6.10418 53.7852
1660.6  5.92494 55.2149
1660.7  5.73455 57.0418
1660.8  5.53121 58.8902
1660.9  5.21371 60.9097
1661.0  4.89491 62.9313
1661.1  4.56441 64.9718
1661.2  4.24794 66.9126
1661.3  4.05732 67.9582
1661.4  3.8822  68.9184
1661.5  3.8442  69.1224
1661.6  3.82016 69.2366
1661.7  3.92159 68.543
1661.8  4.02066 67.771
1661.9  4.09716 66.3025
1662.0  4.1698  64.8335
1662.1  4.2078  63.36
1662.2  4.25851 61.8441
1662.3  4.42361 59.9455
1662.4  4.58216 58.0195
1662.5  4.68366 55.827
1662.6  4.78771 53.6706
1662.7  4.91463 51.8387
1662.8  5.04046 50.0505
1662.9  5.15496 48.6775
1663.0  5.26946 47.4124
1663.1  5.38396 47.1164
1663.2  5.48315 46.8578
1663.3  5.44462 46.9359
1663.4  5.39728 47.0111
1663.5  5.27028 47.0621
1663.6  5.17001 47.1042
1663.7  5.30992 47.0668
1663.8  5.44361 47.0152
1663.9  5.51961 46.8377
1664.0  5.58545 46.6723
1664.1  5.55995 46.6153
1664.2  5.5383  46.5565
1664.3  5.55131 46.4814
1664.4  5.57061 46.4522
1664.5  5.64661 46.8342
1664.6  5.73026 47.2233
1664.7  5.88267 47.6761
1664.8  6.00218 48.1459
1664.9  5.82418 48.7639
1665.0  5.64112 49.3399
1665.1  5.41262 49.5384
1665.2  5.2083  49.7313
1665.3  5.22131 49.8738
1665.4  5.24572 50.0152
1665.5  5.37272 50.1467
1665.6  5.50221 50.2916
1665.7  5.65412 50.5569
1665.8  5.7872  50.8226
1665.9  5.7492  51.0881
1666.0  5.72516 51.4799
1666.1  5.82666 53.0074
1666.2  5.9255  54.5508
1666.3  6.00055 56.2383
1666.4  6.06685 57.9085
1666.5  6.05535 59.442
1666.6  6.05771 61.035
1666.7  6.18463 63.1622
1666.8  6.31046 65.2286
1666.9  6.42496 66.7226
1667.0  6.54327 68.171
1667.1  6.69577 69.2095
1667.2  6.81649 70.2722
1667.3  6.65139 71.554
1667.4  6.51441 72.8129
1667.5  6.62841 73.8804
1667.6  6.73991 75.0012
1667.7  6.82885 76.6007
1667.8  6.89373 78.1563
1667.9  6.74123 79.2983
1668.0  6.61546 80.4734
1668.1  6.72996 81.9454
1668.2  6.81899 83.337
1668.3  6.67891 84.0069
1668.4  6.55811 84.7698
1668.5  6.60911 86.3763
1668.6  6.6626  87.9516
1668.7  6.73856 89.2463
1668.8  6.8045  90.5856
1668.9  6.7795  92.3091
1669.0  6.74554 93.9373
1669.1  6.63104 94.7098
1669.2  6.51784 95.4499
1669.3  6.41628 95.8987
1669.4  6.33772 96.3602
1669.5  6.46472 96.9417
1669.6  6.59551 97.5331
1669.7  6.76041 98.2132
1669.8  6.89884 98.9016
1669.9  6.79734 99.6566
1670.0  6.69584 100.421
1670.1  6.59434 101.269
1670.2  6.5055  102.085
1670.3  6.53052 102.612
1670.4  6.55175 103.121
1670.5  6.53925 103.483
1670.6  6.54581 103.827
1670.7  6.7237  104.01
1670.8  6.87379 104.196
1670.9  6.77179 104.417
1671.0  6.6775  104.601
1671.1  6.6525  104.459
1671.2  6.61729 104.323
1671.3  6.49021 104.242
1671.4  6.40143 104.159
1671.5  6.65543 104.058
1671.6  6.86874 103.967
1671.7  6.71633 103.953
1671.8  6.55993 103.934
1671.9  6.36943 103.874
1672.0  6.20436 103.821
1672.1  6.26786 103.835
1672.2  6.33641 103.864
1672.3  6.45048 104.027
1672.4  6.54664 104.198
1672.5  6.48314 104.444
1672.6  6.42855 104.689
1672.7  6.45404 104.913
1672.8  6.47445 105.136
1672.9  6.44895 105.338
1673.0  6.44507 105.512
1673.1  6.63557 105.444
1673.2  6.79814 105.393
1673.3  6.70959 105.498
1673.4  6.64522 105.577
1673.5  6.79722 105.426
1673.6  6.91879 105.293
1673.7  6.76688 105.326
1673.8  6.63761 105.345
1673.9  6.71361 105.247
1674.0  6.77564 105.163
1674.1  6.71214 105.208
1674.2  6.6512  105.253
1674.3  6.61317 105.303
1674.4  6.59427 105.377
1674.5  6.74677 105.668
1674.6  6.8916  105.945
