# Выгружено из ПО "Атлас - Подсчет запасов"
############################################
~VERSION INFORMATION
#MNEM.UNIT                                    DATA : TYPE DESCRIPTION
VERS.                                         1.20 : CWLS LOG ASCII STANDARD_VERSION 1.20
WRAP.                                           NO : One line per depth step
############################################
~WELL INFORMATION
#MNEM.UNIT                                    DATA : TYPE DESCRIPTION
STRT.M                                         1.6 : Start depth
STOP.M                                      3100.5 : Stop depth
STEP.M                                         0.1 : Step
NULL.                                      -999.25 : Null Value
WELL.                                           14 : 14
X.                                        12543536 : X-coordinate of Well Head
Y.                                         8016266 : Y-coordinate of Well Head
RKB.                                          36.7 : RKB
############################################
~CURVE INFORMATION
#MNEM.UNIT                                    DATA : TYPE DESCRIPTION
DEPT.M                                             : DEPT
ГК.у.е.                                            : 
ПС.мВ                                              : 
############################################
~ASCII
# ...
402.4   3.60981 -999.25
402.5   3.75781 -999.25
402.6   3.89384 -999.25
402.7   3.92235 -999.25
402.8   3.93189 -999.25
402.9   3.77089 -999.25
403.0   3.64267 -999.25
403.1   3.80911 -999.25
403.2   3.93729 -999.25
403.3   3.71976 -999.25
403.4   3.54006 -999.25
403.5   3.70056 -999.25
403.6   3.86676 -999.25
403.7   4.08479 -999.25
403.8   4.26699 -999.25
403.9   4.12699 -999.25
404.0   3.98173 -999.25
404.1   3.78929 -999.25
404.2   3.62164 -999.25
404.3   3.67815 -999.25
404.4   3.71794 -999.25
404.5   3.60744 -999.25
404.6   3.51534 -999.25
404.7   3.58885 -999.25
404.8   3.64164 -999.25
404.9   3.50814 -999.25
405.0   3.37794 -999.25
405.1   3.27747 -999.25
405.2   3.18515 -999.25
405.3   3.16665 -999.25
405.4   3.15641 -999.25
405.5   3.22041 -999.25
405.6   3.3047  -999.25
405.7   3.57224 -999.25
405.8   3.80905 -999.25
405.9   3.76955 -999.25
406.0   3.74711 -999.25
406.1   3.87807 -999.25
406.2   3.9972  -999.25
406.3   4.0092  -999.25
406.4   3.98031 -999.25
406.5   3.58381 -999.25
406.6   3.22056 -999.25
406.7   3.15605 -999.25
406.8   3.11647 -999.25
406.9   3.30097 -999.25
407.0   3.45764 -999.25
407.1   3.36417 -999.25
407.2   3.27491 -999.25
407.3   3.2239  -999.25
407.4   3.20357 -999.25
407.5   3.45907 -999.25
407.6   3.67687 -999.25
407.7   3.55536 -999.25
407.8   3.445   -999.25
407.9   3.435   -999.25
408.0   3.44252 -999.25
408.1   3.60746 -999.25
408.2   3.75176 -999.25
408.3   3.70925 -999.25
408.4   3.64763 -999.25
408.5   3.41413 -999.25
408.6   3.2043  -999.25
408.7   3.2073  -999.25
408.8   3.22561 -999.25
408.9   3.38161 -999.25
409.0   3.51094 -999.25
409.1   3.40047 -999.25
409.2   3.30599 -999.25
409.3   3.356   -999.25
409.4   3.4055  -999.25
409.5   3.4505  -999.25
409.6   3.48037 -999.25
409.7   3.37385 -999.25
409.8   3.29256 -999.25
409.9   3.43806 -999.25
410.0   3.55944 -999.25
410.1   3.46397 -999.25
410.2   3.3757  -999.25
410.3   3.3527  -999.25
410.4   3.34651 -999.25
410.5   3.49151 -999.25
410.6   3.62769 -999.25
410.7   3.6847  -999.25
410.8   3.71453 -999.25
410.9   3.50003 -999.25
411.0   3.29514 -999.25
411.1   3.17668 -999.25
411.2   3.08347 -999.25
411.3   3.21849 -999.25
411.4   3.3436  -999.25
411.5   3.3796  -999.25
411.6   3.42847 -999.25
411.7   3.59349 -999.25
411.8   3.75261 -999.25
411.9   3.85861 -999.25
412.0   3.92082 -999.25
412.1   3.58942 -999.25
412.2   3.28441 -999.25
412.3   3.2184  -999.25
412.4   3.17927 -999.25
412.5   3.38177 -999.25
412.6   3.56909 -999.25
412.7   3.6201  -999.25
412.8   3.63882 -999.25
412.9   3.36733 -999.25
413.0   3.14037 -999.25
413.1   3.31381 -999.25
413.2   3.49066 -999.25
413.3   3.69769 -999.25
413.4   3.87024 -999.25
413.5   3.73274 -999.25
413.6   3.59667 -999.25
413.7   3.47316 -999.25
413.8   3.38672 -999.25
413.9   3.63372 -999.25
414.0   3.85715 -999.25
414.1   3.86865 -999.25
414.2   3.85081 -999.25
414.3   3.56826 -999.25
414.4   3.32936 -999.25
414.5   3.48286 -999.25
414.6   3.619   -999.25
414.7   3.599   -999.25
414.8   3.56088 -999.25
414.9   3.35988 -999.25
415.0   3.19171 -999.25
415.1   3.31867 -999.25
415.2   3.44223 -999.25
415.3   3.53475 -999.25
415.4   3.62656 -999.25
415.5   3.71206 -999.25
415.6   3.79554 -999.25
415.7   3.86105 -999.25
415.8   3.9204  -999.25
415.9   3.9244  -999.25
416.0   3.91359 -999.25
416.1   3.76963 -999.25
416.2   3.64045 -999.25
416.3   3.64495 -999.25
416.4   3.6531  -999.25
416.5   3.6941  -999.25
416.6   3.72726 -999.25
416.7   3.68975 -999.25
416.8   3.64374 -999.25
416.9   3.52124 -999.25
417.0   3.39919 -999.25
417.1   3.28123 -999.25
417.2   3.18408 -999.25
417.3   3.2751  -999.25
417.4   3.36716 -999.25
417.5   3.46866 -999.25
417.6   3.57677 -999.25
417.7   3.74479 -999.25
417.8   3.90651 -999.25
417.9   4.01151 -999.25
418.0   4.1091  -999.25
418.1   4.14009 -999.25
418.2   4.14594 -999.25
418.3   3.92491 -999.25
418.4   3.71824 -999.25
418.5   3.64074 -999.25
418.6   3.60244 -999.25
418.7   3.91749 -999.25
418.8   4.19384 -999.25
418.9   4.12234 -999.25
419.0   4.03688 -999.25
419.1   3.82595 -999.25
419.2   3.64663 -999.25
419.3   3.75314 -999.25
419.4   3.84525 -999.25
419.5   3.80775 -999.25
419.6   3.79311 -999.25
419.7   3.98464 -999.25
419.8   4.1567  -999.25
419.9   4.1537  -999.25
420.0   4.13103 -999.25
420.1   3.93159 -999.25
420.2   3.75639 -999.25
420.3   3.8004  -999.25
420.4   3.82844 -999.25
420.5   3.71294 -999.25
420.6   3.61938 -999.25
420.7   3.7234  -999.25
420.8   3.82861 -999.25
420.9   3.94461 -999.25
421.0   4.03899 -999.25
421.1   3.93902 -999.25
421.2   3.84506 -999.25
421.3   3.80555 -999.25
421.4   3.78687 -999.25
421.5   3.95537 -999.25
421.6   4.10635 -999.25
421.7   4.09985 -999.25
421.8   4.07573 -999.25
421.9   3.89323 -999.25
422.0   3.74527 -999.25
422.1   3.90772 -999.25
422.2   4.05645 -999.25
422.3   4.08095 -999.25
422.4   4.08563 -999.25
422.5   3.91213 -999.25
422.6   3.75864 -999.25
422.7   3.78515 -999.25
422.8   3.82001 -999.25
422.9   3.93001 -999.25
423.0   4.00918 -999.25
423.1   3.81124 -999.25
423.2   3.63031 -999.25
423.3   3.6033  -999.25
423.4   3.57605 -999.25
423.5   3.54655 -999.25
423.6   3.51536 -999.25
423.7   3.46885 -999.25
423.8   3.42875 -999.25
423.9   3.44625 -999.25
424.0   3.46105 -999.25
424.1   3.45155 -999.25
424.2   3.47104 -999.25
424.3   3.75209 -999.25
424.4   3.99854 -999.25
424.5   3.93404 -999.25
424.6   3.87575 -999.25
424.7   3.87325 -999.25
424.8   3.8696  -999.25
424.9   3.8556  -999.25
425.0   3.82889 -999.25
425.1   3.68793 -999.25
425.2   3.56504 -999.25
425.3   3.60555 -999.25
425.4   3.643   -999.25
425.5   3.653   -999.25
425.6   3.64503 -999.25
425.7   3.47501 -999.25
425.8   3.32415 -999.25
425.9   3.34565 -999.25
426.0   3.37591 -999.25
426.1   3.48488 -999.25
426.2   3.5825  -999.25
426.3   3.5775  -999.25
426.4   3.56079 -999.25
426.5   3.43879 -999.25
426.6   3.31682 -999.25
426.7   3.19481 -999.25
426.8   3.08605 -999.25
426.9   3.09655 -999.25
427.0   3.12637 -999.25
427.1   3.32981 -999.25
427.2   3.50437 -999.25
427.3   3.41785 -999.25
427.4   3.35361 -999.25
427.5   3.48961 -999.25
427.6   3.60955 -999.25
427.7   3.58505 -999.25
427.8   3.5583  -999.25
427.9   3.5113  -999.25
428.0   3.47716 -999.25
428.1   3.55863 -999.25
428.2   3.62876 -999.25
428.3   3.59625 -999.25
428.4   3.5654  -999.25
428.5   3.5494  -999.25
428.6   3.51963 -999.25
428.7   3.36561 -999.25
428.8   3.21619 -999.25
428.9   3.10819 -999.25
429.0   3.01976 -999.25
429.1   3.10723 -999.25
429.2   3.19613 -999.25
429.3   3.29765 -999.25
429.4   3.3845  -999.25
429.5   3.3395  -999.25
429.6   3.2991  -999.25
429.7   3.3001  -999.25
429.8   3.31151 -999.25
429.9   3.41651 -999.25
430.0   3.5144  -999.25
430.1   3.54839 -999.25
430.2   3.58419 -999.25
430.3   3.6362  -999.25
430.4   3.69406 -999.25
430.5   3.80456 -999.25
430.6   3.91473 -999.25
430.7   4.02224 -999.25
430.8   4.10539 -999.25
430.9   3.96939 -999.25
431.0   3.83419 -999.25
431.1   3.70623 -999.25
431.2   3.60198 -999.25
431.3   3.712   -999.25
431.4   3.81761 -999.25
431.5   3.88361 -999.25
431.6   3.95587 -999.25
431.7   4.08489 -999.25
431.8   4.19234 -999.25
431.9   4.10584 -999.25
432.0   4.00208 -999.25
432.1   3.74316 -999.25
432.2   3.50047 -999.25
432.3   3.40495 -999.25
432.4   3.32275 -999.25
432.5   3.36025 -999.25
432.6   3.40014 -999.25
432.7   3.46165 -999.25
432.8   3.52561 -999.25
432.9   3.61161 -999.25
433.0   3.70031 -999.25
433.1   3.81328 -999.25
433.2   3.91535 -999.25
433.3   3.91885 -999.25
433.4   3.90759 -999.25
433.5   3.76359 -999.25
433.6   3.63719 -999.25
433.7   3.6692  -999.25
433.8   3.69565 -999.25
433.9   3.67215 -999.25
434.0   3.64204 -999.25
434.1   3.55257 -999.25
434.2   3.47679 -999.25
434.3   3.5248  -999.25
434.4   3.57831 -999.25
434.5   3.68131 -999.25
434.6   3.78473 -999.25
434.7   3.89225 -999.25
434.8   3.96898 -999.25
434.9   3.76898 -999.25
435.0   3.57554 -999.25
435.1   3.44108 -999.25
435.2   3.3201  -999.25
435.3   3.3211  -999.25
435.4   3.3225  -999.25
435.5   3.3275  -999.25
435.6   3.34922 -999.25
435.7   3.52174 -999.25
