# Выгружено из ПО "Атлас - Подсчет запасов"
############################################
~VERSION INFORMATION
#MNEM.UNIT                                    DATA : TYPE DESCRIPTION
VERS.                                         1.20 : CWLS LOG ASCII STANDARD_VERSION 1.20
WRAP.                                           NO : One line per depth step
############################################
~WELL INFORMATION
#MNEM.UNIT                                    DATA : TYPE DESCRIPTION
STRT.M                                         1.6 : Start depth
STOP.M                                      3100.5 : Stop depth
STEP.M                                         0.1 : Step
NULL.                                      -999.25 : Null Value
WELL.                                           14 : 14
X.                                        12543536 : X-coordinate of Well Head
Y.                                         8016266 : Y-coordinate of Well Head
RKB.                                          36.7 : RKB
############################################
~CURVE INFORMATION
#MNEM.UNIT                                    DATA : TYPE DESCRIPTION
DEPT.M                                             : DEPT
ГК.у.е.                                            : 
ПС.мВ                                              : 
############################################
~ASCII
# ...
202.0   3.45606 -999.25
202.1   3.19654 -999.25
202.2   2.94388 -999.25
202.3   2.7529  -999.25
202.4   2.60853 -999.25
202.5   2.88348 -999.25
202.6   3.12056 -999.25
202.7   3.01605 -999.25
202.8   2.93134 -999.25
202.9   3.02485 -999.25
203.0   3.1178  -999.25
203.1   3.2058  -999.25
203.2   3.29521 -999.25
203.3   3.3972  -999.25
203.4   3.47764 -999.25
203.5   3.36416 -999.25
203.6   3.2559  -999.25
203.7   3.1949  -999.25
203.8   3.1432  -999.25
203.9   3.1752  -999.25
204.0   3.18866 -999.25
204.1   3.03515 -999.25
204.2   2.91126 -999.25
204.3   3.05375 -999.25
204.4   3.17169 -999.25
204.5   3.06871 -999.25
204.6   2.97015 -999.25
204.7   2.91165 -999.25
204.8   2.86969 -999.25
204.9   2.9767  -999.25
205.0   3.0678  -999.25
205.1   3.0158  -999.25
205.2   2.97481 -999.25
205.3   3.0328  -999.25
205.4   3.09101 -999.25
205.5   3.151   -999.25
205.6   3.1969  -999.25
205.7   3.1159  -999.25
205.8   3.0484  -999.25
205.9   3.1024  -999.25
206.0   3.16489 -999.25
206.1   3.3039  -999.25
206.2   3.42009 -999.25
206.3   3.3311  -999.25
206.4   3.24735 -999.25
206.5   3.21085 -999.25
206.6   3.17585 -999.25
206.7   3.15435 -999.25
206.8   3.12925 -999.25
206.9   3.07175 -999.25
207.0   3.01125 -999.25
207.1   2.92375 -999.25
207.2   2.85671 -999.25
207.3   2.9737  -999.25
207.4   3.08961 -999.25
207.5   3.19559 -999.25
207.6   3.27816 -999.25
207.7   3.14965 -999.25
207.8   3.02251 -999.25
207.9   2.9075  -999.25
208.0   2.8055  -999.25
208.1   2.8205  -999.25
208.2   2.84311 -999.25
208.3   2.9341  -999.25
208.4   3.02906 -999.25
208.5   3.15954 -999.25
208.6   3.2745  -999.25
208.7   3.2495  -999.25
208.8   3.20656 -999.25
208.9   3.00205 -999.25
209.0   2.82869 -999.25
209.1   2.9357  -999.25
209.2   3.04156 -999.25
209.3   3.13705 -999.25
209.4   3.21689 -999.25
209.5   3.1559  -999.25
209.6   3.08476 -999.25
209.7   2.92225 -999.25
209.8   2.79469 -999.25
209.9   2.9817  -999.25
210.0   3.13751 -999.25
210.1   3.0125  -999.25
210.2   2.90801 -999.25
210.3   2.988   -999.25
210.4   3.06636 -999.25
210.5   3.12985 -999.25
210.6   3.185   -999.25
210.7   3.165   -999.25
210.8   3.13171 -999.25
210.9   2.9787  -999.25
211.0   2.83375 -999.25
211.1   2.76125 -999.25
211.2   2.71327 -999.25
211.3   2.88575 -999.25
211.4   3.0437  -999.25
211.5   3.0707  -999.25
211.6   3.06976 -999.25
211.7   2.81724 -999.25
211.8   2.5925  -999.25
211.9   2.6175  -999.25
212.0   2.64435 -999.25
212.1   2.68785 -999.25
212.2   2.7288  -999.25
212.3   2.7468  -999.25
212.4   2.76846 -999.25
212.5   2.82295 -999.25
212.6   2.8788  -999.25
212.7   2.9468  -999.25
212.8   3.0008  -999.25
212.9   2.9288  -999.25
213.0   2.86725 -999.25
213.1   2.89975 -999.25
213.2   2.91684 -999.25
213.3   2.79535 -999.25
213.4   2.67519 -999.25
213.5   2.56721 -999.25
213.6   2.48039 -999.25
213.7   2.5844  -999.25
213.8   2.68405 -999.25
213.9   2.74455 -999.25
214.0   2.80879 -999.25
214.1   2.9068  -999.25
214.2   3.00616 -999.25
214.3   3.11765 -999.25
214.4   3.21249 -999.25
214.5   3.1575  -999.25
214.6   3.09915 -999.25
214.7   3.01065 -999.25
214.8   2.94674 -999.25
214.9   3.10425 -999.25
215.0   3.2421  -999.25
215.1   3.2031  -999.25
215.2   3.1713  -999.25
215.3   3.2043  -999.25
215.4   3.2326  -999.25
215.5   3.2186  -999.25
215.6   3.18021 -999.25
215.7   2.92219 -999.25
215.8   2.69385 -999.25
215.9   2.73235 -999.25
216.0   2.75231 -999.25
216.1   2.6053  -999.25
216.2   2.46224 -999.25
216.3   2.35475 -999.25
216.4   2.27216 -999.25
216.5   2.41364 -999.25
216.6   2.55579 -999.25
216.7   2.7038  -999.25
216.8   2.831   -999.25
216.9   2.771   -999.25
217.0   2.73114 -999.25
217.1   2.87265 -999.25
217.2   3.0005  -999.25
217.3   3.0055  -999.25
217.4   3.0098  -999.25
217.5   3.0078  -999.25
217.6   2.99601 -999.25
217.7   2.896   -999.25
217.8   2.8121  -999.25
217.9   2.8731  -999.25
218.0   2.93864 -999.25
218.1   3.04515 -999.25
218.2   3.15677 -999.25
218.3   3.31425 -999.25
218.4   3.44419 -999.25
218.5   3.32621 -999.25
218.6   3.19366 -999.25
218.7   2.93014 -999.25
218.8   2.7021  -999.25
218.9   2.7931  -999.25
219.0   2.89474 -999.25
219.1   3.09225 -999.25
219.2   3.24948 -999.25
219.3   3.0445  -999.25
219.4   2.8571  -999.25
219.5   2.8281  -999.25
219.6   2.80485 -999.25
219.7   2.83335 -999.25
219.8   2.8501  -999.25
219.9   2.7611  -999.25
220.0   2.69639 -999.25
220.1   2.8504  -999.25
220.2   2.97654 -999.25
220.3   2.85205 -999.25
220.4   2.7416  -999.25
220.5   2.7576  -999.25
220.6   2.77695 -999.25
220.7   2.82645 -999.25
220.8   2.8682  -999.25
220.9   2.8402  -999.25
221.0   2.8084  -999.25
221.1   2.7424  -999.25
221.2   2.70662 -999.25
221.3   2.94261 -999.25
221.4   3.13768 -999.25
221.5   2.96471 -999.25
221.6   2.79686 -999.25
221.7   2.67535 -999.25
221.8   2.5649  -999.25
221.9   2.5539  -999.25
222.0   2.56499 -999.25
222.1   2.775   -999.25
222.2   2.968   -999.25
222.3   3.008   -999.25
222.4   3.04375 -999.25
222.5   3.04125 -999.25
222.6   3.03975 -999.25
222.7   3.04725 -999.25
222.8   3.04495 -999.25
222.9   2.95445 -999.25
223.0   2.8664  -999.25
223.1   2.8004  -999.25
223.2   2.73429 -999.25
223.3   2.6673  -999.25
223.4   2.59154 -999.25
223.5   2.43706 -999.25
223.6   2.29705 -999.25
223.7   2.28755 -999.25
223.8   2.28939 -999.25
223.9   2.3934  -999.25
224.0   2.50314 -999.25
224.1   2.66465 -999.25
224.2   2.80019 -999.25
224.3   2.7022  -999.25
224.4   2.59188 -999.25
224.5   2.37091 -999.25
224.6   2.18369 -999.25
224.7   2.3007  -999.25
224.8   2.41145 -999.25
224.9   2.46595 -999.25
225.0   2.51055 -999.25
225.1   2.46605 -999.25
225.2   2.42145 -999.25
225.3   2.37595 -999.25
225.4   2.34996 -999.25
225.5   2.49944 -999.25
225.6   2.62211 -999.25
225.7   2.5031  -999.25
225.8   2.39045 -999.25
225.9   2.33495 -999.25
226.0   2.30464 -999.25
226.1   2.50115 -999.25
226.2   2.68811 -999.25
226.3   2.7891  -999.25
226.4   2.85733 -999.25
226.5   2.63086 -999.25
226.6   2.41701 -999.25
226.7   2.317   -999.25
226.8   2.24814 -999.25
226.9   2.45965 -999.25
227.0   2.66484 -999.25
227.1   2.81335 -999.25
227.2   2.9509  -999.25
227.3   2.9899  -999.25
227.4   3.00798 -999.25
227.5   2.83801 -999.25
227.6   2.66941 -999.25
227.7   2.5134  -999.25
227.8   2.36985 -999.25
227.9   2.33835 -999.25
228.0   2.32584 -999.25
228.1   2.48435 -999.25
228.2   2.63816 -999.25
228.3   2.74965 -999.25
228.4   2.85756 -999.25
228.5   2.93305 -999.25
228.6   2.98216 -999.25
228.7   2.79365 -999.25
228.8   2.60526 -999.25
228.9   2.41775 -999.25
229.0   2.26169 -999.25
229.1   2.3887  -999.25
229.2   2.51676 -999.25
229.3   2.65425 -999.25
229.4   2.79076 -999.25
229.5   2.91824 -999.25
229.6   3.02625 -999.25
229.7   2.95875 -999.25
229.8   2.88381 -999.25
229.9   2.7418  -999.25
230.0   2.60046 -999.25
230.1   2.46495 -999.25
230.2   2.35311 -999.25
230.3   2.4541  -999.25
230.4   2.5503  -999.25
230.5   2.6033  -999.25
230.6   2.65295 -999.25
230.7   2.67245 -999.25
230.8   2.69305 -999.25
230.9   2.72355 -999.25
231.0   2.742   -999.25
231.1   2.652   -999.25
231.2   2.55784 -999.25
231.3   2.42635 -999.25
231.4   2.32747 -999.25
231.5   2.52194 -999.25
231.6   2.6933  -999.25
231.7   2.6563  -999.25
231.8   2.6157  -999.25
231.9   2.5427  -999.25
232.0   2.4755  -999.25
232.1   2.4605  -999.25
232.2   2.46967 -999.25
232.3   2.69616 -999.25
232.4   2.8947  -999.25
232.5   2.8417  -999.25
232.6   2.77511 -999.25
232.7   2.5861  -999.25
232.8   2.39981 -999.25
232.9   2.2378  -999.25
233.0   2.10729 -999.25
233.1   2.2603  -999.25
233.2   2.41517 -999.25
233.3   2.58665 -999.25
233.4   2.73154 -999.25
233.5   2.63706 -999.25
233.6   2.5474  -999.25
233.7   2.5014  -999.25
233.8   2.465   -999.25
233.9   2.515   -999.25
234.0   2.5612  -999.25
234.1   2.5732  -999.25
234.2   2.58825 -999.25
234.3   2.63075 -999.25
234.4   2.65689 -999.25
234.5   2.53591 -999.25
234.6   2.41741 -999.25
234.7   2.3214  -999.25
234.8   2.24769 -999.25
234.9   2.3747  -999.25
235.0   2.48245 -999.25
235.1   2.41695 -999.25
235.2   2.37081 -999.25
235.3   2.4988  -999.25
