# Выгружено из ПО "Атлас - Подсчет запасов"
############################################
~VERSION INFORMATION
#MNEM.UNIT                                    DATA : TYPE DESCRIPTION
VERS.                                         1.20 : CWLS LOG ASCII STANDARD_VERSION 1.20
WRAP.                                           NO : One line per depth step
############################################
~WELL INFORMATION
#MNEM.UNIT                                    DATA : TYPE DESCRIPTION
STRT.M                                         1.6 : Start depth
STOP.M                                      3100.5 : Stop depth
STEP.M                                         0.1 : Step
NULL.                                      -999.25 : Null Value
WELL.                                           14 : 14
X.                                        12543536 : X-coordinate of Well Head
Y.                                         8016266 : Y-coordinate of Well Head
RKB.                                          36.7 : RKB
############################################
~CURVE INFORMATION
#MNEM.UNIT                                    DATA : TYPE DESCRIPTION
DEPT.M                                             : DEPT
ГК.у.е.                                            : 
ПС.мВ                                              : 
############################################
~ASCII
1.6     0.0538  -999.25
1.7     0.5918  -999.25
1.8     1.1405  -999.25
1.9     1.7855  -999.25
2.0     2.47495 -999.25
2.1     3.56445 -999.25
2.2     4.60055 -999.25
2.3     5.15605 -999.25
2.4     5.683   -999.25
2.5     5.953   -999.25
2.6     6.23355 -999.25
2.7     6.60905 -999.25
2.8     6.9844  -999.25
2.9     7.3584  -999.25
3.0     7.7079  -999.25
3.1     7.8369  -999.25
3.2     7.95435 -999.25
3.3     7.96785 -999.25
3.4     7.9805  -999.25
3.5     7.9855  -999.25
3.6     7.793   -999.25
3.7     5.823   -999.25
3.8     4.02775 -999.25
3.9     3.80525 -999.25
4.0     3.57635 -999.25
4.1     3.28985 -999.25
4.2     3.01665 -999.25
4.3     2.86315 -999.25
4.4     2.74015 -999.25
4.5     2.89165 -999.25
4.6     3.0501  -999.25
4.7     3.2711  -999.25
4.8     3.47875 -999.25
4.9     3.56625 -999.25
5.0     3.63415 -999.25
5.1     3.52565 -999.25
5.2     3.40935 -999.25
5.3     3.22285 -999.25
5.4     3.0319  -999.25
5.5     2.8009  -999.25
5.6     2.5839  -999.25
5.7     2.4929  -999.25
5.8     2.48825 -999.25
5.9     3.26075 -999.25
6.0     3.98235 -999.25
6.1     4.24585 -999.25
6.2     4.44875 -999.25
6.3     4.10625 -999.25
6.4     3.7535  -999.25
6.5     3.3085  -999.25
6.6     2.8425  -999.25
6.7     2.1875  -999.25
6.8     1.574   -999.25
6.9     1.334   -999.25
7.0     1.10465 -999.25
7.1     0.97115 -999.25
7.2     0.84405 -999.25
7.3     0.77455 -999.25
7.4     0.734899 -999.25
7.5     0.963901 -999.25
7.6     1.19285 -999.25
7.7     1.42135 -999.25
7.8     1.6483  -999.25
7.9     1.8613  -999.25
8.0     2.061   -999.25
8.1     2.141   -999.25
8.2     2.20505 -999.25
8.3     2.12555 -999.25
8.4     2.04735 -999.25
8.5     1.98085 -999.25
8.6     1.90925 -999.25
8.7     1.79175 -999.25
8.8     1.6742  -999.25
8.9     1.5562  -999.25
9.0     1.43985 -999.25
9.1     1.33835 -999.25
9.2     1.2402  -999.25
9.3     1.1722  -999.25
9.4     1.1049  -999.25
9.5     1.0439  -999.25
9.6     0.980551 -999.25
9.7     0.89605 -999.25
9.8     0.81515 -999.25
9.9     0.76665 -999.25
10.0    0.726   -999.25
10.1    0.756   -999.25
10.2    0.78315 -999.25
10.3    0.78465 -999.25
10.4    0.7836  -999.25
10.5    0.7596  -999.25
10.6    0.7412  -999.25
10.7    0.7732  -999.25
10.8    0.7985  -999.25
10.9    0.7635  -999.25
11.0    0.72885 -999.25
11.1    0.69735 -999.25
11.2    0.66865 -999.25
11.3    0.66515 -999.25
11.4    0.6652  -999.25
11.5    0.6972  -999.25
11.6    0.73315 -999.25
11.7    0.80465 -999.25
11.8    0.8829  -999.25
11.9    1.0219  -999.25
12.0    1.1362  -999.25
12.1    1.0282  -999.25
12.2    0.92515 -999.25
12.3    0.86665 -999.25
12.4    0.81975 -999.25
12.5    0.87725 -999.25
12.6    0.93215 -999.25
12.7    0.96365 -999.25
12.8    0.9874  -999.25
12.9    0.9414  -999.25
13.0    0.9039  -999.25
13.1    0.9429  -999.25
13.2    0.9787  -999.25
13.3    0.9857  -999.25
13.4    0.99945 -999.25
13.5    1.07395 -999.25
13.6    1.15275 -999.25
13.7    1.27025 -999.25
13.8    1.38895 -999.25
13.9    1.51845 -999.25
14.0    1.63395 -999.25
14.1    1.62345 -999.25
14.2    1.6035  -999.25
14.3    1.4985  -999.25
14.4    1.41005 -999.25
14.5    1.47055 -999.25
14.6    1.5313  -999.25
14.7    1.5943  -999.25
14.8    1.64625 -999.25
14.9    1.59875 -999.25
15.0    1.55525 -999.25
15.1    1.54775 -999.25
15.2    1.54945 -999.25
15.3    1.63395 -999.25
15.4    1.72915 -999.25
15.5    1.92065 -999.25
15.6    2.10305 -999.25
15.7    2.20355 -999.25
15.8    2.2845  -999.25
15.9    2.1895  -999.25
16.0    2.093   -999.25
16.1    1.983   -999.25
16.2    1.87495 -999.25
16.3    1.78445 -999.25
16.4    1.7102  -999.25
16.5    1.7822  -999.25
16.6    1.8496  -999.25
16.7    1.8756  -999.25
16.8    1.91105 -999.25
16.9    2.03155 -999.25
17.0    2.1336  -999.25
17.1    2.0696  -999.25
17.2    2.0055  -999.25
17.3    1.9405  -999.25
17.4    1.88205 -999.25
17.5    1.88255 -999.25
17.6    1.89865 -999.25
17.7    2.05515 -999.25
17.8    2.2063  -999.25
17.9    2.3093  -999.25
18.0    2.38135 -999.25
18.1    2.17485 -999.25
18.2    1.98445 -999.25
18.3    1.93895 -999.25
18.4    1.9001  -999.25
18.5    1.9211  -999.25
18.6    1.95715 -999.25
18.7    2.12865 -999.25
18.8    2.2728  -999.25
18.9    2.1708  -999.25
19.0    2.07245 -999.25
19.1    2.00695 -999.25
19.2    1.9537  -999.25
19.3    2.0107  -999.25
19.4    2.07955 -999.25
19.5    2.25505 -999.25
19.6    2.4094  -999.25
19.7    2.3734  -999.25
19.8    2.3446  -999.25
19.9    2.3806  -999.25
20.0    2.413   -999.25
20.1    2.413   -999.25
20.2    2.4017  -999.25
20.3    2.2887  -999.25
20.4    2.1721  -999.25
20.5    2.0231  -999.25
20.6    1.89905 -999.25
20.7    1.99955 -999.25
20.8    2.1106  -999.25
20.9    2.3166  -999.25
21.0    2.494   -999.25
21.1    2.414   -999.25
21.2    2.3438  -999.25
21.3    2.3618  -999.25
21.4    2.3686  -999.25
21.5    2.2746  -999.25
21.6    2.173   -999.25
21.7    2.003   -999.25
21.8    1.87995 -999.25
21.9    2.17945 -999.25
22.0    2.44025 -999.25
22.1    2.35275 -999.25
22.2    2.2589  -999.25
22.3    2.1079  -999.25
22.4    1.9793  -999.25
22.5    2.0523  -999.25
22.6    2.11555 -999.25
22.7    2.09105 -999.25
22.8    2.07335 -999.25
22.9    2.11685 -999.25
23.0    2.167   -999.25
23.1    2.277   -999.25
23.2    2.38425 -999.25
23.3    2.46675 -999.25
23.4    2.52375 -999.25
23.5    2.35125 -999.25
23.6    2.17625 -999.25
23.7    1.97875 -999.25
23.8    1.81855 -999.25
23.9    1.99405 -999.25
24.0    2.15455 -999.25
24.1    2.18005 -999.25
24.2    2.2147  -999.25
24.3    2.3317  -999.25
24.4    2.44945 -999.25
24.5    2.57395 -999.25
24.6    2.67335 -999.25
24.7    2.54685 -999.25
24.8    2.42515 -999.25
24.9    2.34665 -999.25
25.0    2.28775 -999.25
25.1    2.40525 -999.25
25.2    2.50045 -999.25
25.3    2.39495 -999.25
25.4    2.29615 -999.25
25.5    2.25765 -999.25
25.6    2.2303  -999.25
25.7    2.3033  -999.25
25.8    2.35765 -999.25
25.9    2.24415 -999.25
26.0    2.1354  -999.25
26.1    2.0694  -999.25
26.2    2.0149  -999.25
26.3    2.0639  -999.25
26.4    2.1107  -999.25
26.5    2.1377  -999.25
26.6    2.15475 -999.25
26.7    2.08225 -999.25
26.8    2.02315 -999.25
26.9    2.08465 -999.25
27.0    2.1386  -999.25
27.1    2.1246  -999.25
27.2    2.1154  -999.25
27.3    2.1494  -999.25
27.4    2.1823  -999.25
27.5    2.2053  -999.25
27.6    2.24125 -999.25
27.7    2.39375 -999.25
27.8    2.5417  -999.25
27.9    2.6487  -999.25
28.0    2.75275 -999.25
28.1    2.83025 -999.25
28.2    2.86551 -999.25
28.3    2.5205  -999.25
28.4    2.23275 -999.25
28.5    2.46025 -999.25
28.6    2.66765 -999.25
28.7    2.69415 -999.25
28.8    2.70095 -999.25
28.9    2.53045 -999.25
29.0    2.35895 -999.25
29.1    2.17845 -999.25
29.2    2.01375 -999.25
29.3    1.99125 -999.25
29.4    1.9934  -999.25
29.5    2.2174  -999.25
29.6    2.4298  -999.25
29.7    2.5378  -999.25
29.8    2.6477  -999.25
29.9    2.7747  -999.25
30.0    2.877   -999.25
30.1    2.757   -999.25
30.2    2.6404  -999.25
30.3    2.5544  -999.25
30.4    2.49385 -999.25
30.5    2.66235 -999.25
30.6    2.7938  -999.25
30.7    2.5918  -999.25
30.8    2.39615 -999.25
30.9    2.25765 -999.25
31.0    2.1558  -999.25
31.1    2.3838  -999.25
31.2    2.5924  -999.25
31.3    2.6264  -999.25
31.4    2.65585 -999.25
31.5    2.64435 -999.25
31.6    2.6256  -999.25
31.7    2.5416  -999.25
31.8    2.46055 -999.25
31.9    2.40605 -999.25
32.0    2.3573  -999.25
32.1    2.3603  -999.25
32.2    2.34985 -999.25
32.3    2.21835 -999.25
32.4    2.1133  -999.25
32.5    2.2463  -999.25
32.6    2.3825  -999.25
32.7    2.5475  -999.25
32.8    2.68215 -999.25
32.9    2.54365 -999.25
33.0    2.41485 -999.25
33.1    2.37335 -999.25
33.2    2.34645 -999.25
33.3    2.45095 -999.25
33.4    2.5391  -999.25
33.5    2.4801  -999.25
33.6    2.42305 -999.25
33.7    2.38355 -999.25
33.8    2.34885 -999.25
33.9    2.35735 -999.25
34.0    2.3714  -999.25
34.1    2.4354  -999.25
34.2    2.4949  -999.25
34.3    2.5139  -999.25
34.4    2.5211  -999.25
34.5    2.4221  -999.25
34.6    2.34605 -999.25
34.7    2.47655 -999.25
34.8    2.6009  -999.25
34.9    2.6699  -999.25
