# Выгружено из ПО "Атлас - Подсчет запасов"
############################################
~VERSION INFORMATION
#MNEM.UNIT                                    DATA : TYPE DESCRIPTION
VERS.                                         1.20 : CWLS LOG ASCII STANDARD_VERSION 1.20
WRAP.                                           NO : One line per depth step
############################################
~WELL INFORMATION
#MNEM.UNIT                                    DATA : TYPE DESCRIPTION
STRT.M                                         1.6 : Start depth
STOP.M                                      3100.5 : Stop depth
STEP.M                                         0.1 : Step
NULL.                                      -999.25 : Null Value
WELL.                                           14 : 14
X.                                        12543536 : X-coordinate of Well Head
Y.                                         8016266 : Y-coordinate of Well Head
RKB.                                          36.7 : RKB
############################################
~CURVE INFORMATION
#MNEM.UNIT                                    DATA : TYPE DESCRIPTION
DEPT.M                                             : DEPT
ГК.у.е.                                            : 
ПС.мВ                                              : 
############################################
~ASCII
# ...
3083.6  7.9448  142.853
3083.7  7.98276 142.834
3083.8  8.01064 142.814
3083.9  7.94722 142.795
3084.0  7.88745 142.778
3084.1  7.86192 142.774
3084.2  7.84411 142.749
3084.3  7.89517 142.524
3084.4  7.9207  142.312
3084.5  7.7177  142.214
3084.6  7.53625 142.115
3084.7  7.54874 142.017
3084.8  7.55875 141.919
3084.9  7.54626 141.821
3085.0  7.55152 141.722
3085.1  7.71672 141.624
3085.2  7.82816 141.527
3085.3  7.45971 141.44
3085.4  7.1176  141.349
3085.5  7.0036  141.232
3085.6  6.90986 141.077
3085.7  6.99825 140.589
3085.8  7.08311 140.073
3085.9  7.13404 139.321
3086.0  7.18506 138.596
3086.1  7.23562 138.125
3086.2  7.29372 137.709
3086.3  7.42087 137.773
3086.4  7.5096  137.867
3086.5  7.2556  138.235
3086.6  7.01053 138.608
3086.7  6.84623 139.032
3086.8  6.698   139.521
3086.9  6.698   140.587
3087.0  6.72974 141.537
3087.1  7.04713 141.431
3087.2  7.35383 141.347
3087.3  7.57209 141.453
3087.4  7.7888  141.58
3087.5  7.9968  141.897
3087.6  8.20483 142.189
3087.7  8.41257 142.246
3087.8  8.63685 142.302
3087.9  9.0044  142.347
3088.0  9.33855 142.394
3088.1  9.36408 142.455
3088.2  9.39841 142.513
3088.3  9.51255 142.549
3088.4  9.61245 142.586
3088.5  9.58695 142.622
3088.6  9.57802 142.659
3088.7  9.71785 142.696
3088.8  9.82998 142.733
3088.9  9.69015 142.769
3089.0  9.58563 142.806
3089.1  9.80189 142.842
3089.2  9.98328 142.879
3089.3  9.85613 142.916
3089.4  9.7699  142.953
3089.5  10.0489 142.989
3089.6  10.2822 143.026
3089.7  10.1049 143.062
3089.8  9.95136 143.099
3089.9  10.0148 143.136
3090.0  10.0682 143.173
3090.1  10.0301 143.209
3090.2  9.98203 143.246
3090.3  9.84236 143.282
3090.4  9.70685 143.319
3090.5  9.60535 143.356
3090.6  9.53558 143.393
3090.7  9.75081 143.429
3090.8  9.96152 143.466
3090.9  10.1263 143.502
3091.0  10.261  143.539
3091.1  10.1214 143.575
3091.2  9.97948 143.612
3091.3  9.81428 143.649
3091.4  9.67235 143.685
3091.5  9.73585 143.716
3091.6  9.80186 143.747
3091.7  9.89025 143.773
3091.8  9.98527 143.799
3091.9  10.1376 143.824
3092.0  10.275  143.85
3092.1  10.275  143.876
3092.2  10.2915 143.902
3092.3  10.4567 143.927
3092.4  10.6024 143.953
3092.5  10.577  143.979
3092.6  10.5659 144.005
3092.7  10.6842 144.03
3092.8  10.8134 144.056
3092.9  11.0372 144.082
3093.0  11.2504 144.108
3093.1  11.3646 144.133
3093.2  11.4696 144.159
3093.3  11.4951 144.185
3093.4  11.5117 144.211
3093.5  11.4481 144.236
3093.6  11.3707 144.262
3093.7  11.1679 144.288
3093.8  -999.25 144.314
3093.9  -999.25 144.339
3094.0  -999.25 144.365
3094.1  -999.25 144.391
3094.2  -999.25 144.417
3094.3  -999.25 144.442
3094.4  -999.25 144.468
3094.5  -999.25 144.494
3094.6  -999.25 144.52
3094.7  -999.25 144.545
3094.8  -999.25 144.571
3094.9  -999.25 144.597
3095.0  -999.25 144.626
3095.1  -999.25 144.687
3095.2  -999.25 144.736
3095.3  -999.25 144.683
3095.4  -999.25 144.63
3095.5  -999.25 144.576
3095.6  -999.25 144.523
3095.7  -999.25 144.47
3095.8  -999.25 144.417
3095.9  -999.25 144.363
3096.0  -999.25 144.306
3096.1  -999.25 144.217
3096.2  -999.25 144.134
3096.3  -999.25 144.102
3096.4  -999.25 144.072
3096.5  -999.25 144.054
3096.6  -999.25 144.035
3096.7  -999.25 144.017
3096.8  -999.25 143.998
3096.9  -999.25 143.98
3097.0  -999.25 143.961
3097.1  -999.25 143.943
3097.2  -999.25 143.924
3097.3  -999.25 143.906
3097.4  -999.25 143.887
3097.5  -999.25 143.868
3097.6  -999.25 143.849
3097.7  -999.25 143.831
3097.8  -999.25 143.812
3097.9  -999.25 143.794
3098.0  -999.25 143.775
3098.1  -999.25 143.757
3098.2  -999.25 143.738
3098.3  -999.25 143.72
3098.4  -999.25 143.701
3098.5  -999.25 143.683
3098.6  -999.25 143.668
3098.7  -999.25 143.691
3098.8  -999.25 143.715
3098.9  -999.25 143.76
3099.0  -999.25 143.805
3099.1  -999.25 143.851
3099.2  -999.25 143.896
3099.3  -999.25 143.941
3099.4  -999.25 143.986
3099.5  -999.25 144.031
3099.6  -999.25 144.075
3099.7  -999.25 144.12
3099.8  -999.25 144.165
3099.9  -999.25 144.209
3100.0  -999.25 144.255
3100.1  -999.25 144.3
3100.2  -999.25 144.344
3100.3  -999.25 144.39
3100.4  -999.25 144.437
3100.5  -999.25 144.504
