# Выгружено из ПО "Атлас - Подсчет запасов"
############################################
~VERSION INFORMATION
#MNEM.UNIT                                    DATA : TYPE DESCRIPTION
VERS.                                         1.20 : CWLS LOG ASCII STANDARD_VERSION 1.20
WRAP.                                           NO : One line per depth step
############################################
~WELL INFORMATION
#MNEM.UNIT                                    DATA : TYPE DESCRIPTION
STRT.M                                         1.6 : Start depth
STOP.M                                      3100.5 : Stop depth
STEP.M                                         0.1 : Step
NULL.                                      -999.25 : Null Value
WELL.                                           14 : 14
X.                                        12543536 : X-coordinate of Well Head
Y.                                         8016266 : Y-coordinate of Well Head
RKB.                                          36.7 : RKB
############################################
~CURVE INFORMATION
#MNEM.UNIT                                    DATA : TYPE DESCRIPTION
DEPT.M                                             : DEPT
ГК.у.е.                                            : 
ПС.мВ                                              : 
############################################
~ASCII
# ...
836.6   3.12734 -999.25
836.7   3.0108  -999.25
836.8   2.9066  -999.25
836.9   2.9126  -999.25
837.0   2.90979 -999.25
837.1   2.82782 -999.25
837.2   2.74704 -999.25
837.3   2.67756 -999.25
837.4   2.60983 -999.25
837.5   2.55779 -999.25
837.6   2.53357 -999.25
837.7   2.75914 -999.25
837.8   2.97526 -999.25
837.9   3.10772 -999.25
838.0   3.21549 -999.25
838.1   3.10052 -999.25
838.2   2.97918 -999.25
838.3   2.80124 -999.25
838.4   2.65249 -999.25
838.5   2.76806 -999.25
838.6   2.87891 -999.25
838.7   2.94793 -999.25
838.8   3.03217 -999.25
838.9   3.2536  -999.25
839.0   3.43573 -999.25
839.1   3.26329 -999.25
839.2   3.1122  -999.25
839.3   3.15419 -999.25
839.4   3.20538 -999.25
839.5   3.33997 -999.25
839.6   3.45524 -999.25
839.7   3.39773 -999.25
839.8   3.35516 -999.25
839.9   3.44663 -999.25
840.0   3.5325  -999.25
840.1   3.56749 -999.25
840.2   3.56847 -999.25
840.3   3.26357 -999.25
840.4   3.00557 -999.25
840.5   3.17217 -999.25
840.6   3.33706 -999.25
840.7   3.48761 -999.25
840.8   3.61574 -999.25
840.9   3.54327 -999.25
841.0   3.46098 -999.25
841.1   3.29104 -999.25
841.2   3.13004 -999.25
841.3   3.05057 -999.25
841.4   2.99318 -999.25
841.5   3.13577 -999.25
841.6   3.27526 -999.25
841.7   3.38779 -999.25
841.8   3.49991 -999.25
841.9   3.60888 -999.25
842.0   3.7019  -999.25
842.1   3.65091 -999.25
842.2   3.60695 -999.25
842.3   3.62645 -999.25
842.4   3.61196 -999.25
842.5   3.28976 -999.25
842.6   2.99635 -999.25
842.7   2.95984 -999.25
842.8   2.9311  -999.25
842.9   2.97209 -999.25
843.0   3.0135  -999.25
843.1   3.05849 -999.25
843.2   3.102   -999.25
843.3   3.13199 -999.25
843.4   3.1587  -999.25
843.5   3.1557  -999.25
843.6   3.17852 -999.25
843.7   3.4336  -999.25
843.8   3.6598  -999.25
843.9   3.62781 -999.25
844.0   3.60616 -999.25
844.1   3.67763 -999.25
844.2   3.75031 -999.25
844.3   3.83328 -999.25
844.4   3.88999 -999.25
844.5   3.70888 -999.25
844.6   3.55125 -999.25
844.7   3.60377 -999.25
844.8   3.66311 -999.25
844.9   3.78407 -999.25
845.0   3.89325 -999.25
845.1   3.89575 -999.25
845.2   3.88454 -999.25
845.3   3.75008 -999.25
845.4   3.63074 -999.25
845.5   3.64825 -999.25
845.6   3.68472 -999.25
845.7   3.89178 -999.25
845.8   4.09522 -999.25
845.9   4.26716 -999.25
846.0   4.41995 -999.25
846.1   4.39945 -999.25
846.2   4.37494 -999.25
846.3   4.31446 -999.25
846.4   4.24383 -999.25
846.5   4.08123 -999.25
846.6   3.92934 -999.25
846.7   3.87283 -999.25
846.8   3.84217 -999.25
846.9   4.04361 -999.25
847.0   4.23746 -999.25
847.1   4.36192 -999.25
847.2   4.45989 -999.25
847.3   4.31893 -999.25
847.4   4.18493 -999.25
847.5   4.11389 -999.25
847.6   4.01832 -999.25
847.7   3.70172 -999.25
847.8   3.41675 -999.25
847.9   3.41425 -999.25
848.0   3.44203 -999.25
848.1   3.74194 -999.25
848.2   3.99909 -999.25
848.3   3.87013 -999.25
848.4   3.75723 -999.25
848.5   3.78975 -999.25
848.6   3.81164 -999.25
848.7   3.73812 -999.25
848.8   3.65493 -999.25
848.9   3.48449 -999.25
849.0   3.3318  -999.25
849.1   3.3398  -999.25
849.2   3.35606 -999.25
849.3   3.44653 -999.25
849.4   3.53014 -999.25
849.5   3.55165 -999.25
849.6   3.59477 -999.25
849.7   3.83234 -999.25
849.8   4.046   -999.25
849.9   4.046   -999.25
850.0   4.05211 -999.25
850.1   4.11309 -999.25
850.2   4.19107 -999.25
850.3   4.4215  -999.25
850.4   4.64283 -999.25
850.5   4.78192 -999.25
850.6   4.89028 -999.25
850.7   4.72323 -999.25
850.8   4.5708  -999.25
850.9   4.5488  -999.25
851.0   4.52199 -999.25
851.1   4.45201 -999.25
851.2   4.36147 -999.25
851.3   4.08656 -999.25
851.4   3.84208 -999.25
851.5   3.8731  -999.25
851.6   3.90646 -999.25
851.7   3.96097 -999.25
851.8   4.02371 -999.25
851.9   4.16067 -999.25
852.0   4.29936 -999.25
852.1   4.45282 -999.25
852.2   4.57088 -999.25
852.3   4.36994 -999.25
852.4   4.18597 -999.25
852.5   4.15545 -999.25
852.6   4.12675 -999.25
852.7   4.11424 -999.25
852.8   4.09004 -999.25
852.9   3.96058 -999.25
853.0   3.87688 -999.25
853.1   4.20528 -999.25
853.2   4.48529 -999.25
853.3   4.32833 -999.25
853.4   4.17869 -999.25
853.5   4.09514 -999.25
853.6   4.04057 -999.25
853.7   4.24613 -999.25
853.8   4.43701 -999.25
853.9   4.49699 -999.25
854.0   4.54219 -999.25
854.1   4.45422 -999.25
854.2   4.38356 -999.25
854.3   4.46903 -999.25
854.4   4.55744 -999.25
854.5   4.67251 -999.25
854.6   4.77415 -999.25
854.7   4.75564 -999.25
854.8   4.72604 -999.25
854.9   4.59658 -999.25
855.0   4.44607 -999.25
855.1   4.10717 -999.25
855.2   3.80155 -999.25
855.3   3.79705 -999.25
855.4   3.79678 -999.25
855.5   3.8348  -999.25
855.6   3.86775 -999.25
855.7   3.85525 -999.25
855.8   3.86352 -999.25
855.9   4.05846 -999.25
856.0   4.24501 -999.25
856.1   4.35498 -999.25
856.2   4.42427 -999.25
856.3   4.12736 -999.25
856.4   3.85522 -999.25
856.5   3.80719 -999.25
856.6   3.78602 -999.25
856.7   4.00609 -999.25
856.8   4.21141 -999.25
856.9   4.28538 -999.25
857.0   4.33268 -999.25
857.1   4.13974 -999.25
857.2   3.97171 -999.25
857.3   4.02869 -999.25
857.4   4.08911 -999.25
857.5   4.18066 -999.25
857.6   4.28467 -999.25
857.7   4.50124 -999.25
857.8   4.6966  -999.25
857.9   4.7026  -999.25
858.0   4.68848 -999.25
858.1   4.49354 -999.25
858.2   4.30529 -999.25
858.3   4.17833 -999.25
858.4   4.06833 -999.25
858.5   4.11186 -999.25
858.6   4.15305 -999.25
858.7   4.17356 -999.25
858.8   4.20441 -999.25
858.9   4.32837 -999.25
859.0   4.45016 -999.25
859.1   4.55163 -999.25
859.2   4.62503 -999.25
859.3   4.44559 -999.25
859.4   4.2641  -999.25
859.5   4.06398 -999.25
859.6   3.89526 -999.25
859.7   4.00779 -999.25
859.8   4.11831 -999.25
859.9   4.21128 -999.25
860.0   4.29025 -999.25
860.1   4.24276 -999.25
860.2   4.18599 -999.25
860.3   4.04603 -999.25
860.4   3.91502 -999.25
860.5   3.86499 -999.25
860.6   3.83016 -999.25
860.7   3.93169 -999.25
860.8   4.04467 -999.25
860.9   4.2611  -999.25
861.0   4.46771 -999.25
861.1   4.58467 -999.25
861.2   4.64556 -999.25
861.3   4.20169 -999.25
861.4   3.81399 -999.25
861.5   3.93456 -999.25
861.6   4.06747 -999.25
861.7   4.31205 -999.25
861.8   4.53761 -999.25
861.9   4.59359 -999.25
862.0   4.6406  -999.25
862.1   4.60661 -999.25
862.2   4.56194 -999.25
862.3   4.42148 -999.25
862.4   4.29604 -999.25
862.5   4.30655 -999.25
862.6   4.30354 -999.25
862.7   4.179   -999.25
862.8   4.08917 -999.25
862.9   4.3106  -999.25
863.0   4.5148  -999.25
863.1   4.56279 -999.25
863.2   4.58173 -999.25
863.3   4.3393  -999.25
863.4   4.13219 -999.25
863.5   4.24476 -999.25
863.6   4.36442 -999.25
863.7   4.54847 -999.25
863.8   4.71585 -999.25
863.9   4.73435 -999.25
864.0   4.73088 -999.25
864.1   4.52994 -999.25
864.2   4.344   -999.25
864.3   4.29401 -999.25
864.4   4.24716 -999.25
864.5   4.22865 -999.25
864.6   4.23582 -999.25
864.7   4.47389 -999.25
864.8   4.69751 -999.25
864.9   4.79248 -999.25
865.0   4.86504 -999.25
865.1   4.73558 -999.25
865.2   4.63231 -999.25
865.3   4.76527 -999.25
865.4   4.85455 -999.25
865.5   4.54836 -999.25
865.6   4.28011 -999.25
865.7   4.35113 -999.25
865.8   4.41865 -999.25
865.9   4.45514 -999.25
866.0   4.4918  -999.25
866.1   4.52979 -999.25
866.2   4.57231 -999.25
866.3   4.65528 -999.25
866.4   4.73035 -999.25
866.5   4.73385 -999.25
866.6   4.7412  -999.25
866.7   4.78322 -999.25
866.8   4.78747 -999.25
866.9   4.45257 -999.25
867.0   4.1476  -999.25
867.1   4.11361 -999.25
867.2   4.07459 -999.25
867.3   3.99062 -999.25
867.4   3.91027 -999.25
867.5   3.86274 -999.25
867.6   3.83747 -999.25
867.7   4.01202 -999.25
867.8   4.16675 -999.25
867.9   4.14425 -999.25
868.0   4.13721 -999.25
868.1   4.26917 -999.25
868.2   4.40361 -999.25
868.3   4.55957 -999.25
868.4   4.71119 -999.25
868.5   4.82376 -999.25
868.6   4.90348 -999.25
868.7   4.68841 -999.25
868.8   4.50721 -999.25
868.9   4.62917 -999.25
869.0   4.7399  -999.25
869.1   4.7489  -999.25
869.2   4.77151 -999.25
869.3   4.91647 -999.25
869.4   5.05586 -999.25
869.5   5.14491 -999.25
869.6   5.20738 -999.25
869.7   5.03133 -999.25
869.8   4.85879 -999.25
869.9   4.71683 -999.25
