# Выгружено из ПО "Атлас - Подсчет запасов"
############################################
~VERSION INFORMATION
#MNEM.UNIT                                    DATA : TYPE DESCRIPTION
VERS.                                         1.20 : CWLS LOG ASCII STANDARD_VERSION 1.20
WRAP.                                           NO : One line per depth step
############################################
~WELL INFORMATION
#MNEM.UNIT                                    DATA : TYPE DESCRIPTION
STRT.M                                         1.6 : Start depth
STOP.M                                      3100.5 : Stop depth
STEP.M                                         0.1 : Step
NULL.                                      -999.25 : Null Value
WELL.                                           14 : 14
X.                                        12543536 : X-coordinate of Well Head
Y.                                         8016266 : Y-coordinate of Well Head
RKB.                                          36.7 : RKB
############################################
~CURVE INFORMATION
#MNEM.UNIT                                    DATA : TYPE DESCRIPTION
DEPT.M                                             : DEPT
ГК.у.е.                                            : 
ПС.мВ                                              : 
############################################
~ASCII
# ...
1238.5  6.25802 73.413
1238.6  6.39165 74.1721
1238.7  6.46811 73.8538
1238.8  6.55227 73.3929
1238.9  6.70477 71.6544
1239.0  6.83434 69.988
1239.1  6.75784 68.969
1239.2  6.6903  67.9047
1239.3  6.70331 66.4313
1239.4  6.73282 64.9588
1239.5  6.91082 63.4783
1239.6  7.0672  62.0312
1239.7  7.02922 60.8844
1239.8  6.97207 59.7746
1239.9  6.74307 59.0111
1240.0  6.53825 58.3282
1240.1  6.55075 58.3697
1240.2  6.54294 58.4835
1240.3  6.35232 59.249
1240.4  6.17209 60.0135
1240.5  6.08309 60.7775
1240.6  6.00045 61.3471
1240.7  5.97496 60.1693
1240.8  5.96091 59.0341
1240.9  6.04991 58.2956
1241.0  6.14016 57.5162
1241.1  6.24166 56.3697
1241.2  6.31774 55.2392
1241.3  6.16515 54.2511
1241.4  6.0242  53.2743
1241.5  5.9862  52.3888
1241.6  5.9571  51.5124
1241.7  6.00807 50.7168
1241.8  6.06672 49.9432
1241.9  6.19372 49.3762
1242.0  6.28637 48.7971
1242.1  6.07037 48.1091
1242.2  5.8747  47.4441
1242.3  5.86169 46.9853
1242.4  5.86146 46.5373
1242.5  5.97596 46.1808
1242.6  6.0828  45.8619
1242.7  6.12078 45.8809
1242.8  6.14103 45.9108
1242.9  6.00153 46.0383
1243.0  5.87345 46.1912
1243.1  5.84795 46.5732
1243.2  5.81479 46.9533
1243.3  5.71273 47.3165
1243.4  5.6223  47.6845
1243.5  5.6353  48.0984
1243.6  5.65716 48.4774
1243.7  5.75859 48.5414
1243.8  5.85891 48.6047
1243.9  5.94791 48.6617
1244.0  6.01654 48.6977
1244.1  5.90204 48.5452
1244.2  5.81681 48.3882
1244.3  5.99492 48.1906
1244.4  6.13718 47.9754
1244.5  5.95918 47.5994
1244.6  5.81556 47.24
1244.7  5.98096 47.0301
1244.8  6.11473 46.8231
1244.9  5.96223 46.6446
1245.0  5.83391 46.4814
1245.1  5.92291 46.4559
1245.2  5.9979  46.4464
1245.3  5.94687 46.5805
1245.4  5.91372 46.7258
1245.5  6.04072 46.9738
1245.6  6.14484 47.2283
1245.7  6.04341 47.5406
1245.8  5.96346 47.8462
1245.9  6.07796 48.0882
1246.0  6.18225 48.3137
1246.1  6.19475 48.3902
1246.2  6.2073  48.4622
1246.3  6.22031 48.4937
1246.4  6.20777 48.529
1246.5  5.96577 48.599
1246.6  5.75185 48.6761
1246.7  5.79033 48.8165
1246.8  5.83391 48.9857
1246.9  5.92291 49.4122
1247.0  5.99915 49.8292
1247.1  5.96065 50.1607
1247.2  5.9222  50.5476
1247.3  5.88417 51.4331
1247.4  5.83854 52.1333
1247.5  5.72404 51.1778
1247.6  5.6223  50.2932
1247.7  5.63529 50.0453
1247.8  5.63809 49.8079
1247.9  5.54909 49.6674
1248.0  5.48682 49.5002
1248.1  5.66482 49.0927
1248.2  5.79698 48.8025
1248.3  5.51681 49.5675
1248.4  5.27902 50.3315
1248.5  5.41902 51.096
1248.6  5.55771 51.7815
1248.7  5.68463 51.7565
1248.8  5.8003  51.6525
1248.9  5.8133  50.8385
1249.0  5.83516 50.0246
1249.1  5.93666 49.2111
1249.2  6.04201 48.3975
1249.3  6.18209 47.5825
1249.4  6.28763 46.7686
1249.5  6.08413 45.9551
1249.6  5.88444 45.5174
1249.7  5.71904 48.4581
1249.8  5.5662  51.4116
1249.9  5.5282  54.4436
1250.0  5.50166 57.7695
1250.1  5.57816 63.7375
1250.2  5.647   69.1187
1250.3  5.647   69.2252
1250.4  5.66097 69.1924
1250.5  5.80047 67.9079
1250.6  5.94131 66.5984
1250.7  6.09422 65.0643
1250.8  6.24982 63.5047
1250.9  6.42782 61.7337
1251.0  6.60072 60.0099
1251.1  6.72772 58.7104
1251.2  6.84075 57.4015
1251.3  6.82824 56.0061
1251.4  6.81315 54.6098
1251.5  6.77465 53.1893
1251.6  6.7362  51.7568
1251.7  6.69822 50.2162
1251.8  6.67291 48.7458
1251.9  6.76191 47.9243
1252.0  6.83309 47.134
1252.1  6.74409 46.6245
1252.2  6.6602  46.1596
1252.3  6.62217 46.0956
1252.4  6.56763 46.0387
1252.5  6.36413 46.0452
1252.6  6.18355 46.0274
1252.7  6.20904 45.7921
1252.8  6.22815 45.5602
1252.9  6.18965 45.3627
1253.0  6.14609 45.1646
1253.1  6.05709 44.9606
1253.2  5.96299 44.7917
1253.3  5.82291 44.9382
1253.4  5.72123 45.0809
1253.5  5.96323 45.1894
1253.6  6.19246 45.2972
1253.7  6.30689 45.3986
1253.8  6.37816 45.4703
1253.9  6.06016 45.2733
1254.0  5.76254 45.0654
1254.1  5.64804 44.7594
1254.2  5.54245 44.456
1254.3  5.51693 44.1758
1254.4  5.50416 43.9253
1254.5  5.60566 43.9378
1254.6  5.71061 43.986
1254.7  5.84653 44.3552
1254.8  5.95248 44.7307
1254.9  5.78748 45.1572
1255.0  5.64411 45.6532
1255.1  5.69511 46.7742
1255.2  5.75496 47.9003
1255.3  5.89454 49.073
1255.4  6.01239 50.3853
1255.5  5.93639 52.9653
1255.6  5.86415 55.5514
1255.7  5.82567 58.1923
1255.8  5.7885  60.9655
1255.9  5.7635  64.8955
1256.0  5.73334 68.6653
1256.1  5.65684 70.9953
1256.2  5.60071 73.3253
1256.3  5.72779 75.6582
1256.4  5.84455 77.5821
1256.5  5.87005 75.8556
1256.6  5.88409 73.9968
1256.7  5.79515 70.9487
1256.8  5.72516 68.065
1256.9  5.82666 66.697
1257.0  5.91294 65.7326
1257.1  5.86244 68.3956
1257.2  5.81955 71.0725
1257.3  5.84507 73.8772
1257.4  5.88322 77.1712
1257.5  6.03522 84.8937
1257.6  6.1695  91.835
1257.7  6.14451 91.7556
1257.8  6.13722 91.676
1257.9  6.28922 91.5965
1258.0  6.39296 91.6459
1258.1  6.06296 92.8534
1258.2  5.78251 94.0609
1258.3  5.94761 95.2696
1258.4  6.08964 96.1746
1258.5  6.02614 94.3631
1258.6  5.99442 92.5428
1258.7  6.24826 90.6435
1258.8  6.45287 88.6424
1258.9  6.21187 85.7505
1259.0  6.00641 82.8706
1259.1  6.12041 80.0996
1259.2  6.19889 77.3968
1259.3  5.95774 75.3045
1259.4  5.72698 73.3374
1259.5  5.58698 72.4729
1259.6  5.48261 71.5939
1259.7  5.69848 70.584
1259.8  5.91463 69.6154
1259.9  6.13063 69.0304
1260.0  6.34913 68.4308
1260.1  6.59013 67.6993
1260.2  6.807   67.0072
1260.3  6.807   66.6695
1260.4  6.79178 66.3529
1260.5  6.63978 66.2224
1260.6  6.50045 66.085
1260.7  6.47496 65.8851
1260.8  6.44434 65.6697
1260.9  6.36784 65.3172
1261.0  6.31557 64.963
1261.1  6.48107 64.5935
1261.2  6.61599 64.2403
1261.3  6.47591 64.0337
1261.4  6.36907 63.85
1261.5  6.55957 63.8695
1261.6  6.71324 64.0089
1261.7  6.53585 65.2261
1261.8  6.3798  66.4944
1261.9  6.4178  68.2059
1262.0  6.46341 69.9645
1262.1  6.57741 72.1465
1262.2  6.69021 74.0209
1262.3  6.79227 73.1304
1262.4  6.86743 72.2409
1262.5  6.70193 71.3514
1262.6  6.57081 70.462
1262.7  6.7487  69.573
1262.8  6.90389 68.6828
1262.9  6.85289 67.7923
1263.0  6.8045  67.8283
1263.1  6.7795  76.1913
1263.2  6.77731 84.1227
1263.3  6.98044 88.1797
1263.4  7.14268 91.9042
1263.5  6.93968 92.6852
1263.6  6.77476 93.2197
1263.7  6.95215 91.5382
1263.8  7.10059 89.7181
1263.9  6.98659 86.6731
1264.0  6.884   83.5839
1264.1  6.884   80.0974
1264.2  6.85984 76.6978
1264.3  6.61819 74.0762
1264.4  6.41752 71.5761
1264.5  6.58252 70.1386
1264.6  6.74626 68.7571
1264.7  6.89867 67.8797
1264.8  7.05127 66.9867
1264.9  7.20377 65.9652
1265.0  7.35752 64.9863
1265.1  7.52252 64.3903
1265.2  7.64178 63.7814
1265.3  7.3496  63.0555
1265.4  7.07934 62.353
1265.5  7.00284 61.8535
1265.6  6.94035 61.3229
1265.7  7.00382 60.5134
1265.8  7.0585  59.662
1265.9  7.0335  58.4435
1266.0  7.01606 57.2001
1266.1  7.06656 55.7331
1266.2  7.09424 54.2844
1266.3  6.91663 52.9986
1266.4  6.77097 51.7001
1266.5  6.91047 50.2726
1266.6  7.05126 48.8978
1266.7  7.20367 47.9974
1266.8  7.35627 47.0987
1266.9  7.50877 46.2267
1267.0  7.65616 45.4314
1267.1  7.75766 45.3259
1267.2  7.80707 45.2067
1267.3  7.38782 44.9635
1267.4  6.98807 44.7116
1267.5  6.75907 44.3781
1267.6  6.5492  44.0452
1267.7  6.51122 43.7179
1267.8  6.48466 43.3968
1267.9  6.56116 43.1348
1268.0  6.62364 42.8739
1268.1  6.56014 42.6229
1268.2  6.49029 42.39
1268.3  6.36321 42.3205
1268.4  6.24264 42.2457
1268.5  6.17914 42.1232
1268.6  6.13851 42.0177
1268.7  6.30341 42.0641
1268.8  6.47363 42.1148
1268.9  6.68963 42.2028
1269.0  6.8827  42.305
1269.1  6.8697  42.5345
1269.2  6.8618  42.799
1269.3  6.89983 43.3794
1269.4  6.90351 43.9368
1269.5  6.59901 44.2943
1269.6  6.31099 44.8059
1269.7  6.17108 46.7028
1269.8  6.05391 48.5816
1269.9  6.14291 50.2751
1270.0  6.19502 52.2859
1270.1  5.91552 57.1489
1270.2  5.68306 62.1298
1270.3  5.87368 68.178
1270.4  6.03994 74.5743
1270.5  5.98944 84.1658
1270.6  5.95541 92.8049
1270.7  6.06934 92.8839
1270.8  6.14912 92.963
1270.9  5.92062 93.0425
1271.0  5.69973 92.8309
1271.1  5.54723 90.0029
1271.2  5.42526 87.2297
1271.3  5.57785 84.9463
1271.4  5.715   82.7056
1271.5  5.715   80.8241
1271.6  5.70484 78.9567
1271.7  5.60341 77.2163
1271.8  5.51325 75.5246
1271.9  5.52575 74.2915
