# Выгружено из ПО "Атлас - Подсчет запасов"
############################################
~VERSION INFORMATION
#MNEM.UNIT                                    DATA : TYPE DESCRIPTION
VERS.                                         1.20 : CWLS LOG ASCII STANDARD_VERSION 1.20
WRAP.                                           NO : One line per depth step
############################################
~WELL INFORMATION
#MNEM.UNIT                                    DATA : TYPE DESCRIPTION
STRT.M                                         1.6 : Start depth
STOP.M                                      3100.5 : Stop depth
STEP.M                                         0.1 : Step
NULL.                                      -999.25 : Null Value
WELL.                                           14 : 14
X.                                        12543536 : X-coordinate of Well Head
Y.                                         8016266 : Y-coordinate of Well Head
RKB.                                          36.7 : RKB
############################################
~CURVE INFORMATION
#MNEM.UNIT                                    DATA : TYPE DESCRIPTION
DEPT.M                                             : DEPT
ГК.у.е.                                            : 
ПС.мВ                                              : 
############################################
~ASCII
# ...
1037.1  5.23309 100.906
1037.2  5.12845 101.304
1037.3  5.15297 101.559
1037.4  5.18436 101.817
1037.5  5.27786 102.103
1037.6  5.3699  102.396
1037.7  5.44886 102.746
1037.8  5.4765  103.071
1037.9  5.042   103.166
1038.0  4.66016 103.242
1038.1  4.75166 103.147
1038.2  4.84701 102.991
1038.3  4.97709 102.291
1038.4  5.10506 101.62
1038.5  5.21556 101.206
1038.6  5.29499 100.811
1038.7  5.09511 100.588
1038.8  4.9164  100.353
1038.9  4.9304  100.003
1039.0  4.96272 99.6944
1039.1  5.15972 99.7579
1039.2  5.35286 99.8309
1039.3  5.51146 99.99
1039.4  5.64689 100.158
1039.5  5.57589 100.413
1039.6  5.48648 100.655
1039.7  5.23164 100.782
1039.8  5.01246 100.945
1039.9  5.11696 101.422
1040.0  5.21791 101.852
1040.1  5.28691 101.852
1040.2  5.35791 101.823
1040.3  5.44696 101.537
1040.4  5.52475 101.26
1040.5  5.50225 101.069
1040.6  5.46354 100.865
1040.7  5.27915 100.547
1040.8  5.11966 100.229
1040.9  5.18616 99.9106
1041.0  5.2447  99.6144
1041.1  5.2317  99.5189
1041.2  5.20929 99.4458
1041.3  5.10223 99.5733
1041.4  4.99053 99.7007
1041.5  4.83603 99.8277
1041.6  4.6935  99.9611
1041.7  4.65852 100.152
1041.8  4.64232 100.343
1041.9  4.79532 100.534
1042.0  4.94301 100.725
1042.1  5.04301 100.916
1042.2  5.1411  101.107
1042.3  5.22215 101.298
1042.4  5.29084 101.489
1042.5  5.24934 101.68
1042.6  5.20895 101.871
1042.7  5.17847 102.062
1042.8  5.14434 102.253
1042.9  5.07784 102.444
1043.0  5.03362 102.619
1043.1  5.18962 102.651
1043.2  5.34536 102.647
1043.3  5.49895 102.329
1043.4  5.62864 101.976
1043.5  5.54514 101.308
1043.6  5.43118 100.69
1043.7  5.04341 100.531
1043.8  4.69355 100.388
1043.9  4.68905 100.388
1044.0  4.70047 100.391
1044.1  4.85497 100.423
1044.2  4.99025 100.47
1044.3  4.95272 100.661
1044.4  4.90548 100.855
1044.5  4.77048 101.078
1044.6  4.65856 101.311
1044.7  4.754   101.629
1044.8  4.83825 101.935
1044.9  4.82075 102.126
1045.0  4.81601 102.307
1045.1  4.92601 102.402
1045.2  5.01179 102.514
1045.3  4.87971 102.769
1045.4  4.75189 102.988
1045.5  4.66089 102.893
1045.6  4.59211 102.775
1045.7  4.72303 102.457
1045.8  4.84621 102.18
1045.9  4.89821 102.275
1046.0  4.9437  102.316
1046.1  4.9307  101.871
1046.2  4.92445 101.454
1046.3  4.97899 101.295
1046.4  5.04097 101.126
1046.5  5.17047 100.871
1046.6  5.27629 100.639
1046.7  5.16936 100.607
1046.8  5.05002 100.589
1046.9  4.82052 100.684
1047.0  4.60344 100.789
1047.1  4.49794 100.98
1047.2  4.40565 101.171
1047.3  4.43217 101.362
1047.4  4.48584 101.55
1047.5  4.78384 101.709
1047.6  5.05465 101.865
1047.7  5.08114 101.992
1047.8  5.11656 102.122
1047.9  5.23206 102.281
1048.0  5.34156 102.425
1048.1  5.39706 102.425
1048.2  5.4478  102.425
1048.3  5.45581 102.425
1048.4  5.47081 102.424
1048.5  5.54881 102.416
1048.6  5.6124  102.401
1048.7  5.54644 102.322
1048.8  5.46432 102.242
1048.9  5.23782 102.163
1049.0  5.01868 102.083
1049.1  4.86568 102.003
1049.2  4.75176 101.935
1049.3  4.98941 101.975
1049.4  5.22042 102.027
1049.5  5.39442 102.186
1049.6  5.54375 102.345
1049.7  5.47129 102.504
1049.8  5.39153 102.664
1049.9  5.24703 102.823
1050.0  5.12992 102.982
1050.1  5.25892 103.141
1050.2  5.38431 103.3
1050.3  5.47736 103.459
1050.4  5.54858 103.618
1050.5  5.42458 103.777
1050.6  5.30274 103.937
1050.7  5.20031 104.096
1050.8  5.12362 104.242
1050.9  5.27962 104.268
1051.0  5.43086 104.281
1051.1  5.53936 104.175
1051.2  5.65181 104.091
1051.3  5.7999  104.202
1051.4  5.93375 104.313
1051.5  5.94125 104.424
1051.6  5.93169 104.535
1051.7  5.76879 104.646
1051.8  5.62335 104.757
1051.9  5.63685 104.868
1052.0  5.6459  104.979
1052.1  5.6149  105.09
1052.2  5.57214 105.201
1052.3  5.42355 105.312
1052.4  5.28404 105.423
1052.5  5.22454 105.534
1052.6  5.18396 105.652
1052.7  5.31338 105.835
1052.8  5.43706 106.018
1052.9  5.50756 106.209
1053.0  5.55788 106.38
1053.1  5.42688 106.38
1053.2  5.33021 106.383
1053.3  5.54234 106.415
1053.4  5.74506 106.402
1053.5  5.86556 105.989
1053.6  5.95239 105.589
1053.7  5.73652 105.304
1053.8  5.53875 105.027
1053.9  5.50625 104.836
1054.0  5.49262 104.684
1054.1  5.64862 104.869
1054.2  5.77629 105.057
1054.3  5.64921 105.28
1054.4  5.53325 105.528
1054.5  5.51575 106.005
1054.6  5.5025  106.476
1054.7  5.52749 106.89
1054.8  5.53043 107.285
1054.9  5.33493 107.508
1055.0  5.16025 107.679
1055.1  5.17275 107.393
1055.2  5.20171 107.1
1055.3  5.37882 106.75
1055.4  5.52739 106.422
1055.5  5.42139 106.295
1055.6  5.30919 106.168
1055.7  5.14129 106.041
1055.8  5.00902 105.92
1055.9  5.19902 105.856
1056.0  5.38066 105.805
1056.1  5.48716 105.869
1056.2  5.5754  105.948
1056.3  5.49935 106.171
1056.4  5.42174 106.391
1056.5  5.32924 106.582
1056.6  5.25045 106.779
1056.7  5.29493 107.033
1056.8  5.31277 107.269
1056.9  5.09077 107.333
1057.0  4.90121 107.396
1057.1  5.00321 107.46
1057.2  5.094   107.492
1057.3  5.08399 107.237
1057.4  5.08797 106.954
1057.5  5.21747 106.413
1057.6  5.35086 105.92
1057.7  5.51926 105.856
1057.8  5.66189 105.796
1057.9  5.57089 105.764
1058.0  5.46953 105.729
1058.1  5.27503 105.665
1058.2  5.10815 105.624
1058.3  5.1897  105.783
1058.4  5.23046 105.913
1058.5  4.90546 105.786
1058.6  4.59299 105.69
1058.7  4.39311 105.881
1058.8  4.2137  106.063
1058.9  4.2207  106.158
1059.0  4.25238 106.25
1059.1  4.50588 106.314
1059.2  4.72625 106.41
1059.3  4.6487  106.792
1059.4  4.56824 107.161
1059.5  4.46074 107.416
1059.6  4.35905 107.623
1059.7  4.30958 107.4
1059.8  4.27922 107.167
1059.9  4.42122 106.849
1060.0  4.55155 106.53
1060.1  4.57705 106.212
1060.2  4.60841 105.911
1060.3  4.69246 105.756
1060.4  4.78782 105.613
1060.5  4.98582 105.56
1060.6  5.1715  105.507
1060.7  5.24646 105.454
1060.8  5.30969 105.405
1060.9  5.2667  105.399
1061.0  5.21689 105.397
1061.1  5.10589 105.436
1061.2  5.0082  105.476
1061.3  5.03021 105.516
1061.4  5.05576 105.556
1061.5  5.11326 105.596
1061.6  5.18466 105.636
1061.7  5.38104 105.675
1061.8  5.55169 105.715
1061.9  5.48869 105.755
1062.0  5.42674 105.795
1062.1  5.37424 105.834
1062.2  5.33385 105.874
1062.3  5.4024  105.914
1062.4  5.47616 105.947
1062.5  5.59766 105.913
1062.6  5.67488 105.872
1062.7  5.35408 105.766
1062.8  5.04528 105.658
1062.9  4.84828 105.531
1063.0  4.66224 105.404
1063.1  4.57474 105.277
1063.2  4.51121 105.156
1063.3  4.6633  105.092
1063.4  4.81442 105.051
1063.5  4.95842 105.21
1063.6  5.08275 105.372
1063.7  5.03028 105.563
1063.8  4.98175 105.754
1063.9  4.96925 105.945
1064.0  4.97031 106.133
1064.1  5.09332 106.292
1064.2  5.20045 106.46
1064.3  5.16493 106.715
1064.4  5.13816 106.944
1064.5  5.18966 106.944
1064.6  5.2441  106.944
1064.7  5.32506 106.944
1064.8  5.40611 106.944
1064.9  5.48711 106.944
1065.0  5.56385 106.944
1065.1  5.60235 106.944
1065.2  5.64265 106.931
1065.3  5.69919 106.804
1065.4  5.75941 106.703
1065.5  5.85341 106.83
1065.6  5.95406 106.96
1065.7  6.11446 107.119
1065.8  6.24423 107.279
1065.9  6.09673 107.438
1066.0  5.94137 107.6
1066.1  5.71537 107.791
1066.2  5.52906 107.973
1066.3  5.69966 108.068
1066.4  5.86737 108.157
1066.5  6.01087 108.189
1066.6  6.1458  108.199
1066.7  6.20377 108.008
1066.8  6.23973 107.807
1066.9  6.07723 107.521
1067.0  5.91533 107.234
1067.1  5.75883 106.948
1067.2  5.62325 106.649
1067.3  5.67579 106.234
1067.4  5.72525 105.872
1067.5  5.74775 105.967
1067.6  5.75824 106.031
1067.7  5.6608  105.808
1067.8  5.56599 105.592
1067.9  5.49599 105.433
1068.0  5.42669 105.254
1068.1  5.36369 104.904
1068.2  5.30965 104.599
1068.3  5.33617 104.694
1068.4  5.31945 104.719
1068.5  4.91445 104.115
1068.6  4.55715 103.545
1068.7  4.62861 103.291
1068.8  4.69906 102.997
1068.9  4.75956 102.361
1069.0  4.80699 101.651
1069.1  4.73699 100.282
1069.2  4.6764  98.9204
1069.3  4.70042 97.6146
1069.4  4.73096 96.2785
1069.5  4.82046 94.655
1069.6  4.90365 92.987
1069.7  4.93014 90.9198
1069.8  4.95085 89.0506
1069.9  4.91935 88.9866
1070.0  4.86707 89.1362
1070.1  4.62807 91.2052
1070.2  4.41885 93.3568
1070.3  4.47739 96.2551
1070.4  4.55213 99.0098
1070.5  4.77313 100.506
