# Выгружено из ПО "Атлас - Подсчет запасов"
############################################
~VERSION INFORMATION
#MNEM.UNIT                                    DATA : TYPE DESCRIPTION
VERS.                                         1.20 : CWLS LOG ASCII STANDARD_VERSION 1.20
WRAP.                                           NO : One line per depth step
############################################
~WELL INFORMATION
#MNEM.UNIT                                    DATA : TYPE DESCRIPTION
STRT.M                                         1.6 : Start depth
STOP.M                                      3100.5 : Stop depth
STEP.M                                         0.1 : Step
NULL.                                      -999.25 : Null Value
WELL.                                           14 : 14
X.                                        12543536 : X-coordinate of Well Head
Y.                                         8016266 : Y-coordinate of Well Head
RKB.                                          36.7 : RKB
############################################
~CURVE INFORMATION
#MNEM.UNIT                                    DATA : TYPE DESCRIPTION
DEPT.M                                             : DEPT
ГК.у.е.                                            : 
ПС.мВ                                              : 
############################################
~ASCII
# ...
2245.1  5.83683 114.47
2245.2  5.81393 114.108
2245.3  6.04321 113.849
2245.4  6.2731  113.618
2245.5  6.5141  113.641
2245.6  6.71323 113.699
2245.7  6.53594 114.063
2245.8  6.34291 114.447
2245.9  6.01281 114.991
2246.0  5.68451 115.546
2246.1  5.37964 116.176
2246.2  5.06911 116.782
2246.3  4.70015 117.18
2246.4  4.38425 117.546
2246.5  4.53675 117.628
2246.6  4.71215 117.687
2246.7  5.09268 117.542
2246.8  5.48306 117.381
2246.9  5.95248 117.083
2247.0  6.40393 116.802
2247.1  6.68327 116.679
2247.2  6.94291 116.558
2247.3  7.03202 116.458
2247.4  7.11455 116.383
2247.5  7.14005 116.523
2247.6  7.14773 116.651
2247.7  6.99542 116.669
2247.8  6.83637 116.692
2247.9  6.62064 116.761
2248.0  6.43491 116.818
2248.1  6.52402 116.761
2248.2  6.59639 116.7
2248.3  6.5203  116.598
2248.4  6.4558  116.493
2248.5  6.4938  116.36
2248.6  6.50512 116.231
2248.7  6.2769  116.137
2248.8  6.09263 116.056
2248.9  6.30836 116.091
2249.0  6.52207 116.138
2249.1  6.71281 116.288
2249.2  6.86363 116.435
2249.3  6.65988 116.567
2249.4  6.47955 116.699
2249.5  6.50505 116.831
2249.6  6.52925 116.965
2249.7  6.54174 117.128
2249.8  6.553   117.289
2249.9  6.553   117.443
2250.0  6.51871 117.604
2250.1  6.17579 117.829
2250.2  5.84763 118.029
2250.3  5.64388 118
2250.4  5.4521  117.979
2250.5  5.3631  118.03
2250.6  5.325   118.06
2250.7  5.74399 117.901
2250.8  6.16015 117.744
2250.9  6.54068 117.603
2251.0  6.8827  117.443
2251.1  6.86968 117.125
2251.2  6.84273 116.817
2251.3  6.69004 116.592
2251.4  6.553   116.389
2251.5  6.553   116.37
2251.6  6.56066 116.374
2251.7  6.63707 116.598
2251.8  6.68563 116.842
2251.9  6.48237 117.264
2252.0  6.28123 117.683
2252.1  6.10351 118.074
2252.2  5.94525 118.461
2252.3  5.95777 118.835
2252.4  6.00455 119.165
2252.5  6.36005 119.118
2252.6  6.66984 119.045
2252.7  6.56846 118.743
2252.8  6.46303 118.43
2252.9  6.3237  118.035
2253.0  6.18528 117.646
2253.1  6.05813 117.325
2253.2  5.95797 117.023
2253.3  6.09764 116.878
2253.4  6.2522  116.754
2253.5  6.5442  116.805
2253.6  6.82737 116.854
2253.7  7.03063 116.895
2253.8  7.19493 116.949
2253.9  7.00466 117.124
2254.0  6.82789 117.233
2254.1  6.77683 116.738
2254.2  6.74502 116.224
2254.3  6.88519 115.537
2254.4  7.00465 114.754
2254.5  6.94115 113.094
2254.6  6.87379 111.411
2254.7  6.77191 109.53
2254.8  6.66603 107.428
2254.9  6.5267  103.388
2255.0  6.40991 99.303
2255.1  6.49902 94.8926
2255.2  6.54721 90.3978
2255.3  6.22932 85.0363
2255.4  5.9262  79.8578
2255.5  5.7482  76.1958
2255.6  5.588   72.71
2255.7  5.588   70.8148
2255.8  5.59311 69.0643
2255.9  5.64404 68.6583
2256.0  5.68489 68.2675
2256.1  5.63383 68.0227
2256.2  5.57403 67.7803
2256.3  5.43436 67.5535
2256.4  5.3217  67.412
2256.5  5.4487  68.0326
2256.6  5.54393 68.7105
2256.7  5.35366 69.9025
2256.8  5.20363 71.2643
2256.9  5.41936 74.1209
2257.0  5.59743 76.9962
2257.1  5.43173 79.9783
2257.2  5.28555 83.0523
2257.3  5.31108 87.0257
2257.4  5.3429  90.9431
2257.5  5.4319  94.4541
2257.6  5.51836 97.964
2257.7  5.58178 101.455
2257.8  5.65807 104.854
2257.9  5.84834 107.332
2258.0  6.01239 109.723
2258.1  5.9363  111.261
2258.2  5.8705  112.686
2258.3  5.89553 113.129
2258.4  5.90915 113.485
2258.5  5.82065 113.079
2258.6  5.75917 112.52
2258.7  5.94045 110.595
2258.8  6.11291 108.586
2258.9  6.2018  105.876
2259.0  6.26418 103.108
2259.1  6.08596 99.8808
2259.2  5.92855 96.6825
2259.3  5.95408 93.6673
2259.4  5.95665 90.637
2259.5  5.75315 87.3976
2259.6  5.54071 84.1924
2259.7  5.24857 81.3034
2259.8  4.96082 78.3782
2259.9  4.71962 75.1975
2260.0  4.49564 72.0324
2260.1  4.43206 69.0763
2260.2  4.38902 66.0056
2260.3  4.52919 61.8315
2260.4  4.66515 58.1041
2260.5  4.76665 58.2957
2260.6  4.86691 58.4872
2260.7  4.9558  58.6784
2260.8  5.02328 58.9138
2260.9  4.89644 59.54
2261.0  4.77945 60.2116
2261.1  4.75392 61.2774
2261.2  4.74627 62.7282
2261.3  4.89895 67.6702
2261.4  5.02965 72.3062
2261.5  4.96615 74.3082
2261.6  4.90264 76.358
2261.7  4.83922 78.832
2261.8  4.77815 81.0959
2261.9  4.73969 81.4146
2262.0  4.70885 81.0806
2262.1  4.7474  74.8665
2262.2  4.79727 69.145
2262.3  4.94995 67.7047
2262.4  5.101   66.3826
2262.5  5.241   66.0886
2262.6  5.36825 65.8001
2262.7  5.38074 65.5614
2262.8  5.38184 65.2766
2262.9  5.28046 64.5839
2263.0  5.19371 63.8439
2263.1  5.24076 62.6925
2263.2  5.27284 61.544
2263.3  5.17121 60.3941
2263.4  5.05715 59.354
2263.5  4.82865 59.274
2263.6  4.623   59.194
2263.7  4.623   59.1146
2263.8  4.61284 59.9374
2263.9  4.51146 68.86
2264.0  4.42636 77.5507
2264.1  4.48994 83.9575
2264.2  4.56732 90.2979
2264.3  4.77057 96.1971
2264.4  4.96065 101.759
2264.5  5.03715 104.426
2264.6  -999.25 106.968
2264.7  -999.25 108.381
2264.8  -999.25 109.734
2264.9  -999.25 110.512
2265.0  -999.25 111.297
2265.1  -999.25 112.131
2265.2  -999.25 112.911
2265.3  -999.25 113.219
2265.4  -999.25 113.499
2265.5  -999.25 113.543
2265.6  -999.25 113.58
2265.7  -999.25 113.565
2265.8  -999.25 113.549
2265.9  -999.25 113.531
2266.0  -999.25 113.536
2266.1  -999.25 113.753
2266.2  -999.25 113.951
2266.3  -999.25 113.977
2266.4  -999.25 113.999
2266.5  -999.25 113.985
2266.6  -999.25 113.922
2266.7  -999.25 113.42
2266.8  -999.25 112.92
2266.9  -999.25 112.445
2267.0  -999.25 111.978
2267.1  -999.25 111.585
2267.2  6.54539 111.257
2267.3  6.4693  111.503
2267.4  6.4048  111.781
2267.5  6.4428  112.353
2267.6  6.48972 112.92
2267.7  6.61656 113.453
2267.8  6.75263 113.99
2267.9  6.96836 114.549
2268.0  7.14648 115.097
2268.1  6.98128 115.525
2268.2  6.83425 115.923
2268.3  6.84677 116.058
2268.4  6.8542  116.167
2268.5  6.8162  116.048
2268.6  6.77945 115.904
2268.7  6.75398 115.539
2268.8  6.71703 115.161
2268.9  6.5777  114.661
2269.0  6.4482  114.144
2269.1  6.41015 113.481
2269.2  6.37725 112.862
2269.3  6.38977 112.623
2269.4  6.37305 112.412
2269.5  6.09355 112.457
2269.6  5.82673 112.542
2269.7  5.67442 112.995
2269.8  5.55102 113.473
2269.9  5.69085 114.164
2270.0  5.83477 114.808
2270.1  6.01249 115.022
2270.2  6.19237 115.047
2270.3  6.39612 113.383
2270.4  6.58025 111.836
2270.5  6.59275 111.302
2270.6  6.59128 110.812
2270.7  6.46444 110.712
2270.8  6.34109 110.661
2270.9  6.2522  111.049
2271.0  6.15042 111.483
2271.1  5.93466 112.325
2271.2  5.73715 113.152
2271.3  5.6986  113.867
2271.4  5.67165 114.601
2271.5  5.74815 115.534
2271.6  5.85134 116.43
2271.7  6.19392 116.993
2271.8  6.52077 117.551
2271.9  6.69805 118.046
2272.0  6.85294 118.487
2272.1  6.80238 118.439
2272.2  6.7557  118.368
2272.3  6.74268 118.098
2272.4  6.731   117.832
2272.5  6.731   117.596
2272.6  6.73355 117.367
2272.7  6.75902 117.203
2272.8  6.78075 117.054
2272.9  6.76826 117.033
2273.0  6.7557  117.02
2273.1  6.74268 117.065
2273.2  6.73736 117.097
2273.3  6.80094 117.021
2273.4  6.86815 116.95
2273.5  6.96965 116.916
2273.6  7.04193 116.866
2273.7  6.85166 116.677
2273.8  6.66859 116.468
2273.9  6.55473 116.078
2274.0  6.45961 115.611
2274.1  6.5357  114.447
2274.2  6.58368 113.221
2274.3  6.38043 111.402
2274.4  6.19925 109.53
2274.5  6.21175 107.134
2274.6  6.21028 104.582
2274.7  6.08344 100.632
2274.8  5.95884 96.5338
2274.9  5.85746 91.2048
2275.0  5.7698  85.8859
2275.1  5.80785 80.7752
2275.2  5.83694 75.759
2275.3  5.78638 71.4687
2275.4  5.7689  67.4518
2275.5  6.0479  65.7903
2275.6  6.32193 64.1276
2275.7  6.55065 62.4582
2275.8  6.72902 60.8404
2275.9  6.44986 59.7267
2276.0  6.15855 58.6217
2276.1  5.76407 57.6185
2276.2  5.40329 56.632
2276.3  5.33621 55.7725
2276.4  5.2849  54.9074
2276.5  5.3739  53.9714
2276.6  5.44384 53.0479
2276.7  5.34246 52.2389
2276.8  5.25355 51.4432
2276.9  5.27902 50.787
2277.0  5.28928 50.1438
2277.1  5.16213 49.6322
2277.2  5.05816 49.1419
2277.3  5.15979 48.831
2277.4  5.25225 48.5363
2277.5  5.26475 48.3798
2277.6  5.26394 48.2446
2277.7  5.14358 48.3005
2277.8  5.02804 48.368
2277.9  4.95863 48.5378
2278.0  4.88459 48.6979
2278.1  4.77045 48.767
2278.2  4.68577 48.8167
2278.3  4.86349 48.6941
2278.4  5.0141  48.5556
2278.5  4.9251  48.2716
2278.6  4.85772 47.9954
