# Выгружено из ПО "Атлас - Подсчет запасов"
############################################
~VERSION INFORMATION
#MNEM.UNIT                                    DATA : TYPE DESCRIPTION
VERS.                                         1.20 : CWLS LOG ASCII STANDARD_VERSION 1.20
WRAP.                                           NO : One line per depth step
############################################
~WELL INFORMATION
#MNEM.UNIT                                    DATA : TYPE DESCRIPTION
STRT.M                                         1.6 : Start depth
STOP.M                                      3100.5 : Stop depth
STEP.M                                         0.1 : Step
NULL.                                      -999.25 : Null Value
WELL.                                           14 : 14
X.                                        12543536 : X-coordinate of Well Head
Y.                                         8016266 : Y-coordinate of Well Head
RKB.                                          36.7 : RKB
############################################
~CURVE INFORMATION
#MNEM.UNIT                                    DATA : TYPE DESCRIPTION
DEPT.M                                             : DEPT
ГК.у.е.                                            : 
ПС.мВ                                              : 
############################################
~ASCII
# ...
2043.7  5.79818 95.5578
2043.8  5.71937 92.0811
2043.9  5.50337 86.4086
2044.0  5.29628 80.8218
2044.1  5.16928 76.0053
2044.2  5.07276 71.1925
2044.3  5.25037 66.407
2044.4  5.40875 61.8123
2044.5  5.39625 58.8793
2044.6  5.3888  56.0043
2044.7  5.42678 53.6502
2044.8  5.44448 51.3444
2044.9  5.27948 49.5004
2045.0  5.10557 47.6908
2045.1  4.85157 46.1903
2045.2  4.60774 44.848
2045.3  4.45515 44.9281
2045.4  4.31675 45.5506
2045.5  4.30425 51.0496
2045.6  4.30441 56.5126
2045.7  4.41834 61.6519
2045.8  4.53246 66.7339
2045.9  4.64696 71.2374
2046.0  4.75    75.6732
2046.1  4.75    79.5007
2046.2  4.77667 83.2057
2046.3  5.04333 85.8122
2046.4  5.30843 88.4419
2046.5  5.56243 91.308
2046.6  5.81516 94.0885
2046.7  6.05652 96.1013
2046.8  6.26934 98.1563
2046.9  6.22284 100.567
2047.0  6.15807 102.861
2047.1  5.92907 104.105
2047.2  5.72935 105.336
2047.3  5.79289 106.461
2047.4  5.87163 107.498
2047.5  6.08763 107.762
2047.6  6.29731 107.983
2047.7  6.45022 107.814
2047.8  6.59561 107.615
2047.9  6.67161 107.149
2048.0  6.74891 106.646
2048.1  6.83802 105.816
2048.2  6.92055 104.97
2048.3  6.94608 103.959
2048.4  6.955   102.921
2048.5  6.815   101.609
2048.6  6.66863 100.292
2048.7  6.46537 98.9246
2048.8  6.27059 97.5283
2048.9  6.15673 95.9047
2049.0  6.04634 94.2711
2049.1  5.96975 92.582
2049.2  5.91627 90.926
2049.3  6.06895 89.5263
2049.4  6.20855 88.1672
2049.5  6.23405 87.1392
2049.6  6.26972 86.1
2049.7  6.39656 84.9623
2049.8  6.4728  84.0105
2049.9  6.09177 84.7541
2050.0  5.76582 85.4996
2050.1  5.94404 86.2455
2050.2  6.10655 86.9895
2050.3  6.13208 87.7349
2050.4  6.16775 88.3721
2050.5  6.29525 88.0531
2050.6  6.35779 87.239
2050.7  5.83692 81.9814
2050.8  5.35043 76.8112
2050.9  5.18513 72.5534
2051.0  5.06659 68.3123
2051.1  5.37246 64.3149
2051.2  5.66737 60.365
2051.3  5.87112 56.7451
2051.4  6.04125 53.2325
2051.5  5.91375 50.598
2051.6  5.79645 48.0036
2051.7  5.77098 45.7754
2051.8  5.72002 43.6603
2051.9  5.44086 42.6161
2052.0  5.17498 41.6154
2052.1  5.03481 41.0297
2052.2  4.89498 40.4841
2052.3  4.75481 40.2854
2052.4  4.64045 40.1171
2052.5  4.75495 40.2175
2052.6  4.85545 40.3202
2052.7  4.82998 40.4421
2052.8  4.81721 40.5606
2052.9  4.91909 40.646
2053.0  5.02882 40.7088
2053.1  5.20704 40.5666
2053.2  5.34027 40.4104
2053.3  5.07294 40.124
2053.4  4.82535 39.8471
2053.5  4.74885 39.6481
2053.6  4.68511 39.4844
2053.7  4.73604 39.6377
2053.8  4.77309 39.8064
2053.9  4.6842  40.1095
2054.0  4.6027  40.4228
2054.1  4.58968 40.8208
2054.2  4.59457 41.206
2054.3  4.76027 41.4858
2054.4  4.91665 41.7402
2054.5  4.99315 41.7727
2054.6  5.07341 41.7762
2054.7  5.18727 41.519
2054.8  5.30277 41.2348
2054.9  5.43011 40.7139
2055.0  5.53864 40.1843
2055.1  5.47506 39.5876
2055.2  5.40909 39.0243
2055.3  5.31998 38.7469
2055.4  5.21835 38.5132
2055.5  5.00185 38.6652
2055.6  4.79173 38.8933
2055.7  4.63942 39.8042
2055.8  4.52112 40.8415
2055.9  4.71189 42.9908
2056.0  4.88906 45.3515
2056.1  4.93962 49.5661
2056.2  4.95541 53.9152
2056.3  4.65955 59.5776
2056.4  4.3686  65.2171
2056.5  4.1146  70.7881
2056.6  3.85932 76.323
2056.7  3.59314 81.5201
2056.8  3.34664 86.5381
2056.9  3.28322 89.8211
2057.0  3.25779 93.075
2057.1  3.57568 95.9945
2057.2  3.88643 98.7624
2057.3  4.14074 100.236
2057.4  4.4198  101.634
2057.5  4.9278  102.381
2057.6  5.4219  103.038
2057.7  5.78995 102.884
2057.8  6.13852 102.686
2057.9  6.30332 102.099
2058.0  6.44054 101.496
2058.1  6.3259  100.758
2058.2  6.23572 99.9251
2058.3  6.36287 98.2266
2058.4  6.47445 96.7517
2058.5  6.44895 97.2482
2058.6  6.4235  97.7447
2058.7  6.39853 98.2406
2058.8  6.37089 98.7377
2058.9  6.31996 99.2331
2059.0  6.28036 99.6187
2059.1  6.34394 99.0054
2059.2  6.38573 98.2473
2059.3  6.23305 96.1703
2059.4  6.08585 94.3882
2059.5  5.98435 95.2096
2059.6  5.90572 96.054
2059.7  6.03256 97.1017
2059.8  6.13939 98.0829
2059.9  6.06348 98.4415
2060.0  6.00897 98.6791
2060.1  6.14864 97.8201
2060.2  6.28546 96.8996
2060.3  6.4001  95.4053
2060.4  6.49915 93.9038
2060.5  6.46065 92.3013
2060.6  6.43491 90.7084
2060.7  6.5238  89.2063
2060.8  6.59509 87.7161
2060.9  6.5062  86.3708
2061.0  6.43111 85.0368
2061.1  6.48217 83.8343
2061.2  6.50893 82.6745
2061.3  6.31819 81.8695
2061.4  6.1521  81.1535
2061.5  6.2031  81.2185
2061.6  6.22227 81.3637
2061.7  5.95559 82.2287
2061.8  5.70864 83.1522
2061.9  5.64522 84.581
2062.0  5.60072 86.0628
2062.1  5.72787 87.9912
2062.2  5.86107 89.9051
2062.3  6.05181 91.7358
2062.4  6.24205 93.5602
2062.5  6.43255 95.3727
2062.6  6.61802 97.1282
2062.7  6.75785 98.3666
2062.8  6.87128 99.6211
2062.9  6.74444 100.988
2063.0  6.61218 102.297
2063.1  6.43396 103.042
2063.2  6.25748 103.792
2063.3  6.09228 104.599
2063.4  5.9275  105.3
2063.5  5.7625  105.059
2063.6  5.60379 104.76
2063.7  5.50191 103.935
2063.8  5.40239 103.062
2063.9  5.32648 101.786
2064.0  5.258   100.537
2064.1  5.258   99.559
2064.2  5.27197 98.6717
2064.3  5.41164 98.5786
2064.4  5.55225 98.5956
2064.5  5.70475 99.6016
2064.6  5.85727 100.637
2064.7  6.00958 101.931
2064.8  6.16227 103.213
2064.9  6.31458 104.364
2065.0  6.44945 105.49
2065.1  6.42392 106.374
2065.2  6.39464 107.247
2065.3  6.33106 108.042
2065.4  6.2702  108.784
2065.5  6.2322  109.077
2065.6  6.20436 109.36
2065.7  6.26778 109.557
2065.8  6.33006 109.715
2065.9  6.38049 109.516
2066.0  6.43746 109.318
2066.1  6.5521  109.13
2066.2  6.67027 108.923
2066.3  6.82296 108.548
2066.4  6.93965 108.145
2066.5  6.73615 107.481
2066.6  6.53268 106.818
2066.7  6.32992 106.165
2066.8  6.1063  105.474
2066.9  5.7003  104.445
2067.0  5.29716 103.362
2067.1  4.92871 101.817
2067.2  4.56366 100.23
2067.3  4.22024 98.2317
2067.4  3.87135 96.2868
2067.5  3.46485 94.7748
2067.6  3.07357 93.3305
2067.7  2.81988 92.4975
2067.8  2.56427 91.7379
2067.9  2.29759 91.657
2068.0  2.02907 91.5846
2068.1  1.74973 91.5906
2068.2  1.49389 91.6288
2068.3  1.44283 91.9572
2068.4  1.404   92.269
2068.5  1.474   92.439
2068.6  1.55097 92.6168
2068.7  1.6903  92.8645
2068.8  1.82556 93.1045
2068.9  1.92095 93.2693
2069.0  2.00825 93.4489
2069.1  2.02077 93.7583
2069.2  2.0327  94.0634
2069.3  2.03971 94.3378
2069.4  2.0461  94.6283
2069.5  2.0471  95.0713
2069.6  2.05371 95.5487
2069.7  2.11064 96.3343
2069.8  2.17026 97.1615
2069.9  2.25266 98.3441
2070.0  2.3302  99.5304
2070.1  2.36224 100.724
2070.2  2.41898 101.896
2070.3  2.69883 102.892
2070.4  2.99325 103.844
2070.5  3.42575 104.419
2070.6  3.88759 104.962
2070.7  4.6117  105.217
2070.8  5.31341 105.448
2070.9  5.79632 105.461
2071.0  6.2702  105.459
2071.1  6.65216 105.332
2071.2  7.02173 105.217
2071.3  7.28906 105.217
2071.4  7.51755 105.209
2071.5  7.40305 105.133
2071.6  7.27963 105.051
2071.7  7.07637 104.924
2071.8  6.88028 104.689
2071.9  6.75344 103.49
2072.0  6.62498 102.204
2072.1  6.48481 100.159
2072.2  6.34879 97.9459
2072.3  6.24666 94.1753
2072.4  6.15885 90.4036
2072.5  6.19735 86.5296
2072.6  6.2307  82.618
2072.7  6.21771 78.3782
2072.8  6.18948 74.2622
2072.9  6.02468 71.3618
2073.0  5.87725 68.5379
2073.1  5.88977 66.4674
2073.2  5.89209 64.5457
2073.3  5.80298 63.913
2073.4  5.7141  63.3533
2073.5  5.6251  63.4363
2073.6  5.53479 63.7149
2073.7  5.43291 65.7484
2073.8  5.32573 67.8374
2073.9  5.17342 70.3748
2074.0  5.02328 73.0168
2074.1  4.89613 76.5446
2074.2  4.76543 79.9768
2074.3  4.59973 82.6351
2074.4  4.43445 85.2093
2074.5  4.26895 87.0923
2074.6  4.11109 88.8771
2074.7  4.0222  89.776
2074.8  3.95602 90.649
2074.9  4.09585 91.2678
2075.0  4.2233  91.9078
2075.1  4.23632 92.7258
2075.2  4.25691 93.5948
2075.3  4.34602 94.943
2075.4  4.4241  96.3719
2075.5  4.4051  98.5614
2075.6  4.3899  100.744
2075.7  4.40888 102.853
2075.8  4.43872 104.898
2075.9  4.56556 106.3
2076.0  4.70037 107.615
2076.1  4.90412 108.1
2076.2  5.05136 108.526
2076.3  4.69492 108.424
2076.4  4.34445 108.309
2076.5  4.03895 108.079
2076.6  3.73346 107.865
2076.7  3.42884 107.795
2076.8  3.14509 107.74
2076.9  3.0562  107.823
2077.0  3.0562  107.921
2077.1  3.85818 108.151
2077.2  4.67287 108.384
