# Выгружено из ПО "Атлас - Подсчет запасов"
############################################
~VERSION INFORMATION
#MNEM.UNIT                                    DATA : TYPE DESCRIPTION
VERS.                                         1.20 : CWLS LOG ASCII STANDARD_VERSION 1.20
WRAP.                                           NO : One line per depth step
############################################
~WELL INFORMATION
#MNEM.UNIT                                    DATA : TYPE DESCRIPTION
STRT.M                                         1.6 : Start depth
STOP.M                                      3100.5 : Stop depth
STEP.M                                         0.1 : Step
NULL.                                      -999.25 : Null Value
WELL.                                           14 : 14
X.                                        12543536 : X-coordinate of Well Head
Y.                                         8016266 : Y-coordinate of Well Head
RKB.                                          36.7 : RKB
############################################
~CURVE INFORMATION
#MNEM.UNIT                                    DATA : TYPE DESCRIPTION
DEPT.M                                             : DEPT
ГК.у.е.                                            : 
ПС.мВ                                              : 
############################################
~ASCII
# ...
2681.1  4.58956 102.307
2681.2  4.27648 102.824
2681.3  4.11128 102.951
2681.4  3.9744  103.093
2681.5  4.0884  103.373
2681.6  4.18084 103.638
2681.7  4.07946 103.765
2681.8  4.00197 103.902
2681.9  4.1413  104.125
2682.0  4.267   104.36
2682.1  4.267   104.697
2682.2  4.26785 105.01
2682.3  4.27636 105.105
2682.4  4.287   105.222
2682.5  4.317   105.528
2682.6  4.36307 105.818
2682.7  4.55334 105.963
2682.8  4.75679 106.042
2682.9  5.0739  105.513
2683.0  5.39304 104.735
2683.1  5.72344 101.735
2683.2  5.99076 98.3594
2683.3  5.69841 91.5336
2683.4  5.40805 85.3354
2683.5  5.12855 84.6189
2683.6  4.86574 83.9023
2683.7  4.75337 83.1872
2683.8  4.66582 82.8231
2683.9  4.80365 85.6272
2684.0  4.95468 88.5069
2684.1  5.22151 92.0056
2684.2  5.48898 95.487
2684.3  5.76883 98.8972
2684.4  6.04795 102.156
2684.5  6.32745 104.135
2684.6  6.60313 106.004
2684.7  6.84383 106.869
2684.8  7.06866 107.728
2684.9  7.14507 108.516
2685.0  7.22546 109.281
2685.1  7.3401  109.823
2685.2  7.42773 110.315
2685.3  7.27504 110.366
2685.4  7.1367  110.411
2685.5  7.1237  110.411
2685.6  7.1082  110.408
2685.7  7.07024 110.383
2685.8  7.0322  110.357
2685.9  6.99424 110.325
2686.0  6.9587  110.3
2686.1  6.94568 110.332
2686.2  6.94166 110.355
2686.3  7.01825 110.304
2686.4  7.0705  110.218
2686.5  6.9055  109.811
2686.6  6.72266 109.331
2686.7  6.38008 108.206
2686.8  6.05954 107.056
2686.9  5.94518 105.714
2687.0  5.86743 104.504
2687.1  6.12174 104.504
2687.2  6.34109 104.393
2687.3  6.25198 103.284
2687.4  6.1822  102.181
2687.5  6.2842  101.105
2687.6  6.36709 100.033
2687.7  6.2782  98.9969
2687.8  6.20691 97.9619
2687.9  6.2958  96.9636
2688.0  6.36709 95.9088
2688.1  6.27798 94.3664
2688.2  6.18018 92.8373
2688.3  6.00196 91.3906
2688.4  5.84075 90.0271
2688.5  5.82825 89.3775
2688.6  5.82841 88.7529
2688.7  5.94227 88.3523
2688.8  6.03994 87.9814
2688.9  5.98951 87.8861
2689.0  5.944   87.8191
2689.1  5.944   88.0104
2689.2  5.93889 88.2305
2689.3  5.88783 88.715
2689.4  5.81535 89.2467
2689.5  5.54885 90.2142
2689.6  5.3052  91.2838
2689.7  5.26724 93.2674
2689.8  5.21518 95.2189
2689.9  5.0374  96.8339
2690.0  4.86554 98.458
2690.1  4.7509  100.128
2690.2  4.63403 101.74
2690.3  4.49436 102.875
2690.4  4.39315 103.975
2690.5  4.63465 104.796
2690.6  4.88629 105.604
2690.7  5.22837 106.298
2690.8  5.56629 106.945
2690.9  5.85843 107.168
2691.0  6.14488 107.427
2691.1  6.37366 108.007
2691.2  6.60313 108.559
2691.3  6.84442 108.884
2691.4  7.0826  109.198
2691.5  7.2986  109.421
2691.6  7.50321 109.648
2691.7  7.60509 109.909
2691.8  7.6588  110.141
2691.9  7.27777 110.116
2692.0  6.94927 110.104
2692.1  7.10195 110.219
2692.2  7.25682 110.337
2692.3  7.43504 110.491
2692.4  7.57595 110.631
2692.5  7.38545 110.656
2692.6  7.20128 110.673
2692.7  7.07444 110.609
2692.8  6.97782 110.554
2692.9  7.1556  110.578
2693.0  7.32872 110.603
2693.1  7.45587 110.628
2693.2  7.54071 110.653
2693.3  7.24786 110.678
2693.4  6.985   110.702
2693.5  6.985   110.727
2693.6  7.00663 110.743
2693.7  7.22236 110.685
2693.8  7.39537 110.623
2693.9  7.17964 110.528
2694.0  -999.25 110.389
2694.1  -999.25 109.859
2694.2  -999.25 109.335
2694.3  -999.25 108.856
2694.4  -999.25 108.345
2694.5  -999.25 107.534
2694.6  -999.25 106.652
2694.7  -999.25 105.122
2694.8  -999.25 103.509
2694.9  -999.25 101.19
2695.0  5.80554 98.8836
2695.1  5.6909  96.75
2695.2  5.57023 94.6868
2695.3  5.39251 93.205
2695.4  5.24185 91.8284
2695.5  5.33035 91.3624
2695.6  5.40364 91.1155
2695.7  5.34022 92.8364
2695.8  5.29446 94.5499
2695.9  5.40882 96.1555
2696.0  5.53107 97.7669
2696.1  5.72181 99.3959
2696.2  5.91082 101.022
2696.3  6.08904 102.657
2696.4  6.264   104.233
2696.5  6.414   105.318
2696.6  6.54334 106.365
2696.7  6.48691 107.066
2696.8  6.4334  107.791
2696.9  6.40743 108.715
2697.0  6.40818 109.645
2697.1  6.64997 110.603
2697.2  6.87977 111.503
2697.3  7.00742 111.899
2697.4  7.1131  112.272
2697.5  7.0241  112.45
2697.6  6.95927 112.615
2697.7  7.11158 112.653
2697.8  7.2452  112.685
2697.9  7.20724 112.66
2698.0  7.18446 112.629
2698.1  7.2991  112.553
2698.2  7.39309 112.472
2698.3  7.30398 112.35
2698.4  7.2329  112.214
2698.5  7.3219  111.946
2698.6  7.39179 111.697
2698.7  7.28991 111.621
2698.8  7.21202 111.576
2698.9  7.35185 111.811
2699.0  7.46909 112.044
2699.1  7.37998 112.242
2699.2  7.31272 112.44
2699.3  7.43987 112.638
2699.4  7.5464  112.837
2699.5  7.4704  113.061
2699.6  7.41597 113.283
2699.7  7.5553  113.493
2699.8  7.67975 113.702
2699.9  7.66726 113.886
2700.0  7.67002 114.057
2700.1  7.81019 114.095
2700.2  7.92964 114.127
2700.3  7.86606 114.108
2700.4  7.8166  114.081
2700.5  7.8926  113.986
2700.6  7.98268 113.906
2700.7  8.19891 113.97
2700.8  8.36216 114.038
2700.9  8.04455 114.153
2701.0  7.77452 114.266
2701.1  7.93972 114.368
2701.2  8.09311 114.45
2701.3  8.14417 114.348
2701.4  8.19255 114.264
2701.5  8.21805 114.34
2701.6  8.21552 114.408
2701.7  7.96133 114.404
2701.8  7.75368 114.402
2701.9  7.96991 114.429
2702.0  8.15989 114.457
2702.1  8.10883 114.484
2702.2  8.06936 114.512
2702.3  8.13293 114.54
2702.4  8.19255 114.568
2702.5  8.21805 114.595
2702.6  8.26648 114.623
2702.7  8.52067 114.65
2702.8  8.76907 114.678
2702.9  8.95934 114.706
2703.0  9.13866 114.734
2703.1  9.21525 114.761
2703.2  9.26107 114.789
2703.3  9.03179 114.816
2703.4  8.80185 114.844
2703.5  8.56035 114.872
2703.6  8.35572 114.9
2703.7  8.48256 114.927
2703.8  8.60721 114.955
2703.9  8.70909 114.982
2704.0  8.76531 114.976
2704.1  8.40837 114.671
2704.2  8.04855 114.371
2704.3  7.65407 114.116
2704.4  7.31655 113.856
2704.5  7.48205 113.551
2704.6  7.64116 113.266
2704.7  7.74254 113.164
2704.8  7.80471 113.073
2704.9  7.51257 113.086
2705.0  7.27318 113.099
2705.1  7.51497 113.112
2705.2  7.72309 113.124
2705.3  7.63398 113.13
2705.4  7.5451  113.151
2705.5  7.4561  113.297
2705.6  7.37855 113.425
2705.7  7.40402 113.387
2705.8  7.43846 113.326
2705.9  7.55282 113.065
2706.0  7.66236 112.828
2706.1  7.72594 112.809
2706.2  7.79957 112.816
2706.3  7.96527 113.059
2706.4  8.10765 113.302
2706.5  8.04415 113.563
2706.6  8.00097 113.818
2706.7  8.1403  114.022
2706.8  8.2673  114.206
2706.9  8.28029 114.219
2707.0  8.28054 114.266
2707.1  8.1659  114.616
2707.2  8.07446 114.929
2707.3  8.1891  114.91
2707.4  8.29325 114.907
2707.5  8.30575 115.044
2707.6  8.29793 115.167
2707.7  8.10766 115.167
2707.8  7.92709 115.172
2707.9  7.8382  115.219
2708.0  7.74398 115.263
2708.1  7.60381 115.269
2708.2  7.51239 115.258
2708.3  7.85631 115.093
2708.4  8.1459  114.908
2708.5  7.9549  114.545
2708.6  7.77789 114.187
2708.7  7.72696 113.875
2708.8  7.65682 113.562
2708.9  7.41562 113.245
2709.0  7.18398 112.922
2709.1  7.04381 112.558
2709.2  6.92185 112.215
2709.3  6.9604  112.043
2709.4  7.01915 111.905
2709.5  7.26065 112.077
2709.6  7.48946 112.257
2709.7  7.60382 112.505
2709.8  7.68663 112.76
2709.9  7.48337 113.078
2710.0  7.31782 113.415
2710.1  7.49604 113.919
2710.2  7.68529 114.395
2710.3  7.97814 114.638
2710.4  8.2283  114.863
2710.5  8.1013  114.946
2710.6  7.9488  115.034
2710.7  7.56777 115.174
2710.8  7.21123 115.257
2710.9  7.08389 114.825
2711.0  6.93211 114.369
2711.1  6.56315 113.713
2711.2  6.21288 113.098
2711.3  6.02164 112.85
2711.4  5.87035 112.62
2711.5  6.07385 112.55
2711.6  6.28248 112.461
2711.7  6.53667 112.2
2711.8  6.79143 111.957
2711.9  7.04512 111.874
2712.0  7.25618 111.795
2712.1  7.07796 111.75
2712.2  6.92441 111.664
2712.3  6.98849 111.205
2712.4  7.0396  110.789
2712.5  6.9756  110.744
2712.6  6.92441 110.72
2712.7  6.98833 110.879
2712.8  7.07273 111.011
2712.9  7.33941 110.896
2713.0  7.58125 110.788
2713.1  7.59377 110.737
2713.2  7.58337 110.675
2713.3  7.36711 110.516
2713.4  7.15265 110.357
2713.5  6.94915 110.198
2713.6  6.74563 109.975
2713.7  6.54237 109.18
2713.8  6.36661 108.354
2713.9  6.44252 107.267
2714.0  6.48557 106.175
2714.1  6.23126 105.066
2714.2  5.98388 103.998
2714.3  5.79264 103.265
2714.4  5.61845 102.559
2714.5  5.59295 102.075
