# Выгружено из ПО "Атлас - Подсчет запасов"
############################################
~VERSION INFORMATION
#MNEM.UNIT                                    DATA : TYPE DESCRIPTION
VERS.                                         1.20 : CWLS LOG ASCII STANDARD_VERSION 1.20
WRAP.                                           NO : One line per depth step
############################################
~WELL INFORMATION
#MNEM.UNIT                                    DATA : TYPE DESCRIPTION
STRT.M                                         1.6 : Start depth
STOP.M                                      3100.5 : Stop depth
STEP.M                                         0.1 : Step
NULL.                                      -999.25 : Null Value
WELL.                                           14 : 14
X.                                        12543536 : X-coordinate of Well Head
Y.                                         8016266 : Y-coordinate of Well Head
RKB.                                          36.7 : RKB
############################################
~CURVE INFORMATION
#MNEM.UNIT                                    DATA : TYPE DESCRIPTION
DEPT.M                                             : DEPT
ГК.у.е.                                            : 
ПС.мВ                                              : 
############################################
~ASCII
# ...
2882.3  5.83992 109.833
2882.4  5.8043  109.795
2882.5  5.6773  109.865
2882.6  5.59098 109.923
2882.7  5.87014 109.879
2882.8  6.1245  109.819
2882.9  6.14947 109.628
2883.0  6.19363 109.447
2883.1  6.40989 109.358
2883.2  6.60145 109.276
2883.3  6.57592 109.257
2883.4  6.55685 109.224
2883.5  6.59535 109.065
2883.6  6.61093 108.894
2883.7  6.42066 108.614
2883.8  6.23373 108.342
2883.9  6.08142 108.138
2884.0  5.96177 107.915
2884.1  6.13949 107.527
2884.2  6.28123 107.151
2884.3  6.10351 106.876
2884.4  5.92495 106.616
2884.5  5.73445 106.476
2884.6  5.54773 106.354
2884.7  5.39542 106.392
2884.8  5.24654 106.416
2884.9  5.13218 106.321
2885.0  5.04557 106.245
2885.1  5.21127 106.347
2885.2  5.34598 106.454
2885.3  5.20581 106.6
2885.4  5.08635 106.764
2885.5  5.14985 107.082
2885.6  5.22352 107.401
2885.7  5.38832 107.718
2885.8  5.53064 108.037
2885.9  5.46722 108.355
2886.0  5.42657 108.674
2886.1  5.59227 108.992
2886.2  5.70666 109.31
2886.3  5.36324 109.629
2886.4  5.02705 109.944
2886.5  4.74755 110.23
2886.6  4.4922  110.507
2886.7  4.45424 110.698
2886.8  4.44543 110.877
2886.9  4.69912 110.947
2887.0  4.94452 111
2887.1  5.10972 110.905
2887.2  5.26946 110.779
2887.3  5.3841  110.377
2887.4  5.4984  109.983
2887.5  5.6124  109.646
2887.6  5.69848 109.33
2887.7  5.53368 109.209
2887.8  5.38755 109.095
2887.9  5.41302 109.044
2888.0  5.45127 109.018
2888.1  5.60395 109.216
2888.2  5.71171 109.404
2888.3  5.41886 109.519
2888.4  5.16745 109.619
2888.5  5.28195 109.594
2888.6  5.40152 109.549
2888.7  5.56632 109.326
2888.8  5.70864 109.108
2888.9  5.64522 108.943
2889.0  5.60707 108.783
2889.1  5.79781 108.668
2889.2  5.94993 108.564
2889.3  5.75919 108.551
2889.4  5.5804  108.562
2889.5  5.5044  108.778
2889.6  5.46398 108.992
2889.7  5.74314 109.183
2889.8  5.9988  109.395
2889.9  6.03676 109.796
2890.0  6.07225 110.183
2890.1  6.08477 110.444
2890.2  6.08709 110.703
2890.3  5.99798 110.946
2890.4  5.91165 111.184
2890.5  5.84815 111.394
2890.6  5.80246 111.599
2890.7  5.91682 111.758
2890.8  6.02816 111.939
2890.9  6.10956 112.321
2891.0  6.21299 112.681
2891.1  6.51285 112.84
2891.2  6.80363 112.982
2891.3  7.01989 112.976
2891.4  7.23685 112.98
2891.5  7.46535 113.075
2891.6  7.6723  113.173
2891.7  7.68529 113.287
2891.8  7.66516 113.406
2891.9  7.34755 113.559
2892.0  7.04323 113.721
2892.1  6.86551 113.97
2892.2  6.706   114.203
2892.3  6.706   114.298
2892.4  6.73015 114.388
2892.5  6.97165 114.426
2892.6  7.17498 114.456
2892.7  7.03515 114.418
2892.8  6.91661 114.359
2892.9  6.99252 114.111
2893.0  7.04068 113.883
2893.1  6.83743 113.845
2893.2  6.67532 113.819
2893.3  6.87857 113.895
2893.4  7.0585  113.979
2893.5  7.0335  114.138
2893.6  7.02241 114.299
2893.7  7.13627 114.464
2893.8  7.24155 114.609
2893.9  7.26702 114.571
2894.0  7.27984 114.526
2894.1  7.17821 114.424
2894.2  7.09716 114.338
2894.3  7.19879 114.389
2894.4  7.30145 114.432
2894.5  7.41595 114.4
2894.6  7.53427 114.367
2894.7  7.68658 114.322
2894.8  7.83416 114.283
2894.9  7.93554 114.289
2895.0  8.00537 114.293
2895.1  7.78911 114.287
2895.2  7.57593 114.278
2895.3  7.38519 114.24
2895.4  7.21145 114.196
2895.5  7.18595 114.107
2895.6  7.16555 114.032
2895.7  7.19102 114.083
2895.8  7.19237 114.137
2895.9  6.97664 114.22
2896.0  6.79597 114.296
2896.1  6.93564 114.319
2896.2  7.06485 114.336
2896.3  7.1034  114.304
2896.4  7.16085 114.272
2896.5  7.38935 114.24
2896.6  7.58354 114.209
2896.7  7.46918 114.177
2896.8  7.38763 114.145
2896.9  7.60336 114.113
2897.0  7.77768 114.081
2897.1  7.57443 114.049
2897.2  7.37338 114.018
2897.3  7.18715 113.986
2897.4  7.0391  113.954
2897.5  7.2301  113.922
2897.6  7.40961 113.89
2897.7  7.48552 113.858
2897.8  7.54128 113.827
2897.9  7.41444 113.795
2898.0  7.29745 113.764
2898.1  7.27192 113.748
2898.2  7.23884 113.734
2898.3  7.13721 113.734
2898.4  7.0549  113.734
2898.5  7.1439  113.734
2898.6  7.21509 113.734
2898.7  7.1262  113.734
2898.8  7.06507 113.734
2898.9  7.25534 113.734
2899.0  7.41554 113.734
2899.1  7.3009  113.734
2899.2  7.23109 113.737
2899.3  7.56199 113.763
2899.4  7.8692  113.792
2899.5  7.9712  113.845
2899.6  8.09995 113.898
2899.7  8.46849 113.952
2899.8  8.78443 114.005
2899.9  8.61913 114.058
2900.0  8.46364 114.111
2900.1  8.40007 114.164
2900.2  8.32263 114.217
2900.3  8.11888 114.27
2900.4  7.94105 114.323
2900.5  7.99155 114.376
2900.6  7.9963  114.429
2900.7  7.5903  114.482
2900.8  7.23036 114.535
2900.9  7.29378 114.588
2901.0  7.37263 114.634
2901.1  7.58889 114.618
2901.2  7.75882 114.596
2901.3  7.51703 114.511
2901.4  7.30255 114.426
2901.5  7.32805 114.341
2901.6  7.38154 114.256
2901.7  7.68616 114.172
2901.8  7.94193 114.086
2901.9  7.75166 114.002
2902.0  7.58    113.917
2902.1  7.58    113.832
2902.2  7.57359 113.747
2902.3  7.50951 113.662
2902.4  7.46475 113.577
2902.5  7.59225 113.493
2902.6  7.66245 113.414
2902.7  7.21799 113.395
2902.8  6.76989 113.342
2902.9  6.29997 112.981
2903.0  5.85943 112.637
2903.1  5.69373 112.459
2903.2  5.55646 112.302
2903.3  5.6711  112.334
2903.4  5.7727  112.375
2903.5  5.7597  112.509
2903.6  5.76837 112.661
2903.7  5.97163 112.985
2903.8  6.17923 113.309
2903.9  6.42093 113.633
2904.0  6.65427 113.947
2904.1  6.80695 114.163
2904.2  6.93123 114.373
2904.3  6.80358 114.532
2904.4  6.68775 114.684
2904.5  6.67525 114.786
2904.6  6.68437 114.894
2904.7  6.88763 115.065
2904.8  7.05573 115.227
2904.9  6.90342 115.297
2905.0  6.78893 115.349
2905.1  7.01821 115.234
2905.2  7.24563 115.112
2905.3  7.46189 114.908
2905.4  7.6522  114.718
2905.5  7.6142  114.648
2905.6  7.58636 114.592
2905.7  7.64978 114.662
2905.8  7.6688  114.748
2905.9  7.28777 114.976
2906.0  6.89559 115.167
2906.1  6.4115  115.021
2906.2  5.95537 114.853
2906.3  5.73911 114.478
2906.4  5.559   114.099
2906.5  5.699   113.68
2906.6  5.84282 113.308
2906.7  6.0206  113.372
2906.8  6.20263 113.442
2906.9  6.41836 113.576
2907.0  6.6168  113.722
2907.1  6.65485 113.983
2907.2  6.70177 114.244
2907.3  6.82942 114.511
2907.4  6.9389  114.763
2907.5  6.8879  114.897
2907.6  6.81397 115.014
2907.7  6.53431 114.982
2907.8  6.26168 114.956
2907.9  6.05892 114.975
2908.0  5.86834 114.999
2908.1  5.79175 115.069
2908.2  5.73066 115.117
2908.3  5.80725 114.964
2908.4  5.86835 114.803
2908.5  5.79185 114.561
2908.6  5.72555 114.305
2908.7  5.75102 113.918
2908.8  5.78927 113.56
2908.9  5.94158 113.471
2909.0  6.09682 113.383
2909.1  6.27504 113.3
2909.2  6.45027 113.216
2909.3  6.60295 113.114
2909.4  6.6968  113.013
2909.5  6.2648  112.911
2909.6  5.83395 112.807
2909.7  5.41446 112.68
2909.8  5.01182 112.538
2909.9  4.77062 112.259
2910.0  4.56316 111.951
2910.1  4.66479 111.391
2910.2  4.7522  110.835
2910.3  4.71415 110.294
2910.4  4.6991  109.81
2910.5  4.8901  109.816
2910.6  5.0607  109.813
2910.7  5.04771 109.724
2910.8  5.03345 109.664
2910.9  5.00798 109.86
2911.0  5.01429 110.069
2911.1  5.30714 110.374
2911.2  5.59293 110.663
2911.3  5.82221 110.809
2911.4  6.0407  110.978
2911.5  6.1677  111.359
2911.6  6.26168 111.72
2911.7  6.05892 111.898
2911.8  5.8798  112.087
2911.9  5.91776 112.372
2912.0  5.96216 112.663
2912.1  6.06379 113.007
2912.2  6.16011 113.34
2912.3  6.21117 113.595
2912.4  6.2697  113.833
2912.5  6.3967  113.928
2912.6  6.52121 114.024
2912.7  6.62309 114.118
2912.8  6.70479 114.223
2912.9  6.60291 114.413
2913.0  6.51741 114.585
2913.1  6.58149 114.585
2913.2  6.65427 114.588
2913.3  6.80695 114.613
2913.4  6.95415 114.66
2913.5  7.05565 114.895
2913.6  7.15977 115.103
2913.7  7.28711 115.071
2913.8  7.37016 115.04
2913.9  7.05255 115.008
2914.0  6.75198 114.986
2914.1  6.61181 115.056
2914.2  6.47579 115.135
2914.3  6.37366 115.294
2914.4  6.29475 115.443
2914.5  6.42225 115.513
2914.6  6.56498 115.582
2914.7  6.84414 115.639
2914.8  7.10111 115.705
2914.9  7.15204 115.858
2915.0  7.18909 116.016
2915.1  7.09998 116.226
2915.2  7.00598 116.431
2915.3  6.86581 116.596
2915.4  6.7413  116.756
2915.5  6.7543  116.87
2915.6  6.766   116.976
2915.7  6.766   117.008
