# Выгружено из ПО "Атлас - Подсчет запасов"
############################################
~VERSION INFORMATION
#MNEM.UNIT                                    DATA : TYPE DESCRIPTION
VERS.                                         1.20 : CWLS LOG ASCII STANDARD_VERSION 1.20
WRAP.                                           NO : One line per depth step
############################################
~WELL INFORMATION
#MNEM.UNIT                                    DATA : TYPE DESCRIPTION
STRT.M                                         1.6 : Start depth
STOP.M                                      3100.5 : Stop depth
STEP.M                                         0.1 : Step
NULL.                                      -999.25 : Null Value
WELL.                                           14 : 14
X.                                        12543536 : X-coordinate of Well Head
Y.                                         8016266 : Y-coordinate of Well Head
RKB.                                          36.7 : RKB
############################################
~CURVE INFORMATION
#MNEM.UNIT                                    DATA : TYPE DESCRIPTION
DEPT.M                                             : DEPT
ГК.у.е.                                            : 
ПС.мВ                                              : 
############################################
~ASCII
# ...
2479.9  6.27998 101.204
2480.0  6.24809 101.466
2480.1  6.15898 100.88
2480.2  6.09427 100.331
2480.3  6.24695 100.111
2480.4  6.4018  99.9335
2480.5  6.5798  100.129
2480.6  6.74511 100.35
2480.7  6.79604 100.803
2480.8  6.83689 101.257
2480.9  6.78596 101.71
2481.0  6.72603 102.164
2481.1  6.58636 102.618
2481.2  6.43677 103.03
2481.3  6.19448 103.075
2481.4  5.96175 103.093
2481.5  5.80925 102.877
2481.6  5.6682  102.668
2481.7  5.63024 102.516
2481.8  5.61252 102.364
2481.9  5.77732 102.218
2482.0  5.94132 102.082
2482.1  6.09451 102.044
2482.2  6.24727 101.972
2482.3  6.39995 101.59
2482.4  6.523   101.249
2482.5  6.383   101.262
2482.6  6.27482 101.348
2482.7  6.4526  102.083
2482.8  6.60284 102.768
2482.9  6.50146 102.977
2483.0  6.41636 103.186
2483.1  6.47994 103.39
2483.2  6.55863 103.579
2483.3  6.77489 103.636
2483.4  6.9474  103.706
2483.5  6.7314  103.897
2483.6  6.54716 104.16
2483.7  6.64854 105.08
2483.8  6.75402 105.974
2483.9  6.89385 106.615
2484.0  7.01364 107.18
2484.1  6.95006 107.053
2484.2  6.90702 106.926
2484.3  7.04719 106.799
2484.4  7.1806  106.677
2484.5  7.2566  106.601
2484.6  7.30207 106.504
2484.7  7.07335 106.225
2484.8  6.87085 105.924
2484.9  6.90931 105.436
2485.0  6.92873 104.97
2485.1  6.77604 104.715
2485.2  6.64406 104.462
2485.3  6.69462 104.207
2485.4  6.7489  104.004
2485.5  6.8379  104.259
2485.6  6.91039 104.513
2485.7  6.83448 104.767
2485.8  6.77361 105.021
2485.9  6.84952 105.275
2486.0  6.92946 105.529
2486.1  7.0441  105.784
2486.2  7.13809 106.037
2486.3  7.04898 106.292
2486.4  6.9563  106.522
2486.5  6.8293  106.541
2486.6  6.72261 106.559
2486.7  6.79852 106.565
2486.8  6.87341 106.569
2486.9  6.93733 106.556
2487.0  6.99115 106.537
2487.1  6.9526  106.461
2487.2  6.91294 106.399
2487.3  6.86238 106.456
2487.4  6.80935 106.489
2487.5  6.73285 106.311
2487.6  6.68182 106.138
2487.7  6.8596  106.004
2487.8  7.00854 105.887
2487.9  6.89418 105.919
2488.0  6.79355 105.954
2488.1  6.81908 106.018
2488.2  6.842   106.081
2488.3  6.842   106.145
2488.4  6.85725 106.194
2488.5  7.00975 106.115
2488.6  7.16102 106.035
2488.7  7.30085 105.956
2488.8  7.40407 105.876
2488.9  7.17535 105.797
2489.0  6.95118 105.702
2489.1  6.77296 105.463
2489.2  6.62066 105.255
2489.3  6.69725 105.319
2489.4  6.78505 105.382
2489.5  6.97555 105.446
2489.6  7.12282 105.509
2489.7  6.88162 105.573
2489.8  6.65764 105.587
2489.9  6.59422 105.156
2490.0  6.50641 104.663
2490.1  6.20054 103.627
2490.2  5.92475 102.632
2490.3  5.91223 101.989
2490.4  5.887   101.379
2490.5  5.747   101.036
2490.6  5.63377 100.716
2490.7  5.76111 100.608
2490.8  5.8365  100.546
2490.9  5.44248 100.896
2491.0  5.06282 101.253
2491.1  4.82103 101.662
2491.2  4.60906 102.07
2491.3  4.65962 102.478
2491.4  4.73425 102.886
2491.5  5.02675 103.294
2491.6  5.32184 103.703
2491.7  5.63945 104.11
2491.8  5.94893 104.519
2491.9  6.17765 104.927
2492.0  6.39927 105.336
2492.1  6.55195 105.744
2492.2  6.6903  106.125
2492.3  6.70332 106.261
2492.4  6.7366  106.37
2492.5  6.9526  106.234
2492.6  7.13173 106.097
2492.7  6.97942 105.962
2492.8  6.81652 105.825
2492.9  6.56233 105.69
2493.0  6.32154 105.586
2493.1  6.2069  105.775
2493.2  6.11041 105.963
2493.3  6.17449 106.152
2493.4  6.2536  106.341
2493.5  6.4696  106.529
2493.6  6.68182 106.718
2493.7  6.8596  106.907
2493.8  7.01875 107.096
2493.9  7.00626 107.284
2494.0  7.00136 107.473
2494.1  7.06494 107.662
2494.2  7.1182  107.851
2494.3  7.08015 108.04
2494.4  7.03545 108.183
2494.5  6.92995 107.919
2494.6  6.84807 107.655
2494.7  6.97841 107.392
2494.8  7.10621 107.13
2494.9  7.20809 106.876
2495.0  7.28473 106.644
2495.1  7.13205 106.612
2495.2  6.9988  106.6
2495.3  7.03685 106.772
2495.4  7.0608  106.956
2495.5  6.9588  107.254
2495.6  6.8683  107.554
2495.7  6.88129 107.865
2495.8  6.88028 108.196
2495.9  6.75344 108.704
2496.0  6.65427 109.195
2496.1  6.80695 109.525
2496.2  6.95546 109.799
2496.3  7.0701  109.57
2496.4  7.15645 109.315
2496.5  6.99095 108.82
2496.6  6.82418 108.36
2496.7  6.6464  108.221
2496.8  6.46943 108.045
2496.9  6.30413 107.543
2497.0  6.1512  107.07
2497.1  6.11315 106.86
2497.2  6.07134 106.703
2497.3  5.99475 107.015
2497.4  5.90695 107.358
2497.5  5.71645 108
2497.6  5.56027 108.602
2497.7  5.71258 108.85
2497.8  5.89455 109.065
2497.9  6.33901 108.989
2498.0  6.76037 108.906
2498.1  6.96412 108.766
2498.2  7.13298 108.642
2498.3  6.99281 108.655
2498.4  6.8772  108.599
2498.5  6.9792  107.932
2498.6  7.06589 107.323
2498.7  7.01496 107.235
2498.8  6.9652  107.16
2498.9  6.92724 107.206
2499.0  6.90446 107.253
2499.1  7.0191  107.3
2499.2  7.11689 107.347
2499.3  7.06583 107.393
2499.4  7.00345 107.44
2499.5  6.83795 107.487
2499.6  6.67118 107.554
2499.7  6.4934  107.805
2499.8  6.34832 108.075
2499.9  6.50113 108.498
2500.0  6.6428  108.937
2500.1  6.68085 109.495
2500.2  6.74173 109.998
2500.3  7.00906 110.017
2500.4  7.2617  110.043
2500.5  7.3887  110.138
2500.6  7.50045 110.23
2500.7  7.47498 110.292
2500.8  7.45841 110.303
2500.9  7.52233 109.868
2501.0  7.56343 109.449
2501.1  7.39773 109.175
2501.2  7.25155 108.902
2501.3  7.27708 108.627
2501.4  7.30255 108.367
2501.5  7.32805 108.23
2501.6  7.33573 108.107
2501.7  7.18342 108.107
2501.8  7.05106 108.107
2501.9  7.10149 108.107
2502.0  7.17248 108.107
2502.1  7.42729 108.107
2502.2  7.63182 108.107
2502.3  7.39003 108.107
2502.4  7.1679  108.071
2502.5  7.1169  107.716
2502.6  7.071   107.327
2502.7  7.071   106.642
2502.8  7.08372 105.96
2502.9  7.21056 105.319
2503.0  7.30718 104.672
2503.1  7.12896 103.979
2503.2  6.95118 103.3
2503.3  6.77296 102.728
2503.4  6.6041  102.122
2503.5  6.5151  101.207
2503.6  6.45157 100.242
2503.7  6.61687 98.8208
2503.8  6.73161 97.4227
2503.9  6.38853 96.2621
2504.0  6.05227 95.0738
2504.1  5.78494 93.6621
2504.2  5.51952 92.2799
2504.3  5.26471 91.129
2504.4  5.0411  89.6713
2504.5  5.0921  85.4243
2504.6  5.14946 81.1072
2504.7  5.26382 76.1712
2504.8  5.37846 71.3313
2504.9  5.49282 67.474
2505.0  5.59725 63.6222
2505.1  5.60977 59.9042
2505.2  5.60573 56.2339
2505.3  5.45304 52.9034
2505.4  5.32235 49.625
2505.5  5.38585 46.7355
2505.6  5.4443  43.9999
2505.7  5.45729 42.652
2505.8  5.45623 41.3009
2505.9  5.32889 39.953
2506.0  5.21145 38.6989
2506.1  5.18592 38.3179
2506.2  5.15664 37.9463
2506.3  5.09306 37.6489
2506.4  5.02455 37.3961
2506.5  4.91005 37.5371
2506.6  4.79684 37.6781
2506.7  4.69546 37.8184
2506.8  4.59254 37.9591
2506.9  4.47818 38.0999
2507.0  4.37625 38.2411
2507.1  4.38877 38.3823
2507.2  4.41657 38.6168
2507.3  4.58227 39.6946
2507.4  4.73355 40.7698
2507.5  4.75905 41.8484
2507.6  4.77309 42.9711
2507.7  4.6842  44.4882
2507.8  4.61161 46.0532
2507.9  4.68752 48.0108
2508.0  4.72927 49.9732
2508.1  4.46194 51.9356
2508.2  4.23857 53.8932
2508.3  4.40427 55.8556
2508.4  4.56315 58.7919
2508.5  4.66465 70.5409
2508.6  4.7993  81.253
2508.7  5.23127 82.6298
2508.8  5.67577 84.0831
2508.9  6.2221  86.189
2509.0  6.70479 88.2867
2509.1  6.60266 90.2642
2509.2  6.5123  92.2698
2509.3  6.52532 94.5781
2509.4  6.5052  96.6646
2509.5  6.1872  96.8106
2509.6  5.87807 96.8638
2509.7  5.64935 96.0838
2509.8  5.45827 95.2806
2509.9  5.61058 94.2888
2510.0  5.748   93.3395
2510.1  5.748   92.7943
2510.2  5.73654 92.3132
2510.3  5.6219  92.3953
2510.4  5.5025  92.4779
2510.5  5.3375  92.5669
2510.6  5.18134 92.5848
2510.7  5.10493 91.9646
2510.8  5.04281 91.3447
2510.9  5.11072 90.7435
2511.0  5.17666 90.1915
2511.1  5.22321 90.0964
2511.2  5.25989 90.018
2511.3  5.20883 90.0875
2511.4  5.177   90.1241
2511.5  5.317   89.8645
2511.6  5.45702 89.5885
2511.7  5.59685 89.1645
2511.8  5.70773 88.7147
2511.9  5.55542 88.0435
2512.0  5.39632 87.3441
2512.1  5.17956 86.4055
2512.2  4.97354 85.4856
2512.3  4.8589  84.7117
2512.4  4.7573  84.0005
2512.5  4.7703  83.8355
2512.6  4.80618 83.7676
2512.7  5.04738 84.5716
2512.8  5.28507 85.3991
2512.9  5.48533 86.4179
2513.0  5.69433 87.5115
2513.1  5.97768 89.2561
2513.2  6.24727 91.0599
2513.3  6.39995 93.4388
2513.4  6.56495 95.7311
