# Выгружено из ПО "Атлас - Подсчет запасов"
############################################
~VERSION INFORMATION
#MNEM.UNIT                                    DATA : TYPE DESCRIPTION
VERS.                                         1.20 : CWLS LOG ASCII STANDARD_VERSION 1.20
WRAP.                                           NO : One line per depth step
############################################
~WELL INFORMATION
#MNEM.UNIT                                    DATA : TYPE DESCRIPTION
STRT.M                                         1.6 : Start depth
STOP.M                                      3100.5 : Stop depth
STEP.M                                         0.1 : Step
NULL.                                      -999.25 : Null Value
WELL.                                           14 : 14
X.                                        12543536 : X-coordinate of Well Head
Y.                                         8016266 : Y-coordinate of Well Head
RKB.                                          36.7 : RKB
############################################
~CURVE INFORMATION
#MNEM.UNIT                                    DATA : TYPE DESCRIPTION
DEPT.M                                             : DEPT
ГК.у.е.                                            : 
ПС.мВ                                              : 
############################################
~ASCII
# ...
1439.9  6.0368  68.3163
1440.0  6.08627 70.3472
1440.1  6.23877 72.3773
1440.2  6.38871 74.0017
1440.3  6.51579 71.979
1440.4  6.64397 70.0596
1440.5  6.78347 69.0471
1440.6  6.89504 68.0905
1440.7  6.75563 67.6363
1440.8  6.61728 67.1762
1440.9  6.49028 66.6687
1441.0  6.35943 66.3179
1441.1  6.19393 67.3759
1441.2  6.06791 68.5075
1441.3  6.29705 70.3021
1441.4  6.52332 72.1741
1441.5  6.72632 74.7621
1441.6  6.9014  77.7655
1441.7  6.82544 84.5018
1441.8  6.76716 90.5879
1441.9  6.86866 90.7469
1442.0  6.95364 90.4765
1442.1  6.89014 86.3465
1442.2  6.8292  82.2164
1442.3  6.79117 78.0809
1442.4  6.757   74.364
1442.5  6.757   74.364
1442.6  6.7557  74.8646
1442.7  6.74271 79.864
1442.8  6.71703 84.7697
1442.9  6.57753 88.7717
1443.0  6.44309 92.1716
1443.1  6.35409 90.1596
1443.2  6.29561 88.1475
1443.3  6.51174 86.1328
1443.4  6.69328 84.3047
1443.5  6.56628 84.1322
1443.6  6.46851 84.1439
1443.7  6.63341 85.8109
1443.8  6.76928 87.2026
1443.9  6.64228 86.0996
1444.0  6.52925 84.7189
1444.1  6.54175 80.8429
1444.2  6.55175 76.9669
1444.3  6.53924 73.0855
1444.4  6.55088 69.7985
1444.5  6.77938 71.8115
1444.6  6.97609 73.6102
1444.7  6.88715 73.4828
1444.8  6.82482 73.2936
1444.9  7.00282 72.5501
1445.0  7.14903 71.7676
1445.1  7.00953 70.6346
1445.2  6.88695 69.5447
1445.3  6.91647 68.8412
1445.4  6.95146 68.1338
1445.5  7.03596 67.3828
1445.6  7.09929 66.6749
1445.7  6.97237 66.3546
1445.8  6.8542  66.0329
1445.9  6.8162  65.7024
1446.0  6.77184 65.4691
1446.1  6.67034 66.1091
1446.2  6.57009 66.8262
1446.3  6.48104 68.238
1446.4  6.39084 69.8037
1446.5  6.28934 72.7667
1446.6  6.20305 75.7238
1446.7  6.25352 78.6286
1446.8  6.31302 81.5631
1446.9  6.45302 84.7301
1447.0  6.59552 87.2906
1447.1  6.76052 84.3995
1447.2  6.88739 81.4797
1447.3  6.67126 78.2968
1447.4  6.48846 75.0905
1447.5  6.60296 71.64
1447.6  6.69584 68.3579
1447.7  6.59441 66.5895
1447.8  6.47882 64.8865
1447.9  6.23732 63.7925
1448.0  6.02255 62.786
1448.1  6.04805 62.566
1448.2  6.0672  62.3942
1448.3  6.02917 62.6564
1448.4  6.00772 63.0447
1448.5  6.13472 64.5702
1448.6  6.26171 66.1993
1448.7  6.38863 68.7592
1448.8  6.51952 71.4294
1448.9  6.68452 75.0589
1449.0  6.85082 78.669
1449.1  7.02882 82.105
1449.2  7.20421 85.4603
1449.3  7.3563  88.0934
1449.4  7.47778 90.6691
1449.5  7.32578 92.7576
1449.6  7.20296 94.8814
1449.7  7.34237 97.3224
1449.8  7.47561 99.3844
1449.9  7.55161 98.0099
1450.0  7.60093 96.6043
1450.1  7.41043 94.9198
1450.2  7.24665 93.108
1450.3  7.3232  90.1477
1450.4  7.35636 87.1918
1450.5  7.00036 84.2433
1450.6  6.65078 81.3023
1450.7  6.35896 78.4291
1450.8  6.10366 75.5508
1450.9  6.18016 72.6628
1451.0  6.24645 70.0767
1451.1  6.22095 70.2037
1451.2  6.18784 70.3308
1451.3  6.08628 70.4583
1451.4  6.01152 70.5411
1451.5  6.17652 70.2226
1451.6  6.33135 69.8596
1451.7  6.39481 69.096
1451.8  6.46091 68.3315
1451.9  6.54991 67.567
1452.0  6.60707 66.8896
1452.1  6.37807 66.9956
1452.2  6.17075 67.8658
1452.3  6.15824 75.6141
1452.4  6.17243 82.9536
1452.5  6.42643 86.7051
1452.6  6.67151 90.2394
1452.7  6.83641 91.822
1452.8  7.00157 93.2751
1452.9  7.16707 93.5461
1453.0  7.31215 93.6651
1453.1  7.27365 92.4181
1453.2  7.21869 91.0941
1453.3  7.01556 89.0748
1453.4  6.8292  87.0581
1453.5  6.7912  85.0416
1453.6  6.7646  83.0252
1453.7  6.84056 81.01
1453.8  6.90264 78.992
1453.9  6.83914 76.974
1454.0  6.76293 74.9561
1454.1  6.57243 72.9396
1454.2  6.39975 71.0241
1454.3  6.38724 70.015
1454.4  -999.25 69.2188
1454.5  -999.25 70.3258
1454.6  -999.25 71.385
1454.7  -999.25 72.0141
1454.8  -999.25 72.6102
1454.9  -999.25 72.9017
1455.0  6.71361 73.2392
1455.1  6.78961 73.9902
1455.2  6.85545 74.8196
1455.3  6.82993 76.3561
1455.4  6.82737 77.9487
1455.5  7.03088 80.0632
1455.6  7.21145 82.3345
1455.7  7.18596 86.0147
1455.8  7.15664 88.9677
1455.9  7.09314 85.3387
1456.0  7.02328 81.8711
1456.1  6.89628 79.8541
1456.2  6.7744  77.6878
1456.3  6.69835 74.1756
1456.4  6.62109 70.9977
1456.5  6.53209 70.7852
1456.6  6.44435 70.5927
1456.7  6.36789 70.5797
1456.8  6.29394 70.5441
1456.9  6.24344 70.3056
1457.0  6.2018  70.0578
1457.1  6.2398  69.7258
1457.2  6.2664  69.427
1457.3  6.19035 69.427
1457.4  6.11179 69.427
1457.5  6.00979 69.427
1457.6  5.92821 69.4748
1457.7  6.03014 69.952
1457.8  6.11689 70.7201
1457.9  6.06589 74.0971
1458.0  6.02891 77.4739
1458.1  6.11791 80.8489
1458.2  6.20816 84.0549
1458.3  6.30972 85.7434
1458.4  6.40611 87.1463
1458.5  6.45711 86.0003
1458.6  6.4979  84.7396
1458.7  6.44693 82.4485
1458.8  6.39379 80.1543
1458.9  6.32179 77.8603
1459.0  6.24809 75.4349
1459.1  6.15909 71.8279
1459.2  6.07135 68.24
1459.3  5.9948  64.8205
1459.4  5.92094 61.5988
1459.5  5.87044 60.1183
1459.6  5.82115 58.6037
1459.7  5.78267 56.7828
1459.8  5.75821 55.03
1459.9  5.86021 53.911
1460.0  5.96602 52.7914
1460.1  6.10602 51.6664
1460.2  6.22309 50.6117
1460.3  6.13404 50.189
1460.4  6.02471 49.8234
1460.5  5.73221 49.9669
1460.6  5.4728  50.1438
1460.7  5.51078 50.6215
1460.8  5.54245 51.1377
1460.9  5.51695 51.9937
1461.0  5.50927 52.8165
1461.1  5.66177 53.341
1461.2  5.79775 53.8444
1461.3  5.78524 54.1586
1461.4  5.77911 54.4177
1461.5  5.83011 54.1847
1461.6  5.89506 53.9195
1461.7  6.08545 53.3648
1461.8  6.23537 52.7595
1461.9  6.01937 51.7055
1462.0  5.81098 50.6826
1462.1  5.67098 49.9391
1462.2  5.5488  49.2274
1462.3  5.58683 48.8017
1462.4  5.61845 48.4232
1462.5  5.59295 48.4652
1462.6  5.56109 48.5562
1462.7  5.47215 49.0879
1462.8  5.40727 49.6467
1462.9  5.55977 50.4427
1463.0  5.72759 51.2736
1463.1  6.03309 52.4186
1463.2  6.32071 53.5492
1463.3  6.44779 54.5508
1463.4  6.53782 55.532
1463.5  6.29632 56.3415
1463.6  6.09046 57.1256
1463.7  6.20489 57.6807
1463.8  6.32327 58.1758
1463.9  6.47577 58.1238
1464.0  6.59263 58.0397
1464.1  6.38912 57.6672
1464.2  6.20345 57.2993
1464.3  6.17793 56.9721
1464.4  6.155   56.7065
1464.5  6.155   56.9915
1464.6  6.155   57.3354
1464.7  6.155   58.2084
1464.8  6.15245 59.1001
1464.9  6.12695 60.1496
1465.0  6.10275 61.1935
1465.1  6.09025 62.1875
1465.2  6.09811 63.1788
1465.3  6.28923 64.1463
1465.4  6.45204 65.1029
1465.5  6.36254 65.9709
1465.6  6.29476 66.8389
1465.7  6.42218 67.7069
1465.8  6.53164 68.5297
1465.9  6.47814 68.9368
1466.0  6.41753 69.3228
1466.1  6.29304 69.5203
1466.2  6.19246 69.6573
1466.3  6.30703 69.2506
1466.4  6.42907 68.8088
1466.5  6.61957 68.0478
1466.6  6.7834  67.284
1466.7  6.70744 66.4944
1466.8  6.63389 65.7123
1466.9  6.58289 65.0063
1467.0  6.54336 64.3375
1467.1  6.60686 64.0025
1467.2  6.64744 63.7001
1467.3  6.48184 63.6911
1467.4  6.34066 63.7521
1467.5  6.41716 64.4426
1467.6  6.48475 65.1423
1467.7  6.47226 65.9249
1467.8  6.45459 66.7116
1467.9  6.39059 67.5266
1468.0  6.35848 68.3562
1468.1  6.61298 69.3172
1468.2  6.83054 70.2738
1468.3  6.71597 71.1913
1468.4  6.62191 72.2212
1468.5  6.71091 74.2707
1468.6  6.78084 76.0194
1468.7  6.67941 75.0645
1468.8  6.59816 74.1083
1468.9  6.69966 73.1528
1469.0  6.78339 72.1973
1469.1  6.70739 71.2418
1469.2  6.64535 71.0742
1469.3  6.70889 77.9964
1469.4  6.74177 84.6277
1469.5  6.49977 88.7192
1469.6  6.30236 92.7493
1469.7  6.50574 96.2282
1469.8  6.67373 99.3471
1469.9  6.52123 99.1881
1470.0  6.36363 98.517
1470.1  6.16013 93.243
1470.2  5.98591 88.2312
1470.3  6.07496 85.5736
1470.4  6.16902 82.949
1470.5  6.30902 80.592
1470.6  6.43245 78.3671
1470.7  6.40696 77.3298
1470.8  6.37384 76.4766
1470.9  6.27234 77.2916
1471.0  6.177   77.8736
1471.1  6.137   76.3616
1471.2  6.08589 74.8496
1471.3  5.9348  73.3357
1471.4  5.81682 72.2715
1471.5  5.99482 75.233
1471.6  6.16776 78.0777
1471.7  6.29518 79.8726
1471.8  6.42272 81.5956
1471.9  6.54972 82.6501
1472.0  6.65384 83.846
1472.1  6.55234 86.3136
1472.2  6.4635  88.8527
1472.3  6.48852 92.0396
1472.4  6.51355 94.7128
1472.5  6.53905 92.8028
1472.6  6.5544  90.8928
1472.7  6.47844 88.9835
1472.8  6.40109 87.0716
1472.9  6.31209 85.1596
1473.0  6.23961 83.2266
1473.1  6.31561 81.1056
1473.2  6.39421 79.0466
1473.3  6.49627 77.5427
1473.4  6.58545 76.0979
